electr_supervise_no,id,province,city,district,location,bd_lat,bd_lon,tdt_lat,tdt_lon,flag
"1502002012B00428","c5ad1314-88e8-45b4-88b7-78df094d7fce","内蒙古","包头市","九原区","包头稀土高新区滨河新区",40.584457,109.912557,40.587008,109.917088,1
"1502002012B00438","045e8e72-195c-43b8-9fd4-d3917227e833","内蒙古","包头市","九原区","包头稀土高新区滨河新区",40.584457,109.912557,40.587008,109.917088,1
"1502222009B00279","39395293-731c-4c99-95b8-c824224c1360","内蒙古","包头市","固阳县","固阳县包白公路西",41.040163,110.066433,41.015460,110.052112,1
"1502222008B00037","4613b429-0c7b-4fa9-a30d-baa2a8cda72c","内蒙古","包头市","固阳县","固阳县金山镇阿拉塔街西侧",41.013634,110.050832,41.029048,110.058000,1
"1502212015B00065","1e66b034-bac4-4bae-9c56-44f26ebaf911","内蒙古","包头市","土默特右旗","萨拉齐镇小袄兑村，萨凉公路北侧，鑫隆佳苑一期南侧，东西两侧均为村庄",40.554099,110.565283,40.547160,110.552928,1
"1502002011B00579","593d85d7-1dac-4ad3-befe-de51aeab3e33","内蒙古","包头市","昆都仑区","昆区团结大街9号街坊",40.676440,109.832707,40.666148,109.804136,1
"1502052011B00421","b11f4157-b72f-4066-810a-a22074745a14","内蒙古","包头市","石拐区","石拐区五当召镇白草沟村",40.690250,110.261661,40.790616,110.307792,1
"1502052011B00447","45643c4d-3b6d-401c-87b0-72bebb867dce","内蒙古","包头市","石拐区","石拐区五当召镇白草沟村",40.690250,110.261661,40.790616,110.307792,1
"1502212014B00467","2b67609a-07a2-40bc-9f17-8175b6c31671","内蒙古","包头市","土默特右旗","明沙淖乡黄河大桥引道西侧",40.453224,110.506148,40.531132,110.234280,1
"1502002012B01862","d0121577-d35a-4513-8372-9aaa8ea87b68","内蒙古","包头市","青山区","青山区文化路南侧、自由路东侧（交叉路口东南角）",40.664361,109.897457,40.676040,109.857496,1
"1502052014B00018","112c97ac-1e10-4841-8c9f-7c0293f6c762","内蒙古","包头市","石拐区","石拐区大德恒办事处开州窑子村",40.678299,110.278381,40.695432,110.267400,1
"1502212008B00045","c950a49e-abe6-4915-9fc1-d5f857701ee8","内蒙古","包头市","土默特右旗","沟门镇110国道北侧",40.602064,110.665581,40.595528,110.512488,1
"1502052011B00389","0dc990df-9b96-4cc1-aa65-6d53168bd9f8","内蒙古","包头市","石拐区","石拐区五当召镇白草沟村",40.690250,110.261661,40.790616,110.307792,1
"1502232015B00055","c2798bf3-c80f-43a8-b43b-ba40a9296ae4","内蒙古","包头市","达尔罕茂明安联合旗","达茂旗百灵庙镇黄花滩水库南侧",41.705509,110.442479,41.625044,110.559816,1
"1502062013B00019","134234c8-dcc4-4e9e-91d6-0ef497c87089","内蒙古","包头市","白云鄂博矿区","丁道衡路西侧",41.772877,109.969455,40.656200,109.834528,1
"1502212009B00427","78f19803-74c6-43c8-9d6d-c4411c83783f","内蒙古","包头市","土默特右旗","萨拉齐镇137铁路线东侧",40.567326,110.529919,40.555128,110.517368,1
"1502002009B01374","2a3f0594-2959-440e-9b82-a5ac68730413","内蒙古","包头市","九原区","高新区稀土园区",40.594570,109.928570,40.618788,109.846672,1
"1502212008B00138","4cfb50d4-b0c4-4e32-bcc4-2a1eb0c79083","内蒙古","包头市","土默特右旗","萨拉齐镇果园小区西侧",40.572284,110.521398,40.564152,110.023272,1
"1502212008B00155-1","53099618-1b49-4e72-af5d-a9ee7e376657A","内蒙古","包头市","昆都仑区","137铁路专用线东侧",40.662929,109.846544,40.656200,109.834528,1
"1502212009B00399","8a92ccfe-5a61-4e74-b093-cecd1ee58406","内蒙古","包头市","土默特右旗","沟门镇高速公路连接线东侧",40.588717,110.547926,40.536304,110.241016,1
"1502222013B00288","dd5fb76e-c5d8-4061-87ca-ea985e27be58","内蒙古","包头市","固阳县","金山镇新区A1-02(部分)地块",41.013634,110.050832,40.574100,110.018400,1
"1502222009B01273","2a45e1f1-8e7b-43e8-965f-e9b6c1fbc1b4","内蒙古","包头市","固阳县","固阳县光荣街西侧",41.034539,110.076297,41.032400,110.054592,1
"1502002011B01167-1","dda07ea1-233a-4dd3-b63d-68fbc8a7b41d","内蒙古","包头市","昆都仑区","昆区友谊大街南、民族西路东侧，昆区友谊18号街坊",40.648560,109.832418,40.650188,109.796192,1
"1502062011B00179","6eddc0b3-5dca-4755-97fe-774790c7daa2","内蒙古","包头市","昆都仑区","稀土路南，广场西路西",40.662929,109.846544,40.631216,109.868952,1
"1502222011B00116-1","06a40c8f-ef4b-4529-8608-e42a1b6ebb42","内蒙古","包头市","固阳县","固阳县金山镇阿拉塔南街东",41.041378,110.068073,41.022720,110.058376,1
"1502222011B00154-1","8cf80b7e-07a8-40d5-8ae7-06b4fb5cd8b8","内蒙古","包头市","固阳县","金山镇阿拉塔南街东",41.041378,110.068073,41.030592,110.057560,1
"1502222011B00137-1","4a55802b-6ff8-4000-8837-9b89478e0726","内蒙古","包头市","固阳县","金山镇阿拉塔南街东",41.041378,110.068073,41.030592,110.057560,1
"1502212010B00027-1","53edb111-be02-4af9-8761-8dbf08b5767eA","内蒙古","包头市","土默特右旗","萨拉齐镇东二环路西侧、京包铁路线北侧",40.524329,110.542981,40.555128,110.517368,1
"1502222009B01031","2d5e6d25-9338-4f85-80af-d31094e3be09","内蒙古","包头市","固阳县","固阳县金山镇固查路南",41.013634,110.050832,41.016732,110.056304,1
"1502222009B00769","8fff0446-12a7-4549-83aa-ba66f0c09d54","内蒙古","包头市","固阳县","固阳县包白公路西",41.040163,110.066433,41.015460,110.052112,1
"1502002018B00429","fe25cc24-81cb-4370-830c-50e7254c95c6","内蒙古","包头市","九原区","滨河新区希望大道以南、锦绣路以西、规划路以北",40.651261,110.007378,40.643200,109.995240,1
"1502232011B00083","1edb64ee-b7b5-4c82-869f-e8c35fdc5dcf","内蒙古","包头市","昆都仑区","包头市达尔罕茂明按联合旗明安镇莎茹塔拉嘎查",40.662929,109.846544,41.698028,110.435040,1
"1502212008B00084","a17cb542-67fa-4e8d-bc41-44cf9e3a7512","内蒙古","包头市","土默特右旗","山格架村",40.487161,110.658719,40.481068,110.654584,1
"1502212011B00076-1","9a174aca-c62d-44d0-a2da-f88a0df8194f","内蒙古","包头市","土默特右旗","萨拉齐镇东13公里处110国道北侧",40.524329,110.659761,40.729336,109.637888,1
"1502002008B01689","0dd051e2-1108-4237-b5d8-cd16bf8d140a","内蒙古","包头市","青山区","友谊大街南侧，金荣建材城东侧，富强南路西侧，新广东路北侧",40.649465,109.861560,40.663160,109.814296,1
"1502002013A00535","f1f69a91-aedb-4c3f-bc32-2bcdfc2c579d","内蒙古","包头市","青山区","青山区龙江道北侧,大连小区西侧,武银福村旧址",40.652190,109.881648,40.616600,109.888600,1
"1502222009B00088","59b8fb0e-248a-43c5-b82b-6a3914bb698e","内蒙古","包头市","固阳县","固阳县金山镇阿拉塔南街西侧",41.041378,110.068073,41.031160,110.056736,1
"1502212015B00125","64b6185f-3472-466b-b58a-8baaa1bdf89b","内蒙古","包头市","土默特右旗","土默特右旗萨拉齐镇土默特大街与振华大街交汇处西北角",40.574915,110.530880,40.576068,110.509688,1
"1502222009B01019","3e41c73c-a8ec-458e-8cc6-1840938d5caf","内蒙古","包头市","固阳县","固阳县金山镇阿拉塔南街西侧",41.041378,110.068073,41.031160,110.056736,1
"1502222009B01026","bd9f9681-3f1b-4ad8-96a2-ed0fbc926cc5","内蒙古","包头市","固阳县","固阳县光荣路东侧",41.040163,110.066433,41.032400,110.054592,1
"1502002010B01579","4af0b0a0-6cf3-4d90-a12b-47f11d88797d","内蒙古","包头市","九原区","滨河新区",40.584457,109.912557,40.586940,109.940904,1
"1502232014B00160","91e0ca23-7ade-4b23-97f7-2b7ed9f51d5b","内蒙古","包头市","达尔罕茂明安联合旗","百灵庙镇外环路东侧、阳光雅苑住宅小区西侧、东岸国际小区南侧",41.704370,110.461652,41.696592,110.448752,1
"1502002011B00386","2f9239d7-bda2-4df2-b9ba-8f7bb433f2e2","内蒙古","包头市","昆都仑区","昆区莫尼路以北、文化路以南、昆河东路西侧、滨河路东侧",40.680488,109.844303,40.656200,109.834528,1
"1502212008B00068","b5075efd-b7d8-4258-a531-88204a6c22f0","内蒙古","包头市","土默特右旗","土右旗海子乡、苏波盖乡",40.496140,110.595867,40.556468,110.727200,1
"1502002013B00091","8896f00e-8449-4bbb-8b12-34af826459e7","内蒙古","包头市","九原区","稀土高新区滨河新区",40.584457,109.912557,40.567120,109.914920,1
"1502002010B01977","aede2f3a-6fbe-4f89-b303-c78e28ca7060","内蒙古","包头市","青山区","稀土高新区校园南路以南，科技路以东",40.634700,109.870913,40.575476,110.517792,1
"1502222012B00331","e35b35a0-bd01-4818-91d7-d1518790b5f4","内蒙古","包头市","固阳县","固阳县科教路南",41.040163,110.066433,41.021128,110.054880,1
"1502222010B00056","9bcbe2b2-029d-4e29-a4c9-90b3d80c538e","内蒙古","包头市","固阳县","固阳县西斗铺镇新民村",41.227319,109.805705,41.219188,109.800472,1
"1502002016B00935","4db36928-6daa-457e-873b-cd1bb63786a4","内蒙古","包头市","九原区","稀土高新区希望工业园区区间路以南、金翼路以西、光明路以北",40.575323,109.927369,41.015440,110.052672,1
"1502222015B00186","0cb19901-5d92-4345-8dce-ff17413a464a","内蒙古","包头市","固阳县","包头金山工业园区A8-03地块",40.985533,110.054798,41.024244,110.063536,1
"1502222010B00537","80316081-a989-49c6-82ea-82dfd93dbe9d","内蒙古","包头市","固阳县","固阳县公圣南街",41.040163,110.066433,41.014788,110.055760,1
"1502002011B00439","39739853-ed43-4fb2-bfab-ffcc9be2d6a1","内蒙古","包头市","昆都仑区","青山区少先路南侧、万青路以西（原市委党校及周边）",40.658241,109.848483,40.626392,109.885448,1
"1502002011B00299","741df5f9-98d6-4a8d-8313-f6f3b5ce8457","内蒙古","包头市","东河区","东河区公园路东、环城路南，中心广场（地下建筑高各1018.777米）",40.588149,110.025631,40.574840,110.038016,1
"1502002012B00018","55591345-fe6b-42a4-a24f-5ed066b8a1bc","内蒙古","包头市","九原区","包头稀土高新区稀土园区",40.575323,109.927369,40.637552,109.855200,1
"1502212009B00297","10bc0407-7b22-435c-99f5-4c972f688f0b","内蒙古","包头市","土默特右旗","萨拉齐镇东二路东侧",40.524329,110.542981,40.555128,110.517368,1
"1502002010B00628","396be248-94e8-45f7-99ce-f6079d0e7d2d","内蒙古","包头市","东河区","东河区巴彦塔拉大街82号（原耐火厂院内）",40.589275,110.014753,40.604900,109.977832,1
"1502212014B00113","013f3721-0423-4f2d-aeee-4183609b192a","内蒙古","包头市","土默特右旗","阿勒坦大道北侧，欧美路西侧，经二路东侧，纬二路南侧",40.582743,110.540273,40.575108,110.528000,1
"1502232018A00724","4e9e1591-fca4-4756-9a12-91b4d3afa44f","内蒙古","包头市","达尔罕茂明安联合旗","达茂旗巴音花镇吉忽龙图嘎查",42.192412,109.991282,41.684052,110.446384,1
"1502062009B00106","d9c6fac8-843f-4468-9a58-1e87c34c5237","内蒙古","包头市","白云鄂博矿区","外环路东侧",41.767672,109.978165,40.656200,109.834528,1
"1502002015B00793","be698893-b884-4ef1-99ea-dfb249025344","内蒙古","包头市","九原区","九原工业园区",40.613397,109.969588,40.615120,109.647304,1
"1502232011B00127","4c6e754e-5f5f-4238-a404-ef515a7220b3","内蒙古","包头市","达尔罕茂明安联合旗","百灵庙镇水塔街",41.708034,110.443671,41.704080,110.428976,1
"1502212014B00297","fcd26e51-0f66-427e-a241-f1fdce05940c","内蒙古","包头市","东河区","水涧沟西侧，110国道南侧",40.581032,110.048421,40.849844,110.358424,1
"1502052014B00107","f7302fbc-bb25-42e8-8260-cddef524567e","内蒙古","包头市","石拐区","石拐区大德恒办事处后营子村",40.678299,110.278381,40.670732,110.266376,1
"1502002015B00857","f6c0778b-f3e5-4b4e-91d8-a8eefd4d74e7","内蒙古","包头市","九原区","滨河新区西区三路以南、光耀路以东",40.584457,109.912557,40.656200,109.834528,1
"1502002011B00747","65d6d209-1168-42be-a421-6f9267d2816c","内蒙古","包头市","九原区","滨河新区大学科技园区",40.584457,109.912557,40.656200,109.834528,1
"1502052013B00390","72858da8-1870-4d04-968d-680563b358f0","内蒙古","包头市","石拐区","石拐区大德恒办事处马场村",40.678299,110.278381,40.670732,110.266376,1
"1502002013B01768","e5b83bfa-739c-4c9d-a24b-365863bdf7b2","内蒙古","包头市","九原区","新都市区建华南路以西、沙河西街北、科技馆南，",40.616742,109.924508,40.607860,109.912680,1
"1502002013B01643-1","e398e1b1-066a-40ec-9920-acf5a520cd1e","内蒙古","包头市","新都区","新都市区建园路西、沙河西街北",30.797436,104.054094,40.629472,109.951712,1
"1502002013B01734-1","5b71b9ec-e416-4b95-b641-80031af4e2d7","内蒙古","包头市","昆都仑区","新都市中心区果园西路东、建园路以西、规划道路以南",40.662929,109.846544,40.665192,109.870760,1
"1502002014B02869-1","eb45aff6-13fd-49de-808c-51b7e482cf63","内蒙古","包头市","青山区","包头装备制造产业园区（二期）A2路以东",40.667302,109.941667,40.659932,109.929688,1
"1502052014B00122","73026f3d-a064-4a95-ab2f-885c01c93d0f","内蒙古","包头市","石拐区","石拐区大德恒办事处后营子村",40.678299,110.278381,40.670732,110.266376,1
"1502222011B00309","84218450-25a3-4651-9920-645a13a64d7d","内蒙古","包头市","固阳县","固阳县金山镇光荣街东（原运输二公司）",41.034539,110.076297,41.005648,110.038408,1
"1502002011B01276","a502ad80-bf4d-4541-9ad0-03aaae1a1f44","内蒙古","包头市","九原区","九原区麻池镇东壕口村",40.588820,109.847004,40.579268,109.865144,1
"1502222009B00662","f5531271-eea2-46d0-baee-1d95ee693919","内蒙古","包头市","固阳县","固阳县三中南",41.040163,110.066433,41.032400,110.054592,1
"1502222009B00656","1e10b899-2ebb-415d-afad-664c2cf00bc0","内蒙古","包头市","固阳县","固阳县",41.040163,110.066433,41.032358,110.054624,1
"1502002013B00035","dfac23d6-753b-41d6-b913-df092fef40d0","内蒙古","包头市","九原区","稀土高新区滨河新区",40.584457,109.912557,40.567120,109.914920,1
"1502002013B00050","fa2bce21-4929-4c42-bc37-6e100a8ac2bd","内蒙古","包头市","九原区","稀土高新区滨河新区",40.584457,109.912557,40.567120,109.914920,1
"1502002013B01417","64fefeb1-d66b-436e-b191-67214f450c4c","内蒙古","包头市","九原区","青山区兴胜镇中心集镇内、胜利街西则、支路一南侧、支路二东侧",40.733248,109.984139,40.656980,109.846704,1
"1502052009B00056-2","3587d65b-e034-443a-ad5a-36eb5a06415aC","内蒙古","包头市","石拐区","石拐区五当召镇白草沟村",40.690250,110.261661,40.790616,110.307792,1
"1502052008B00206-2","296e59d8-5497-4008-9aa1-ae1c37542d51","内蒙古","包头市","石拐区","石拐区五当召镇白草沟村",40.690250,110.261661,40.790616,110.307792,1
"1502002008B01779","b74c8fe2-6d1e-4c4e-a7ac-4fe11085bb19","内蒙古","包头市","青山区","黄河路南侧,丰盈路东侧",40.633162,109.874730,40.632040,109.810472,1
"1502212010B00221","bdd47efc-af74-4052-b182-bf3f8d70de35","内蒙古","包头市","土默特右旗","土右旗沟门镇110国道北侧",40.602064,110.665581,40.656200,109.834528,1
"1502002008B01762","de8d95f5-ce09-4328-8fe0-314755a2ba6b","内蒙古","包头市","青山区","青山区",40.649473,109.907416,40.643100,109.896680,1
"1502002016B00697","bd3114d6-48cc-4995-b87f-1200e8ecd7a2","内蒙古","包头市","青山区","包头装备制造产业园区新规划区建华北路以西，B1路以北",40.667302,109.941667,40.659932,109.929688,1
"1502212014B00216","142a6553-3b44-4c0c-8456-e9098a4aca00","内蒙古","包头市","土默特右旗","将军尧镇四卜素村，萨托公路南侧，将军尧汽车站西侧",40.384210,110.835011,40.377420,110.822304,1
"1502002012B01239","d8ed2e62-af17-4130-b6ee-88e7e9ec5bc9","内蒙古","包头市","九原区","稀土高新区滨河新区",40.584457,109.912557,40.567120,109.914920,1
"1502052012B00167","df91dbea-2b7d-4b0c-afc7-874076d47309","内蒙古","包头市","石拐区","石拐区大德恒办事处后营子村",40.678299,110.278381,40.670732,110.266376,1
"1502222012B00208","ff31a4cc-eb1a-432e-b2b6-d106e55e412a","内蒙古","包头市","固阳县","金山镇旧区常兴街南",41.013634,110.050832,41.034060,110.051760,1
"1502222016B00085","1439076d-8f5e-423c-a4e8-76f41b5eeedb","内蒙古","包头市","固阳县","固阳县怀朔镇百灵淖",41.297321,110.322569,41.285028,110.228920,1
"1502232018B00070","79a1d527-c364-4aaf-a3f5-53405ed8f2f4","内蒙古","包头市","达尔罕茂明安联合旗","达茂旗明安镇呼格吉勒图嘎查",41.751806,109.643397,41.684052,110.446384,1
"1502002010B00191","7c447a2a-4888-4b70-aec4-3a230c31e935","内蒙古","包头市","昆都仑区","友谊大街南侧，劳动路西侧",40.652241,109.836613,40.656200,109.834528,1
"1502232018B00949","8f11e849-052d-43e3-a23b-d586e20806c2","内蒙古","包头市","达尔罕茂明安联合旗","达茂旗百灵庙镇女儿山街（当代一品路东）",41.701390,110.450608,41.703920,110.429512,1
"1502052014B00286","51d9304a-c982-4f25-a44a-b3c4dfc36bd0","内蒙古","包头市","石拐区","石拐区大德恒办事处后营子村",40.678299,110.278381,40.670732,110.266376,1
"1502052016B00012","f5b20932-fc51-4a9b-894a-92b6f1b070d0","内蒙古","包头市","石拐区","石拐区大德恒办事处马场村",40.678299,110.278381,40.670732,110.266376,1
"1502002013B01229","3860a178-0a27-4443-a48b-b87f56c1aa42","内蒙古","包头市","东河区","东河区巴彦塔拉大街南、西河槽东侧",40.586762,110.024516,40.581540,110.004048,1
"1502212011B00227","11d8ff3b-454c-461f-960b-82e6b8b815da","内蒙古","包头市","土默特右旗","萨拉齐镇振华大街南侧",40.574915,110.530880,40.567152,110.525400,1
"1502052013B00059","9ba42b06-e3f1-452b-9d36-60af57b408f8","内蒙古","包头市","石拐区","石拐区五当召镇原包头矿务局供销公司院内",40.678299,110.278381,40.675100,110.263760,1
"1502002012B00288","a9d88227-4356-4fa3-a507-fa271b3ccc57","内蒙古","包头市","东河区","东河区铝业园区（污水处理厂北、巴彦塔拉大街东出口南）",40.586762,110.024516,40.567820,109.995176,1
"1502222013B00170","1e1c973a-cb9d-4d82-a357-0f8fd5bc185d","内蒙古","包头市","固阳县","金山镇旧城区E15（部分）地块",41.013634,110.050832,41.034060,110.051760,1
"1502002013B00837-1","dca7d037-8727-4a30-9041-729d53dfd89e","内蒙古","包头市","青山区","包头装备制造产业园区",40.667302,109.941667,40.659932,109.929688,1
"1502062012B00036","18eda9d1-b6e3-463a-b327-f5138565e7dc","内蒙古","包头市","白云鄂博矿区","稀土大街南（原矿二中大院）",41.774245,109.978181,40.656200,109.834528,1
"1502052016B00036","54c5c0e9-9a4e-401d-a492-22e0321260bd","内蒙古","包头市","石拐区","石拐区大德恒办事处马场村",40.678299,110.278381,40.670732,110.266376,1
"1502212016B00097","c92f70ef-cf64-4fb2-bf92-27cff0c997e6","内蒙古","包头市","土默特右旗","影院街北侧",40.565599,110.516683,40.557960,110.506096,1
"1502212016B00077","b3eb2d9f-a38c-4116-9413-08221528b6d0","内蒙古","包头市","土默特右旗","振华大街北侧",40.574915,110.530880,40.656200,109.834528,1
"1502002013B01940","f106a932-9352-43b1-a326-a681d480bd0f","内蒙古","包头市","九原区","稀土高新区滨河新区机电园区",40.584457,109.912557,40.582000,109.943200,1
"1502002013B01924","7257636b-cbd4-4557-8d6e-5b6c2e320a92","内蒙古","包头市","九原区","稀土高新区滨河新区机电园区",40.584457,109.912557,40.582000,109.943200,1
"1502002016B00985","aadc055d-f5ea-49a0-aaf3-4eeb8ee2b16e","内蒙古","包头市","青山区","青山区青山路南侧",40.674709,109.900693,40.643100,109.896680,1
"1502222010B00826","c4f6f8d8-20de-4cb5-84fe-10a693694d23","内蒙古","包头市","固阳县","固阳县新建南街",41.040163,110.066433,41.032400,110.054592,1
"1502212016B00225","46eb99dd-b165-44c1-abca-ba4d21be9a82","内蒙古","包头市","九原区","海子乡山格架化园区，西部天然气门站用地以东，民生渠以南，萨凉公路以北",40.549419,110.241413,40.542432,110.228952,1
"1502062011B00207","8fa1f454-36ce-4259-ad05-c556473f1988","内蒙古","包头市","白云鄂博矿区","百灵道西侧（原铁矿一中北侧）",41.779678,109.984177,40.662016,110.266576,1
"1502002014A02806","3e65f13f-5741-4e0c-ab62-710133844da1","内蒙古","包头市","九原区","稀土高新区滨河新区黄河大道以南",40.584457,109.912557,40.582000,109.943200,1
"1502212009B00247","902f4df2-289a-44cf-8a1c-03d459c93296","内蒙古","包头市","土默特右旗","土右旗萨拉齐镇西老藏营村",40.564827,110.606322,40.562352,110.513128,1
"1502212017B00327","bb311bb7-5aa1-4459-aaad-0c959dcd7a18","内蒙古","包头市","东河区","土右旗新型工业园区，110国道北侧，黑拉沟西侧",40.581032,110.048421,40.594400,110.624296,1
"1502002008B00039","155B0567D992474495A0F0B21DBEC230C","内蒙古","包头市","昆都仑区","昆区钢铁大街南侧，白云路东侧",40.662823,109.840708,40.657056,109.816832,1
"1502212013B00056","a11ebf0b-d228-4d45-a4a5-1b9d4be0bb86","内蒙古","包头市","土默特右旗","萨拉齐镇交通街",40.567733,110.532927,40.559324,110.519328,1
"1502002010B00161","3717a7d7-395a-4dac-8bb0-5cc23b4f0770","内蒙古","包头市","昆都仑区","沼潭铁路南,沼麻公路东",40.616472,109.842688,40.656200,109.834528,1
"1502002010B00170","faf9809b-9c6b-40a5-bfdc-8b1e517bb43f","内蒙古","包头市","昆都仑区","沼潭铁路南,沼麻公路东",40.616472,109.842688,40.656200,109.834528,1
"1502002012B01269","f35d3893-bfbd-43d0-81b5-b7224764c415","内蒙古","包头市","九原区","九原区兴胜经济开发区",40.613397,109.969588,40.629472,109.951712,1
"1502062011B00257","3889acff-f19a-4157-ae74-64aa23eb8400","内蒙古","包头市","白云鄂博矿区","白云鄂博大街北",41.767183,109.964140,40.656200,109.834528,1
"1502212010B00339","b2bc955b-cd61-4f10-a5c0-7b15349b7a1b","内蒙古","包头市","东河区","沟门镇北只图村东侧、110国道北侧",40.581032,110.048421,40.593764,110.553448,1
"1502212010B00349","2a932cfb-299c-4fdf-a714-fe5f3d64df57","内蒙古","包头市","昆都仑区","土右旗新型工业园区内",40.662929,109.846544,40.594400,110.624296,1
"1502232013B00182","32de33e0-47f5-44a2-aa17-ee6dd3f99c41","内蒙古","包头市","昆都仑区","包头市达茂旗巴润工业园区",40.662929,109.846544,41.684052,110.446384,1
"1502232016B01318","0291d2fe-ee8f-488d-9580-6b1670971e14","内蒙古","包头市","达尔罕茂明安联合旗","达茂旗满都拉镇额尔登敖包嘎查",42.535054,110.130718,41.704404,110.980016,1
"1502002016B01048","386223b0-7ea8-46c3-a810-2af49dbf302e","内蒙古","包头市","东河区","东河区北梁腾空区，北梁一路东、西脑包后街南、北梁二路西、西脑包大街北",40.582228,110.050395,40.586280,109.990120,1
"1502002009B01101","cd998050-7388-415f-b84d-792b2740db1b","内蒙古","包头市","昆都仑区","昆区阿尔丁大街东侧、站前路北侧",40.614130,109.833844,40.672648,109.835640,1
"1502212008B00039-3","e580cdf8-9c17-4c7d-905a-9ef4e12a9959A","内蒙古","包头市","土默特右旗","土右旗沟门镇110国道北侧",40.602064,110.665581,40.656200,109.834528,1
"1502062008B00116","482b6d94-ecbc-4f30-906b-f45dfd904804","内蒙古","包头市","白云鄂博矿区","白云区地质道东侧",41.777095,109.993428,40.656200,109.834528,1
"1502222009B00189","02d07eb8-34b3-4bc3-89fb-f8eb212c329d","内蒙古","包头市","固阳县","固阳县金山镇阿拉塔南街西侧",41.041378,110.068073,41.031160,110.056736,1
"1502222009B01294","331cf6b6-7789-434d-b15a-983a5dd80d8c","内蒙古","包头市","固阳县","固阳县金山镇阿拉塔街西侧",41.013634,110.050832,41.029048,110.058000,1
"1502212014B00049","0c78b85f-ccbd-4267-a535-058783755c46","内蒙古","包头市","土默特右旗","东至鑫辰国际城，东距神华矿业公司办公楼15米，南至居民区，北至空地",40.575548,110.541373,40.568148,110.529064,1
"1502212012B00317","fece0324-6eed-4627-9c2f-df8e0c356e78","内蒙古","包头市","昆都仑区","新二环路以东，北至盛华用地，南至明华用地，东至盛华用地",40.662929,109.846544,40.552392,110.526848,1
"1502222013B00046","7f2587c7-e30b-4dce-aaea-f9a13f0ab449","内蒙古","包头市","固阳县","金山镇旧区D13-07-07",41.013634,110.050832,41.034060,110.051760,1
"1502002010B00371","3dbe8808-18ad-447e-a88b-4805bcc1eeb8","内蒙古","包头市","东河区","东河区河东镇包头轻机厂西墙外",40.573273,110.078834,40.562504,110.180872,1
"1502002011B00267","46e03c3d-1045-4dfb-9cde-30938640d4d7","内蒙古","包头市","九原区","滨河新区大学园区",40.584457,109.912557,40.656200,109.834528,1
"1502002013B00783-1","f986e9ef-7cb7-4c8e-bdea-8791dbc5c4ae","内蒙古","包头市","昆都仑区","团结大街北侧、民族西路以西、自立道以南",40.676440,109.832707,40.658836,109.825464,1
"1502002013B00794-1","aecad49b-e364-4867-90eb-a51cc6ef80cd","内蒙古","包头市","九原区","东河区滨河西路西侧、环城路北侧",40.571511,110.045343,40.590436,110.008552,1
"1502212015B00134","1957d1b5-4dc4-4ac1-91fa-e14b3892aae6","内蒙古","包头市","土默特右旗","阿勒坦大道南侧，东二环路西侧",40.588735,110.539373,40.656200,109.834528,1
"1502002011B01200-1","324a6bb5-3cff-4dfe-82cf-07b28fbe0e53","内蒙古","包头市","九原区","青山区幸福南路西侧、少先路北侧",40.622335,109.871990,40.649300,109.878296,1
"1502232013B00607","5b873ff4-9673-4c31-bd30-142beb2677c8","内蒙古","包头市","昆都仑区","二小北侧",40.662929,109.846544,40.656200,109.834528,1
"1502002015B00066","63756b05-2dff-4548-8098-c39b349184ce","内蒙古","包头市","东河区","东河区巴彦塔拉大街南、精胶厂路东",40.577264,110.058828,40.574840,110.038016,1
"1502002018B00570","ebb1af32-dcf5-4c2c-b5f5-ac5e68d2343f","内蒙古","包头市","青山区","青山路南、城墙路西、西脑包后街北、外环路东",40.674709,109.900693,40.589796,110.005280,1
"1502212016B00217","644dc05f-d6e0-42f9-98ba-087d70857be8","内蒙古","包头市","土默特右旗","海子乡发彦申村东，现状水泥路南侧",40.431297,110.620014,40.425520,110.610560,1
"1502002010B00431","152962d0-8b70-48c8-8497-6e3307495490","内蒙古","包头市","青山区","青山区自由路7号街坊",40.665963,109.901631,40.656348,109.889448,1
"1502062009B00038","5d95787f-5752-47b0-9e37-bfbe665e617c","内蒙古","包头市","白云鄂博矿区","白云矿区弹药库东侧",41.780593,109.980215,41.763140,109.963176,1
"1502002017B01137","e3496597-332d-4a45-9d6e-cc3fda5ad45d","内蒙古","包头市","九原区","包头稀土高新区滨河新区光耀路以东、东方希望大道以北",40.584457,109.912557,40.587008,109.917088,1
"1502002013B00387","aea3af4a-49ac-403e-9933-de114f4d9167","内蒙古","包头市","青山区","青山区民族东路东侧，兵工大道北侧，环城铁路南侧",40.680958,109.857545,40.648688,109.843400,1
"1502002013B00379","ef7ee712-b211-4323-bd48-f4d470f9e8a2","内蒙古","包头市","青山区","青山区民族东路东侧，兵工大道北侧，环城铁路南侧",40.680958,109.857545,40.648688,109.843400,1
"1502212009B00406","0e306c19-42ed-47e9-bbdf-6e1c916fb909","内蒙古","包头市","土默特右旗","萨拉齐镇交通街西侧",40.567733,110.532927,40.555128,110.517368,1
"1502002009B00728","ba134f8a-abc5-40c3-9956-f87414fb5f4a","内蒙古","包头市","九原区","高新区滨河新区",40.587090,109.915954,40.567120,109.914920,1
"1502212014B00255","953136ce-bf01-4ee0-ac31-0b26b5b3b604","内蒙古","包头市","土默特右旗","明沙淖乡葫芦头村南侧，萨明公路东侧",40.482146,110.494789,40.475608,110.488392,1
"1502002012B01909","52ea1b64-5789-4be8-ba4b-3e0eb311c0c0","内蒙古","包头市","九原区","青山区110国道737公里处",40.707667,109.867189,40.665060,109.879400,1
"1502232010B00031","befb363b-d321-4f28-8acb-cbf051f18645","内蒙古","包头市","达尔罕茂明安联合旗","包头市达茂旗联合旗百灵庙镇",41.807461,110.533131,41.698520,110.431224,1
"1502062013B00076","b73d6075-8365-4382-a40a-d122629489c2","内蒙古","包头市","白云鄂博矿区","稀土大街北（原白云宾馆大院）",41.775867,109.982187,41.768480,109.969616,1
"1502232012B00057","2b6f15ba-f6f7-46fa-87b2-de9dbb16da77","内蒙古","包头市","达尔罕茂明安联合旗","达茂旗百灵庙镇河东旧区东侧",41.705509,110.442479,41.704480,110.428000,1
"1502052014B00115","ceb3ee5c-3a9d-47a9-b948-9e430b98bb21","内蒙古","包头市","石拐区","石拐区大德恒办事处后营子村",40.678299,110.278381,40.670732,110.266376,1
"1502002011B00696","b9bfcb3c-01c1-4447-b248-f1ce32bd1678","内蒙古","包头市","昆都仑区","昆区白云路东、青年路北，青年路15#街坊",40.670453,109.827542,40.651808,109.805160,1
"1502002016B00689","5b4e5aa1-4b14-49a5-8d5d-ed90a92e9077","内蒙古","包头市","青山区","青山区团结大街31号",40.674983,109.858575,40.643100,109.896680,1
"1502002011B01001","014b6c1f-42ec-4096-bc50-187bf2f86ad6","内蒙古","包头市","九原区","昆区校园南路南侧、铁路西侧、沼园路北侧",40.623781,109.846251,40.616828,109.834816,1
"1502002013B00858","24f9f14c-4a6e-491c-a31e-bb4039b9e58e","内蒙古","包头市","东河区","东河区南门外大街23号",40.585504,110.034527,40.575032,110.020728,1
"1502212009B00076-1","a165d3e9-23a2-4fc7-87e9-07aa0fcd47c5A","内蒙古","包头市","土默特右旗","土右旗上榆树营村",40.556033,110.582330,40.550300,110.576040,1
"1502002011B00878","1450a38b-b257-41a5-b39c-71676027189f","内蒙古","包头市","九原区","九原区麻池镇永茂泉村",40.585384,109.856210,40.577936,109.844616,1
"1502002015B00456-1","095b02a1-e625-49c7-8654-38d01816859c","内蒙古","包头市","九原区","九原区哈屯高勒路南、建园路东",40.613397,109.969588,40.602364,109.968312,1
"1502222014B00145","807964b1-864b-4af8-9890-e5f9ff375bf9","内蒙古","包头市","固阳县","固阳县金山镇新区翠溪大街北侧、怀朔大街南侧",41.013634,110.050832,41.004660,110.041152,1
"1502222014B00137","1df0ea0d-f0af-4d90-88bc-e8d2b633593b","内蒙古","包头市","固阳县","固阳县金山镇明灯转盘处",41.013634,110.050832,40.985656,110.128304,1
"1502232012B00117","e62299df-d4dc-4b9a-8ca0-4384b6f3fc1f","内蒙古","包头市","达尔罕茂明安联合旗","百灵庙镇种羊场",41.807461,110.533131,41.696460,110.425720,1
"1502052014B00175","41f47b72-a9f0-4c82-8106-63feb9ca5ea5","内蒙古","包头市","石拐区","石拐区大德恒办事处后营子村",40.678299,110.278381,40.670732,110.266376,1
"1502002014B02777-1","dbccbd62-a6ad-4933-91da-bfe2b6468304","内蒙古","包头市","青山区","包头市装备制造产业园区",40.670143,109.939897,40.659932,109.929688,1
"1502062013B00109","ff3d26ec-6362-4132-aeaf-9ebdf13fdb95","内蒙古","包头市","昆都仑区","百灵道西，铁矿8号楼南",40.662929,109.846544,41.771328,109.972480,1
"1502002014B02762","7314dacf-ef54-4a6d-a73a-8792e8a432ef","内蒙古","包头市","九原区","高新区滨河新区机电园区",40.587090,109.915954,40.656200,109.834528,1
"1502212011B00169","c1af2a7a-2bfa-4ff5-b823-a3ad498289c4","内蒙古","包头市","昆都仑区","土右旗新型工业园区京包铁路北侧",40.662929,109.846544,40.594400,110.624296,1
"1502002018A00507","0276995a-ce14-4825-b696-cc5f752236f7","内蒙古","包头市","青山区","包头装备制造产业园区新规划区B5路西",40.667302,109.941667,40.659932,109.929688,1
"1502232014B00067","ee847351-61de-4786-b0fa-1a449794d534","内蒙古","包头市","达尔罕茂明安联合旗","达茂旗百灵庙镇解放街畜产公司南，边贸小区住宅楼北，农贸市场东，东为居民区宗地内",41.705509,110.442479,40.585060,109.902064,1
"1502212012B00058","c18e66d5-8521-497d-86e8-016b3f27f267","内蒙古","包头市","土默特右旗","萨大公路北侧水涧沟退洪渠以西",40.716276,110.488211,40.849844,110.358424,1
"1502232012B00067","4d0d0664-b790-4b04-804b-5c26df310a8f","内蒙古","包头市","达尔罕茂明安联合旗","达茂旗百灵庙镇河东旧区东侧",41.705509,110.442479,41.704480,110.428000,1
"1502002012B01747","c1730850-de5a-44c8-8db6-d9c36fe52774","内蒙古","包头市","九原区","滨河新区南绕城以北、西区十一街以西",40.584457,109.912557,40.566852,109.877112,1
"1502002010B00417","46d669b1-73f5-419e-8f10-f6d58811e424","内蒙古","包头市","昆都仑区","昆区青年17#街坊",40.672681,109.818523,40.661460,109.808864,1
"1502222009B00038","47f30c98-a5af-4239-9ce7-c798ec70d463","内蒙古","包头市","固阳县","固阳县金山镇阿拉塔南街西侧",41.041378,110.068073,41.031160,110.056736,1
"1502002012B00091","844135a5-b76f-4fd7-bccd-e23101e56534","内蒙古","包头市","九原区","包头稀土高新区希望园区光明路以北、金翼路以东",40.575323,109.927369,40.628732,109.837512,1
"1502222012B00367","382e021d-df1b-495f-ad26-d36868b5a64d","内蒙古","包头市","固阳县","固阳县党政大楼新建公路北砖厂段",41.040163,110.066433,40.990500,110.023632,1
"1502002011B00458","2fccac7c-1855-4342-97af-0c68caa98717","内蒙古","包头市","昆都仑区","昆区友谊大街以北、少先路以南、昆河东路西侧、滨河东路东侧",40.652241,109.836613,40.651348,109.834256,1
"1502002011B00410","6695b013-5358-4e16-bcfe-a6419a386552","内蒙古","包头市","昆都仑区","青年路以南、钢铁大街以北、昆河东路西侧、滨河路东侧",40.664840,109.811606,40.655872,109.828216,1
"1502232013B00687","47014fe0-d31f-4c9e-827e-85d8ccf8e022","内蒙古","包头市","昆都仑区","中低价位、中小套型普通商品住房用地",40.662929,109.846544,40.669812,109.848840,1
"1502002012B01777-1","f360e36b-d1a3-41b5-ad6f-7b0abce38598","内蒙古","包头市","九原区","滨河新区创业大街以北、礼贤路以东",40.575854,109.932744,40.577836,109.921328,1
"1502222014B00116","3c1c6a72-8dbc-43b1-8883-4beabf3ae258","内蒙古","包头市","固阳县","固阳县金山镇旧区D34-01地块",41.013634,110.050832,41.005648,110.038408,1
"1502222012B00196","9cfa83a8-f768-4f44-94a8-d1575231e1e4","内蒙古","包头市","固阳县","固阳县三中东",41.040163,110.066433,41.032400,110.054592,1
"1502002009B01139","c1771dca-8c83-48a7-a5f3-2eeecc0c46d2","内蒙古","包头市","昆都仑区","昆区钢31号街坊",40.657566,109.833092,40.649940,109.792160,1
"1502002015B00546-1","4539a089-614f-4142-a7e7-c614ac27cc2e","内蒙古","包头市","青山区","装备制造产业园区（二期）B3路南侧、A2路东侧",40.670143,109.939897,40.659932,109.929688,1
"1502212009B00548","92649955-ee80-4bb2-92b2-1615c5a3a009","内蒙古","包头市","土默特右旗","萨镇大西街南侧",40.556924,110.520634,40.656200,109.834528,1
"1502002011B01154","37808a5a-7fee-4cbb-9eff-c6551410907a","内蒙古","包头市","九原区","稀土高新区滨河新区",40.584457,109.912557,40.567120,109.914920,1
"1502002011B00817","8b1bde1e-ec15-4dec-a5a1-efa20d0298ae","内蒙古","包头市","九原区","稀土高新区滨河新区",40.584457,109.912557,40.567120,109.914920,1
"1502002009B01267","5f4c3e96-3786-4aec-882c-9764378fb49e","内蒙古","包头市","东河区","东河区北梁九江口核心区",40.602712,110.031601,40.595552,110.021400,1
"1502002009B01287","75940907-1e0c-4575-82b5-80ba7ce910f8","内蒙古","包头市","东河区","东河区北梁九江口核心区",40.602712,110.031601,40.595552,110.021400,1
"1502002010B01421","536175d3-9056-4b08-94c9-f751e2dcd2e8","内蒙古","包头市","昆都仑区","昆区学府道西侧、白彦道南侧",40.668228,109.830256,40.665264,109.818392,1
"1502212010B00051","c72f1c6b-6f52-49bf-a22d-4f93a84aea77","内蒙古","包头市","土默特右旗","明沙淖乡贺成全村沿黄公路南侧",40.489912,110.368212,40.420764,110.483840,1
"1502002012B01417","ca284ef5-22c5-4131-b8de-dab4b9b99e85","内蒙古","包头市","昆都仑区","青山区团结大街南侧、富强路西侧",40.676440,109.832707,40.666000,109.853640,1
"1502002010B00268","8bf4ede1-f98a-4b40-997c-0178ab860d8e","内蒙古","包头市","昆都仑区","昆区团22#街坊,白彦道北侧,三八路西侧",40.673206,109.820629,40.666048,109.806360,1
"1502052011B00079","eb906f2d-0e05-4991-8596-9dc78232d4eb","内蒙古","包头市","石拐区","石拐区五当召镇厂汉沟村",40.687111,110.295944,40.790616,110.307792,1
"1502002010B01601","1029a27a-3402-4e6f-9f1b-98cf3d3fec2c","内蒙古","包头市","东河区","110国道728公里段北",40.581032,110.048421,40.656200,109.834528,1
"1502052013B00389","acc8f444-659e-46b1-a688-6eae03b74f14","内蒙古","包头市","石拐区","石拐区大德恒办事处后营子村",40.678299,110.278381,40.670732,110.266376,1
"1502222012B00050","8e985b48-e864-4172-bc53-2ca8a2600286","内蒙古","包头市","固阳县","固阳县新华街",41.040163,110.066433,41.032400,110.054592,1
"1502222009B00222","7f591f96-8368-4da3-9398-ace04175723e","内蒙古","包头市","固阳县","固阳县固查路南",41.040163,110.066433,41.016732,110.056304,1
"1502222013B00308","bb278b22-581c-4480-b2d7-4e14ec337de6","内蒙古","包头市","固阳县","固阳县阿拉塔大街43号",41.037138,110.070832,41.023088,110.058888,1
"1502002012B01176","265b1b8f-c6d3-44a8-9be9-667ffa4b3dd9","内蒙古","包头市","青山区","包头装备制造产业园区",40.667302,109.941667,40.659932,109.929688,1
"1502002012B01439-1","85bade4b-70f4-43a4-804e-0aa4fbf2b388","内蒙古","包头市","昆都仑区","昆区钢铁大街头南侧、广场东路东侧、市府东路西侧、广场南路北侧",40.662823,109.840708,40.644988,109.837160,1
"1502232015B00142","dc630efa-21c0-420c-8cd2-e6f9ad182833","内蒙古","包头市","达尔罕茂明安联合旗","达茂旗百灵庙镇水塔街",41.708034,110.443671,41.704480,110.428000,1
"1502002014B02419","3b304049-306c-41c8-be77-cde984401fab","内蒙古","包头市","九原区","希望园区金翼路以东、南绕城公路以南",40.615581,109.731354,40.553880,109.919888,1
"1502212011B00011","f0965233-03cf-472b-a12d-1040503898ab","内蒙古","包头市","昆都仑区","土右旗新型工业园区内",40.662929,109.846544,40.594400,110.624296,1
"1502232013B00168","5406a0e5-6400-46dc-9107-6f8cc536edad","内蒙古","包头市","昆都仑区","希拉穆仁镇东北侧（大桥东南侧）",40.662929,109.846544,40.639600,109.826624,1
"1502002014B02917","15f5c0bd-29f6-4584-8804-a299149d2ebe","内蒙古","包头市","青山区","青山区呼得木林大街1.2号街坊",40.666296,109.888901,40.653452,109.875120,1
"1502052013B00126","ebd50458-b9e3-4e27-ba79-54af3b39b73d","内蒙古","包头市","石拐区","石拐区大德恒办事处马场村",40.678299,110.278381,40.670732,110.266376,1
"1502052013B00133","5178b779-42aa-4ce1-a3db-13c7567338bb","内蒙古","包头市","石拐区","石拐区大德恒办事处马场村",40.678299,110.278381,40.670732,110.266376,1
"1502052016B00115","b061458c-ab05-4ee5-8777-9f890796c366","内蒙古","包头市","石拐区","石拐区大德恒办事处后营子村",40.678299,110.278381,40.670732,110.266376,1
"1502052014B00096","a35c4896-2627-41e3-a5bc-87d08c6572b3","内蒙古","包头市","石拐区","石拐区大德恒办事处马场村",40.678299,110.278381,40.670732,110.266376,1
"1502052015B00072","22662fbd-9cce-4512-8446-163b6b4af053","内蒙古","包头市","石拐区","石拐区大德恒办事处马场村",40.678299,110.278381,40.670732,110.266376,1
"1502002012B01820","7c7ec106-fc92-4eea-866c-2838825a89ab","内蒙古","包头市","东河区","包头市东河区铝业产业园区",40.582228,110.050395,40.567908,110.089608,1
"1502222009B01008","ef967ad4-4943-480d-82b7-9b20645d40b6","内蒙古","包头市","固阳县","固阳县金山镇阿拉塔南街西侧",41.041378,110.068073,41.031160,110.056736,1
"1502052012B00068-1","fdd0fec9-1278-4973-bf4a-060d4beaf73f","内蒙古","包头市","九原区","石拐区大德恒街道办事处马场村",40.674521,110.116449,40.670732,110.266376,1
"1502232013B00569","24931fb9-c124-4ef5-8d25-f76109b73e8e","内蒙古","包头市","达尔罕茂明安联合旗","位于百灵庙镇大街（西口外）",41.807461,110.533131,40.580376,110.009552,1
"1502002015B00727","5096d05b-335b-405d-92db-27bc3dd4bf76","内蒙古","包头市","青山区","装备制造产业园区",40.670143,109.939897,40.650460,109.942944,1
"1502002015B00708","f3e21148-e217-4483-8252-ce2c6b9aa6bc","内蒙古","包头市","青山区","装备制造产业园区（二期）B4路北侧",40.670143,109.939897,40.663072,109.831384,1
"1502212011B00116","e5403c66-45fa-4b6d-a5c4-3f4443178d3c","内蒙古","包头市","土默特右旗","萨拉齐镇萨凉公路南侧",40.524329,110.542981,40.555128,110.517368,1
"1502002009B01384","fa59f68d-9c8e-41b9-8389-27f1a2de87ab","内蒙古","包头市","青山区","万青路以西，青工路以北，友谊大街以南",40.646145,109.876270,40.626392,109.885448,1
"1502222008B00227","04a18491-7fb7-4b40-aa30-66a033547c8d","内蒙古","包头市","固阳县","固阳县金山镇阿拉塔街西侧",41.013634,110.050832,41.029048,110.058000,1
"1502002012B01356","e8df9214-ce6e-4e2d-9e79-ef82b41455a9","内蒙古","包头市","九原区","稀土高新区滨河新区",40.584457,109.912557,40.567120,109.914920,1
"1502002009B01194","17acffd5-b381-4137-8f20-a71654600bb6","内蒙古","包头市","青山区","青山区赛音道8号街坊",40.674550,109.879654,40.665420,109.865504,1
"1502232013B00444","d4370118-0b16-4f43-aed7-0221667975d9","内蒙古","包头市","昆都仑区","原乡镇企业北侧",40.662929,109.846544,40.656200,109.834528,1
"1502222009B00852","e7606495-027c-412b-8f16-559c42649bd6","内蒙古","包头市","固阳县","固阳县金山镇文化路南",41.032113,110.068609,41.032400,110.054592,1
"1502222009B00881","da2cdbbb-4cd7-4749-96b9-a3cb06dba979","内蒙古","包头市","固阳县","固阳县金山镇阿拉塔街西侧",41.013634,110.050832,41.029048,110.058000,1
"1502002012B00511","139c028e-1d9e-4e20-8e70-d6cd25f5ad62","内蒙古","包头市","青山区","青山区文化路北侧、青山宾馆西侧",40.686280,109.867578,40.670152,109.875880,1
"1502052012B00128","324f0f75-1511-415c-8e87-19b014cf84d8","内蒙古","包头市","石拐区","石拐区大德恒办事处马场村",40.678299,110.278381,40.670732,110.266376,1
"1502002016B00439","96630210-ede6-47a5-978f-fb58ee5679db","内蒙古","包头市","青山区","青山区建华路西侧、青山路南侧，中央公园内",40.645000,109.950789,40.643100,109.896680,1
"1502002011B00548","caf1014d-6d73-43e0-bc15-7a8ef03f275c","内蒙古","包头市","九原区","九原区沙河西街北、和平路南、新华路西、兴园路东",40.613936,109.954036,40.602004,109.968336,1
"1502222009B01310","bb03f8ee-04ea-4a84-b508-22bf147f9bd4","内蒙古","包头市","固阳县","固阳县光荣街22号",41.032380,110.084827,41.032400,110.054592,1
"1502002009A01848","d521b6ad-b7c0-499b-a93e-0416b6f02117","内蒙古","包头市","九原区","高新区滨河新区",40.587090,109.915954,40.567120,109.914920,1
"1502062010B00096","10c4df23-6f66-42a8-9e61-4e02c28cb144","内蒙古","包头市","白云鄂博矿区","白云矿区百灵道西侧原糖业大院",41.780593,109.980215,40.670640,109.860000,1
"1502062010B00086","31ff8768-7834-4718-8def-70128686f945","内蒙古","包头市","白云鄂博矿区","白云鄂博大街北",41.767183,109.964140,40.656200,109.834528,1
"1502002013B00068","a1bdf890-4fae-4f51-8d95-ef7843c53e17","内蒙古","包头市","九原区","滨河新区梧桐路以南、凤至路以北、 晨辉路以西、创业大街以东",40.584457,109.912557,40.577000,109.914656,1
"1502232016B00161","9d026138-8809-4f22-ae82-7f878241d04b","内蒙古","包头市","达尔罕茂明安联合旗","百灵庙镇解放街第二热源厂",41.807461,110.533131,41.696460,110.425720,1
"1502002010B00088","ab57b6ef-208c-4886-a08c-0aafe68d8856","内蒙古","包头市","东河区","东河区工业路东,粮库巷南",40.588267,110.041829,40.574840,110.038016,1
"1502222012B00461","344db0cd-22e3-45b2-896e-7c761a5591b5","内蒙古","包头市","固阳县","金山镇旧城区22-02",41.013634,110.050832,41.034060,110.051760,1
"1502002012B00035","927d6f74-b4a0-4647-b14a-5a540f7d17bb","内蒙古","包头市","东河区","包头市滨河新区春华路以南、礼贤路以东",40.614115,109.988362,40.571384,109.920816,1
"1502222014B00048","fdcfe25c-c9e6-4777-a23b-3ee26249a2b1","内蒙古","包头市","固阳县","金山镇旧城区E19(部分2)地块",41.013634,110.050832,41.034060,110.051760,1
"1502232014B00209","764fc7b0-64b9-46e7-b9de-8ec59b5a7c01","内蒙古","包头市","达尔罕茂明安联合旗","达茂旗百灵庙镇牧民小区西侧、百灵庙第二中学东侧",41.701576,110.464864,41.703920,110.429512,1
"1502002012B01833","a90e182e-0934-44ef-a467-5e996449fb5d","内蒙古","包头市","东河区","包头市东河区铝业产业园区",40.582228,110.050395,40.567908,110.089608,1
"1502002012B02147","4872210f-006a-4fa9-8c8d-9f3ccc77ddce","内蒙古","包头市","昆都仑区","昆区钢铁稀土深加工园区内",40.662929,109.846544,40.630080,109.833240,1
"1502232018B00745","1f7f119e-88c1-4188-bf1c-e75cdc131108","内蒙古","包头市","达尔罕茂明安联合旗","达茂旗小文公乡西圪旦村",41.605110,111.306199,41.599444,111.299608,1
"1502222012B00308","2fdf0f61-884a-46d5-be5e-2d848ef74640","内蒙古","包头市","固阳县","固阳二中西",41.033128,110.068709,41.024320,110.055080,1
"1502222012B00347","0d89bb96-b504-462e-aca2-0256893169c2","内蒙古","包头市","固阳县","固阳县科教路南",41.040163,110.066433,41.021128,110.054880,1
"1502002016B00755","6914b510-cc7e-4166-bf1f-80e10d49df4a","内蒙古","包头市","青山区","包头装备制造产业园区B1路以北、建华北路北沿线以西",40.667302,109.941667,40.659932,109.929688,1
"1502002016B00716","5a9072dc-3ff8-45db-917d-2ba154e9674f","内蒙古","包头市","石拐区","包头装备园区新规划区青大线以南、建华北路以西、东达沟以北",40.771946,110.236468,40.764860,110.223960,1
"1502052009B00217","623f6c26-cc92-48b5-9fa4-7f572f65d4c0","内蒙古","包头市","石拐区","石拐区大磁街道办事处十居委",40.716010,110.274262,40.694920,110.268240,1
"1502052008B00135","6e676963-4c02-43fc-8f78-e2ba6e0de1dc","内蒙古","包头市","石拐区","包头市石拐区白草沟村",40.690250,110.261661,40.682856,110.249304,1
"1502052008B00169","d7fee898-9d87-4c93-b1b0-eb0a1024f4f8","内蒙古","包头市","石拐区","包头市石拐区工业园区",40.678299,110.278381,40.670744,110.266376,1
"1502052009B00013","439ddc59-a9fa-4bcc-92aa-9f79fd895478C","内蒙古","包头市","石拐区","包头市石拐区工业园区",40.678299,110.278381,40.670744,110.266376,1
"1502052008B00026","64afe6f9-d216-452c-8ad3-68b2c34e52e5C","内蒙古","包头市","石拐区","包头市石拐区工业园区",40.678299,110.278381,40.670744,110.266376,1
"1502052008B00100","686a16b7-6835-4b39-b47b-0fe58fe84ca8","内蒙古","包头市","石拐区","包头市石拐区工业园区",40.678299,110.278381,40.670744,110.266376,1
"1502002018B00296","42844d30-e60d-448f-8d16-7cafa1bf3cf3","内蒙古","包头市","白云鄂博矿区","包头金属深加工园区内，拓业路南、荣华大街西、沿华外环路东",41.767672,109.978165,40.659932,109.929688,1
"1502002015B01115","e3e083de-cf0c-4a75-b53f-a9cafc7b111e","内蒙古","包头市","九原区","新都市中心区内，西至经十六路、南至沙河西街、东至210国道",40.600020,109.953429,40.629472,109.951712,1
"1502002013B00847","b01f2178-dd25-4dfd-9a46-2a0e11855051","内蒙古","包头市","青山区","包头装备制造产业园区",40.667302,109.941667,40.659932,109.929688,1
"1502002010B00817","5c99b0c7-9f75-4843-9150-cede32a0ef2a","内蒙古","包头市","昆都仑区","昆区阿尔丁北大街西，包钢疗养院西南，厂前路两侧",40.683487,109.836014,40.672648,109.835640,1
"1502002010B00506","6eeb15ba-344d-4923-a814-5f7432d6d949","内蒙古","包头市","青山区","劳动路西，沼源南路北",40.650303,109.881827,40.656200,109.834528,1
"1502002010B01807","c3e67098-1fa6-4b87-b7e9-c0e5a3288df1","内蒙古","包头市","青山区","劳动路西，沼源南路北 ",40.650303,109.881827,40.656200,109.834528,1
"1502002010B00590","9bfbe542-10fb-4736-a154-b0abeb4c1a81","内蒙古","包头市","青山区","青山区青东路东、文学道北",40.658378,109.912301,40.652736,109.896208,1
"1502002015B00606","c4ef3c34-71e8-4413-be14-c528f5d5225c","内蒙古","包头市","青山区","装备制造产业园区（二期）B3路北侧",40.670143,109.939897,40.659932,109.929688,1
"1502002012B00141","9e1af28e-1450-4b15-83df-3ea8a5adcaa8","内蒙古","包头市","昆都仑区","昆区青年路南侧、阿尔丁北大街西侧（电大院内）",40.672267,109.847554,40.661460,109.808864,1
"1502062013B00026","38adef86-2513-45c1-97d8-895a5ffdffe6","内蒙古","包头市","白云鄂博矿区","白云鄂博矿区三角河处",41.774995,109.979626,41.767572,109.967824,1
"1502002010B00789","b735450b-d29a-4a5f-a348-4ef3ebb8c522","内蒙古","包头市","昆都仑区","昆区鞍山道东侧",40.677613,109.824179,40.656200,109.834528,1
"1502222010B01058-1","8e8ee273-84c6-43c2-aa44-1be5b622c36a","内蒙古","包头市","固阳县","固阳县金山镇光荣街",41.034539,110.076297,41.032400,110.054592,1
"1502222010B00286","16a917a3-65d6-4972-8cd0-cbe14fdcbd8b","内蒙古","包头市","固阳县","固阳县下湿壕镇白银合套村",40.920303,110.332496,40.887592,110.336640,1
"1502002016B00895","9182095e-074a-43d2-ba0b-ea782a5e4f80","内蒙古","包头市","九原区","新都市中心区建设路北侧、210国道西侧",40.600020,109.953429,40.663160,109.814296,1
"1502002013B00919-1","e8b4050e-6fa4-44b1-a7fe-e0356793e6c8","内蒙古","包头市","昆都仑区","装备园区B4路南侧",40.662929,109.846544,40.656200,109.834528,1
"1502232016B00230","1537ce1c-34df-4dd4-b75d-ff694d6471f7","内蒙古","包头市","达尔罕茂明安联合旗","达茂旗巴音花镇敖龙忽洞嘎查",42.109154,110.047169,42.100800,110.034624,1
"1502002018A00463","07b7c334-8bf3-4fb5-8df5-4f9a37e961a6","内蒙古","包头市","东河区","同官村色楞湾路以东",40.594700,109.992106,40.558096,109.985616,1
"1502212009B00494-1","20fade96-855c-4c0a-8490-5e37284bc234A","内蒙古","包头市","土默特右旗","萨拉齐镇新城区科技大街南侧",40.586277,110.545430,0.000000,0.000000,1
"1502052010B00121","48ff7e06-e18e-43d8-815d-964713793dbf","内蒙古","包头市","石拐区","石拐区五当召镇白草沟村",40.690250,110.261661,40.790616,110.307792,1
"1502222011B00100","09405e7e-f0ac-41c2-b9fd-c4d3702ba1b5","内蒙古","包头市","固阳县","金山镇昔连脑包村",41.024182,110.028033,41.018408,110.020264,1
"1502002010B00128","9b37513b-6342-4812-a9b1-ee2719316bd3","内蒙古","包头市","青山区","青山区赛音道6号街坊",40.677374,109.881578,40.667308,109.869656,1
"1502002016B00165","796ca782-0975-4677-a774-86642824b6c1","内蒙古","包头市","青山区","稀土高新区幸福南路以东、沼园南路以南、劳动路以西、站前路以北",40.634700,109.870913,40.628584,109.868360,1
"1502212012B00147","c82aa89d-ec20-4cfa-8560-3b0e6fca137e","内蒙古","包头市","土默特右旗","土右旗海子乡民生渠以南、科园大道以西、萨凉公路以北，西至空地",40.553267,110.645226,40.551676,110.632544,1
"1502002010B01480","e730292b-1b6f-4a4d-a7ef-dea8e1772294","内蒙古","包头市","九原区","九原区哈屯高勒路",40.602145,109.964376,40.594700,109.953008,1
"1502002011A01496","95243b46-b6b1-45b8-960e-d09a63ff91fb","内蒙古","包头市","九原区","校园南路以北、沼潭东路以东",40.623781,109.846251,40.616728,109.837472,1
"1502212018B00042","b63430b0-88e2-49fe-a362-eefd4d0dac8c","内蒙古","包头市","土默特右旗","沟门镇马留村，110国道北侧，G6高速公路南侧",40.596186,110.487967,40.591584,110.459968,1
"1502002015B00483","62fd190d-9643-44d5-af80-697bacc4f31a","内蒙古","包头市","九原区","稀土园区校园南路以南",40.623781,109.846251,40.616828,109.834816,1
"1502232014B00088","cc7754a5-faf4-4a1e-8f69-2fa9023725ed","内蒙古","包头市","达尔罕茂明安联合旗","达茂旗百灵庙镇塔日根敖包嘎查",41.705509,110.442479,41.704480,110.428000,1
"1502232011B00100","7589ea24-6fc2-4c87-b5ff-aa65dc57c521","内蒙古","包头市","昆都仑区","达茂联合旗呼恒乌拉街",40.662929,109.846544,41.701148,110.439344,1
"1502212010B00147","0e4e1409-5a2a-48c1-b467-7b7a943d6705","内蒙古","包头市","土默特右旗","萨拉齐镇旧城区交通街西侧",40.567733,110.532927,40.555128,110.517368,1
"1502062013B00097","5515449a-0249-48d1-b31e-d9cf542ca239","内蒙古","包头市","昆都仑区","距城区西北4公里处",40.662929,109.846544,40.729336,109.637888,1
"1502212014B00390","ca5521b4-9a4f-451c-a7e9-ce0140106004","内蒙古","包头市","土默特右旗","东至马留沟，西至空地，南至110国道，北至空地",40.596186,110.487967,40.656200,109.834528,1
"1502002011B00797","0109cfe7-e43b-49cf-90c2-8f97a4e8a48e","内蒙古","包头市","昆都仑区","青山区青年路南、民族东路东",40.669867,109.834574,40.663224,109.844368,1
"1502002013B00130","57424e39-5ec8-4511-a970-7ec9d4819bd1","内蒙古","包头市","九原区","稀土高新区滨河新区",40.584457,109.912557,40.567120,109.914920,1
"1502212016B00127","631389ba-636e-4f6b-8d77-bde6d402fa95","内蒙古","包头市","土默特右旗","振华大街北侧",40.574915,110.530880,40.656200,109.834528,1
"1502002008B00126","71869FA774214077AAA33666372C7FD0","内蒙古","包头市","昆都仑区","哈屯高勒路南",40.662929,109.846544,40.592628,109.941160,1
"1502232016B01400","b6fd8fac-3f84-4b11-9329-c1d60fdb3f81","内蒙古","包头市","达尔罕茂明安联合旗","达茂旗百灵庙镇艾不盖街（步行西街底店）",41.704897,110.443682,41.695100,110.422928,1
"1502002011B00521","436c414a-da6c-4fef-ad1e-9612ec8b5936","内蒙古","包头市","青山区","九原区建华路与沙河街交叉口东",40.645000,109.950789,40.602256,109.953656,1
"1502002013B01470","9252ff73-c380-4e2f-8989-97f1a363b9f4","内蒙古","包头市","昆都仑区","包头市职教基地内",40.662929,109.846544,40.545428,110.498000,1
"1502002013B01457","983ebfd5-8b65-47b3-ae3a-6172f147e457","内蒙古","包头市","昆都仑区","包头市职教基地内",40.662929,109.846544,40.545428,110.498000,1
"1502002011B00210","be04f1df-e8ab-4837-8c3b-fd701b4ad648","内蒙古","包头市","九原区","滨河新区大学园区",40.584457,109.912557,40.656200,109.834528,1
"1502212012B00047","a3a9448d-a8d7-4274-97be-be993e63901f","内蒙古","包头市","土默特右旗","土右旗沟门镇110国道北侧",40.602064,110.665581,40.656200,109.834528,1
"1502222009B00287","58739d40-5b75-4c74-8586-a7b0e757f1e8","内蒙古","包头市","固阳县","固阳县金山镇阿拉塔南街西侧",41.041378,110.068073,41.031160,110.056736,1
"1502002014B02837","398aa236-70f9-4074-982b-030a8246562e","内蒙古","包头市","青山区","包头装备制造产业园区世纪路东侧、G6高速路北侧",40.667302,109.941667,40.663072,109.831384,1
"1502222014B00275","1564e932-3d76-4bb3-bc46-f330961968f2","内蒙古","包头市","固阳县","固阳县金山镇新区A18-04（部分）地块",41.013634,110.050832,41.005648,110.038408,1
"1502002011B00070","1d96cd15-9225-4597-b155-25b7e8cae8c9","内蒙古","包头市","昆都仑区","青山区友谊大街北侧",40.652241,109.836613,40.643100,109.896680,1
"1502222013B00067","977f6bb6-30ba-4fb6-be1a-cd23dcdb1e77","内蒙古","包头市","固阳县"," 金山镇新区C4地块",41.013634,110.050832,41.005648,110.038408,1
"1502212014B00027","b6f628a9-2607-4c97-bcb0-b5fab6e18a6c","内蒙古","包头市","土默特右旗","阿勒坦大道南，明华房地产项目用地北",40.588735,110.539373,40.565940,110.523560,1
"1502002013A00521","f7034f16-cb19-48f3-9ced-e5489a57222e","内蒙古","包头市","九原区","青山区赛汗路东侧、四道沙河西侧、念佛堂北侧",40.678542,109.932246,40.648172,109.912200,1
"1502212018B00150","89f1ccad-b8f6-408d-876f-fcc6e602d519","内蒙古","包头市","土默特右旗","新110国道与土默特大街交汇处北侧,呼包高速南侧",40.599422,110.571615,40.578168,109.966752,1
"1502052016B00125","acff9d29-0a54-49fd-a6bc-da518dd29e3f","内蒙古","包头市","石拐区","石拐区大德恒办事处后营子村",40.678299,110.278381,40.670732,110.266376,1
"1502212012B00021-1","ac2b161b-284d-4a50-bbdd-235ca024918b","内蒙古","包头市","土默特右旗","土右旗萨拉齐镇科技大街南侧欧美路西侧",40.586277,110.545430,40.575108,110.528000,1
"1502212008B00092-1","81b75700-2bfb-41ea-9f36-a8db0542ef67","内蒙古","包头市","土默特右旗","沟门镇110国道北侧",40.602064,110.665581,40.595528,110.512488,1
"1502212008B00115-1","806dc85c-8592-4d5d-9242-47c5ecf8adc6","内蒙古","包头市","土默特右旗","萨拉齐镇二环路东侧",40.524329,110.542981,40.555128,110.517368,1
"1502062011B00236","07b5f19c-6706-493c-8f43-2502b3922e94","内蒙古","包头市","昆都仑区","白云区城区东北约4公里处三角河工业园区",40.662929,109.846544,40.645852,109.895232,1
"1502002015B00752","a7486eb0-1c72-4d96-b0d0-77175ccea183","内蒙古","包头市","九原区","九原区三电厂西墙",40.613397,109.969588,40.630348,109.971616,1
"1502212009B00157-1","b03e5ccb-d2a5-44f2-bb3f-d2327d22c542","内蒙古","包头市","土默特右旗","海子乡山格架村、苏波盖乡三间房村",40.487161,110.658719,40.487160,110.706960,1
"1502222010B00029","c8062abd-3836-4b3b-a8e0-599cb56a2260","内蒙古","包头市","固阳县","固阳县金山镇阿拉塔大街东侧",41.032742,110.071416,41.023088,110.058888,1
"1502222010B00031","1885235a-1ce0-4d44-915a-9ed940f48c90","内蒙古","包头市","固阳县","固阳县金山镇阿拉塔大街东侧",41.032742,110.071416,41.023088,110.058888,1
"1502232016B00410","9a8bf2bc-bf0f-407e-beec-a9620b31d8a5","内蒙古","包头市","达尔罕茂明安联合旗","达茂旗百灵庙镇女儿山街（当代豪庭南侧）",41.701390,110.450608,41.703920,110.429512,1
"1502002013B01134","2f98235d-95f1-4170-bd50-26d8937b85ef","内蒙古","包头市","昆都仑区","包头金属深加工园区",40.662929,109.846544,40.679792,109.741352,1
"1502232013B00557","fc621337-23c3-481d-9fbd-a756434f9260","内蒙古","包头市","达尔罕茂明安联合旗","位于百灵庙镇大街（西口外）",41.807461,110.533131,40.580376,110.009552,1
"1502232013B00530","07ad9c94-d4f3-4a21-9af9-a2fe4885d82f","内蒙古","包头市","达尔罕茂明安联合旗","位于百灵庙镇大街（西口外）",41.807461,110.533131,40.580376,110.009552,1
"1502222010B00652","51bcfeb4-2ef3-4ed4-bbd1-18d031b484e3","内蒙古","包头市","固阳县","固阳县公圣街",41.022754,110.068161,41.014788,110.055760,1
"1502002008B00087","B654548B9C29483583E87A0EE69601CA","内蒙古","包头市","昆都仑区","昆区北沙梁",40.691165,109.822499,40.680460,109.817240,1
"1502052012B00141","79536d89-daa8-4c30-a6bd-d2716f9bf06a","内蒙古","包头市","石拐区","石拐区大德恒办事处马场村、后营子村",40.678299,110.278381,40.670732,110.266376,1
"1502232011B00168","edb4462b-c6ac-403f-b3f4-b6c464261a76","内蒙古","包头市","达尔罕茂明安联合旗","达尔罕茂明安联合旗百灵庙镇",41.807461,110.533131,41.696540,110.426432,1
"1502232013B00659","253b0307-5506-47bc-9212-150a1b376ad3","内蒙古","包头市","达尔罕茂明安联合旗","达茂旗满都拉额尔登敖包嘎查（满都拉口岸至满都拉镇6公里加130米处西侧）",42.532178,109.984018,41.593972,111.017216,1
"1502212012B00189-1","ec16c8ef-98fb-4040-b42f-3293195112f8","内蒙古","包头市","土默特右旗","土右旗萨拉齐镇旧城区东胜街西侧",40.567969,110.539347,40.562352,110.513128,1
"1502002009B00719","0a5a55ae-5c2d-4d19-841c-38a0dc4c461b","内蒙古","包头市","九原区","九原区兴胜经济开发区新城路以西",40.613397,109.969588,40.629472,109.951712,1
"1502212009B00314","981b5114-3a4c-4d49-ae20-228f21bb0532","内蒙古","包头市","昆都仑区","萨凉公路北侧",40.662929,109.846544,40.656200,109.834528,1
"1502002015A00029","aebeae68-9f0d-487e-b5a1-59eddc406ed0","内蒙古","包头市","东河区","东河区巴彦塔拉大街北、副食品厂路东",40.586762,110.024516,40.576740,110.020312,1
"1502002007B01820","3c191548-078c-4d88-a50d-fa05999f9c81","内蒙古","包头市","青山区","稀土路北侧，社会福利院西侧约60米",40.638381,109.874131,40.631216,109.868952,1
"1502002007B01818","78620865-9923-4ec9-9514-82b039339585","内蒙古","包头市","青山区","稀土路北侧，社会福利院西侧约120米",40.638381,109.874131,40.631216,109.868952,1
"1502002007B01879","38d623d4-4b26-4439-8f3a-debf6dcf9453","内蒙古","包头市","九原区","校园南路南侧，科技路西侧",40.623781,109.846251,40.616828,109.834816,1
"1502002011B00759","5db3e9a5-76fb-4bc5-b20a-fffdcbc0ca2e","内蒙古","包头市","九原区","稀土高新区滨河新区",40.584457,109.912557,40.567120,109.914920,1
"1502222010B00947","989b3927-60fe-4efe-91f1-fe1daf3935e0","内蒙古","包头市","固阳县","固阳县光荣街东",41.034539,110.076297,41.032400,110.054592,1
"1502002010B01208","970662bd-8487-43e5-88cc-c7a049a8122c","内蒙古","包头市","青山区","九原区建华路东，武警三支队南",40.645000,109.950789,40.598100,109.963376,1
"1502002015B00866","e8cd09a0-62a6-4dca-b4d6-154de4ad0dfe","内蒙古","包头市","东河区","东河区巴彦塔拉大街北、东河槽西",40.586762,110.024516,40.577572,110.014152,1
"1502002009B01301","d8f485ee-326a-47b5-b01a-5322adf95cf4","内蒙古","包头市","昆都仑区","昆区青年路17号街坊",40.672313,109.817500,40.664460,109.804904,1
"1502232013B00097","712ce879-4cad-4b15-8de2-895c45f41263","内蒙古","包头市","昆都仑区","百镇原工商局办公院",40.662929,109.846544,40.602268,109.962216,1
"1502002010B00325-1","ad75bfc7-c050-4401-969f-9d789aff2d51","内蒙古","包头市","青山区","青山区富强路西人侧、友谊大街北侧",40.675195,109.872995,40.643100,109.896680,1
"1502212009B00337","7db99487-545a-442d-af24-17e8178efbd3","内蒙古","包头市","土默特右旗","萨拉齐东二环路西侧",40.558913,110.527565,40.551580,110.516712,1
"1502212013B00049","2f5b735a-5bd7-4523-9f17-1c3659ec884d","内蒙古","包头市","土默特右旗","萨拉齐影院街",40.558913,110.527565,40.558412,110.502728,1
"1502002015A00148","782efeba-8cbb-4359-82e3-9286c52300b6","内蒙古","包头市","东河区","东河区副食品厂路东、盛达路北",40.582228,110.050395,40.580140,110.038008,1
"1502222013B00208","b70d63bc-9383-4683-a9d6-80b1f96ec040","内蒙古","包头市","昆都仑区","包固一级公路北",40.662929,109.846544,40.614120,110.019120,1
"1502232017B00077","77d178c2-880a-4f14-b351-d19c04e6b3da","内蒙古","包头市","达尔罕茂明安联合旗","达茂旗百灵庙镇第二小学西侧",41.705509,110.442479,41.704480,110.428000,1
"1502002007B01895","480cc4c7-77ca-4223-9e19-4d8c7192e42f","内蒙古","包头市","青山区","沼园路南，科技路西",40.630742,109.863905,40.611760,109.862416,1
"1502222010B00479","37f07b96-58f0-49f3-9f76-81bd1052ea35","内蒙古","包头市","固阳县","固阳县光荣小区",41.040163,110.066433,41.032400,110.054592,1
"1502232017B00135","8eed4f0b-c247-4613-b6ed-4c9e6c2c4206","内蒙古","包头市","达尔罕茂明安联合旗","达茂旗达尔汗苏木阿拉腾嘎查（百灵庙镇到额登敖包公路26公里处路北）",41.498200,110.249238,41.698520,110.431224,1
"1502002016B00977","e47674fe-4640-48e4-bd6b-bbb13b8457af","内蒙古","包头市","青山区","青山区青山路以北、奇峰道以东、鳄鱼湖以南、一机二中以西",40.670894,109.910348,40.662700,109.897984,1
"1502222011B00058","fc60fbf3-d65b-460b-8723-5733792a3823","内蒙古","包头市","固阳县","固阳县金山工业园区",40.982693,110.104686,41.024244,110.063536,1
"1502002012B00086","6ff47ff3-fbb3-4a75-bb88-8a86cf59d5d7","内蒙古","包头市","昆都仑区","昆区团结大街以南、林荫路东侧、学府道西侧",40.676440,109.832707,40.666148,109.804136,1
"1502232008B00072","547ab0de-5d96-4bea-a58c-fa65336d5117","内蒙古","包头市","达尔罕茂明安联合旗","达茂旗希拉穆仁镇",41.329493,111.242703,41.684052,110.446384,1
"1502212013B00066","0e62b485-ae42-45d0-947b-5e9aef027dfb","内蒙古","包头市","土默特右旗","萨拉齐站前街2#",40.570313,110.531359,40.555128,110.517368,1
"1502002011B00977","e67b5d16-730c-4728-a9d0-0d1e92689a06","内蒙古","包头市","东河区","东河区河东乡陈户窑子村",40.596152,110.073933,40.588480,110.058544,1
"1502222017B00113","1419ac83-3bf7-4e50-98c7-93de242d82fd","内蒙古","包头市","固阳县","固阳县兴顺西",41.040163,110.066433,41.175688,110.395856,1
"1502222013B00087","946ecb48-95e3-473d-a231-1840169f8fba","内蒙古","包头市","固阳县","固阳县科教路南",41.040163,110.066433,41.021128,110.054880,1
"1502002017B00149","9f8fba93-1557-43d2-84cd-09daeeb73bd1","内蒙古","包头市","青山区","包头装备制造产业园区（二期）B5路以北、B6路以南、A2路以西",40.667302,109.941667,40.659932,109.929688,1
"1502222013B00019","2603e888-2ab8-44c4-a59d-60673bf6b47e","内蒙古","包头市","固阳县","金山镇旧区D13-07-03",41.013634,110.050832,41.034060,110.051760,1
"1502002017B00729","955cff8f-22cb-4b63-b732-eced15a8fd2d","内蒙古","包头市","昆都仑区","昆区莫尼路以南，阿尔丁北大街以西",40.672267,109.847554,40.656200,109.834528,1
"1502002008B01658","4bb11fac-9bf7-4d50-ba1a-979037c2b2e1","内蒙古","包头市","昆都仑区","林荫南路东，黄河路南",40.628017,109.831316,40.656200,109.834528,1
"1502002015B00648","24fdcfee-2903-4a64-93c8-1affc351280d","内蒙古","包头市","昆都仑区","建华北路以西、B6路以南",40.662929,109.846544,40.631068,109.932184,1
"1502212018A00075","6adcb58b-55b5-4f19-8aa1-c236284e309c","内蒙古","包头市","土默特右旗","敕勒川大街东侧,科技大街南侧,经四路西侧,工业大街北侧",40.578795,110.544114,40.656200,109.834528,1
"1502212007B00080","233fcd19-db6a-4e6f-b396-a51d59b3b733","内蒙古","包头市","土默特右旗","萨拉齐镇太平街北侧",40.563364,110.524992,40.555128,110.517368,1
"1502232017B00227","82f4d8b0-c950-4b1f-b396-40f372d0c4e4","内蒙古","包头市","达尔罕茂明安联合旗","达茂旗百灵庙镇呼恒乌拉街（当代一品斜对面门脸底店）",41.701246,110.451662,41.703920,110.429512,1
"1502212007B00013","ff78842b-7055-472f-a935-eca53b4b2c21","内蒙古","包头市","土默特右旗","萨拉镇大西街南侧",40.556924,110.520634,40.561388,110.518200,1
"1502002009B00031","96b53b41-1bff-43a0-9c65-f77e014cfeb4","内蒙古","包头市","青山区","昌福村赛汗路西、科学路北",40.660681,109.896909,40.650916,109.889192,1
"1502222012B00279","d39c3afa-33ba-4012-933e-ad3e6deb0ea0","内蒙古","包头市","固阳县","固阳县科教路南",41.040163,110.066433,41.021128,110.054880,1
"1502002010B00256","dc0fdd8a-413c-4b9b-bea6-7fbc54bf3a98","内蒙古","包头市","昆都仑区","昆区青年路8号街坊",40.666997,109.845389,40.658952,109.832680,1
"1502052016B00102","b4c10661-8a96-4a25-b7da-b1d78db4f688","内蒙古","包头市","石拐区","石拐区吉呼伦图苏木吉呼伦图嘎查五当召",40.678299,110.278381,40.779448,110.252352,1
"1502002011B00836","3421b7e1-481a-4eb2-833b-3662ac738703","内蒙古","包头市","九原区","稀土高新区希望工业园区",40.575323,109.927369,40.629380,109.833576,1
"1502052009B00112","b5aba206-b215-410d-8a21-ff5bff03c67d","内蒙古","包头市","石拐区","石拐区五当召镇白草沟村",40.690250,110.261661,40.790616,110.307792,1
"1502002009B01031","018bcf56-e274-43bc-bf8d-4348c97b6a2c","内蒙古","包头市","昆都仑区","少先路17号街坊",40.660591,109.808350,40.653000,109.796000,1
"1502002016B00812","937a1cdf-f2a7-4f5d-a09a-2a7ef7d7693f","内蒙古","包头市","昆都仑区","昆区团甲16#街坊（莫尼路南侧，白云路西侧）",40.680488,109.844303,40.615580,109.802032,1
"1502212012B00429","f50cecb5-ddc7-4d8a-95f6-eb653991fbb4","内蒙古","包头市","昆都仑区","土右旗经十四路东侧，太平落东街南侧，经十五路西侧，新东街北侧",40.662929,109.846544,40.408168,110.959152,1
"1502222009B00203","94da2f89-d310-45cd-9a74-09e601c059f5","内蒙古","包头市","固阳县","固阳县金山镇阿拉塔南街西侧",41.041378,110.068073,41.031160,110.056736,1
"1502002013B01353","357b2ddd-fc3f-485a-a2b8-17053ed894f8","内蒙古","包头市","九原区","高新区滨河新区机电园区光耀路以西、西区五路以北",40.587090,109.915954,40.656200,109.834528,1
"1502062007B00018","7a076d6a-58cd-40a6-a608-757416303169","内蒙古","包头市","昆都仑区","文化小区（明珠加油站南侧）",40.662929,109.846544,40.656200,109.834528,1
"1502232007B00219","7f3280e5-65fd-4f8c-8d46-765d6f4e07f6","内蒙古","包头市","达尔罕茂明安联合旗","百灵庙镇水塔街",41.708034,110.443671,41.704080,110.428976,1
"1502222009B00320","8c8e05dc-793a-4d4b-9963-7150a866bc39","内蒙古","包头市","固阳县","固阳县下湿壕镇白银合套村",40.920303,110.332496,40.887592,110.336640,1
"1502212017B00055","6242f852-5327-41b1-8aeb-dd9f5b2c0ef5","内蒙古","包头市","土默特右旗","萨凉路北侧",40.558769,110.547459,40.557108,110.527680,1
"1502212017B00046","c68b4154-7a9c-4fa3-bf55-b6d5c215e9fe","内蒙古","包头市","土默特右旗","明沙淖大城西村，萨大路东侧，杜四营村南侧",40.516118,110.410117,40.497584,110.380664,1
"1502002017B01092","e7b530a4-2d71-4f3c-99db-8dec37caee44","内蒙古","包头市","东河区","东河区副食品厂路东、东脑包路北",40.582228,110.050395,40.580140,110.038008,1
"1502212017B00123","2daa1ac3-05cb-4da0-be34-91b3afb72b91","内蒙古","包头市","土默特右旗","萨拉齐镇城南新区，霍家园路东，南环路南，敕勒川大街西，哈屯高勒大街北",40.550958,110.541501,40.543592,110.529232,1
"1502002007B00056","810208e0-5895-408d-b031-c55aebd35658","内蒙古","包头市","昆都仑区","昆区沼潭火车站广场东侧",40.616472,109.842688,40.607440,109.833920,1
"1502212017B00291","a49b4ec4-c048-4c6c-bfe4-ebcfc6da12a4","内蒙古","包头市","土默特右旗","将军尧镇三岔口村南，黄河大坝北侧",40.311352,110.938558,40.559700,109.612400,1
"1502232007B00043","655a6d9c-55dc-46f5-b519-a0735dc706bc","内蒙古","包头市","达尔罕茂明安联合旗","百灵庙镇",41.807461,110.533131,41.698520,110.431224,1
"1502062007B00065","aa867a79-cdfe-4ef2-a00c-84873cc3fc3b","内蒙古","包头市","昆都仑区","稀土西路北侧",40.662929,109.846544,40.628732,109.837512,1
"1502002007B01747","e6172ccc-33e3-4298-9ab4-3245bfa41862","内蒙古","包头市","昆都仑区","富强南路东100米，新光东路南侧",40.645936,109.845488,40.638684,109.839024,1
"1502212007B00039","4ea4667a-5a10-4e76-b287-e0bd1a69e0df","内蒙古","包头市","土默特右旗","萨拉齐镇振华大街南侧",40.574915,110.530880,40.567152,110.525400,1
"1502232017B00035","2cd00217-77d0-4741-9791-1b176930ab0c","内蒙古","包头市","达尔罕茂明安联合旗","达茂旗百灵庙镇呼恒乌拉街（女儿山斜对面底店门脸舒悦床垫）",41.701390,110.450608,41.693488,110.437720,1
"1502222006B00016","f9019475-a6b8-4b49-8312-c2a8f2d27683C","内蒙古","包头市","固阳县","固阳县金山镇阿拉塔北街东侧",41.046160,110.066780,41.034012,110.055680,1
"1502002007B01789","f42c84df-372c-4e5e-8fb4-f56ff14ab9ef","内蒙古","包头市","九原区","青工路北侧，幸福南路东侧",40.622335,109.871990,40.639428,109.861768,1
"1502212017B00017","95f9777d-8897-4418-8662-5904b33801c8","内蒙古","包头市","土默特右旗","振华大街延伸线与经四路交叉口西北角",40.574915,110.530880,40.656200,109.834528,1
"1502222007B00986","a0627271-7929-4a28-8f4a-2389b85b59b0","内蒙古","包头市","固阳县","固阳县南二条巷",41.040163,110.066433,41.032400,110.054592,1
"1502002007B01737","b875ffc3-ce21-41df-bb2b-e8134ecacaa6","内蒙古","包头市","九原区","幸福南路东侧",40.622335,109.871990,40.656200,109.834528,1
"1502002007B01934","23cc2e74-470f-43f5-b627-7dfbb31fbbc5","内蒙古","包头市","青山区","高新区友谊大街南侧、幸福南路东侧、青工路北侧",40.642038,109.868276,40.639428,109.861768,1
"1502002007B01844","a8111a7e-c0ed-4acb-b2cf-bcac00c51598","内蒙古","包头市","九原区","高新区万水泉区二电厂储灰池南侧",40.594570,109.928570,40.593200,109.901264,1
"1502212007B00100-1","6be824b0-57db-4fa2-9a4b-52da5d203e75A","内蒙古","包头市","土默特右旗","萨拉齐镇振华大街南侧",40.574915,110.530880,40.567152,110.525400,1
"1502222017B00255","62b094b2-559f-4145-bc91-94104219c628","内蒙古","包头市","固阳县","固阳县新区",41.040163,110.066433,41.032400,110.054592,1
"1502222009B00482","4e693e32-f74f-4bb3-949f-db2f5d447bed","内蒙古","包头市","固阳县","固阳县金山镇永和公村",41.085730,110.007821,41.079712,110.001304,1
"1502232017B00179","e0fc6b2d-523b-46ba-ab86-e534cbe660ed","内蒙古","包头市","达尔罕茂明安联合旗","百灵庙镇呼恒乌拉街（牧仁酒店对面）",41.701246,110.451662,41.687200,110.441104,1
"1502002008B00026","A614CFBA5B874F27A6403DD1AAB3C951C","内蒙古","包头市","东河区","东河区呼包九街",40.582228,110.050395,40.574840,110.038016,1
"1502002011B00011","76864456-a0af-47a9-8d88-094b64a017b9","内蒙古","包头市","昆都仑区","九原区麻池镇南",40.605967,109.848851,40.556228,110.059376,1
"1502222017B00147","d8ecdd3b-30a7-406c-bfdd-d38edbbaa817","内蒙古","包头市","固阳县","固阳县金山工业园区",40.982693,110.104686,41.024244,110.063536,1
"1502232017B00012","1d18a0fe-5d4d-45fe-a3bd-d033b7f586dd","内蒙古","包头市","达尔罕茂明安联合旗","达茂旗百灵庙镇女儿山街贝勒小区",41.698091,110.451326,41.690332,110.439088,1
"1502052018A00080","36b15b67-31bf-4a58-9996-b6c4dbac2ad6","内蒙古","包头市","石拐区","石拐区大德恒办事处开洲窑子村",40.678299,110.278381,40.695432,110.267400,1
"1502002017B00220","6131a1a6-2ab9-4035-8378-f68c94865445","内蒙古","包头市","九原区","青山区青福镇赵家店村",40.704502,109.874248,40.648368,109.911400,1
"1502222010B01047","eac22410-ff72-4311-a280-8b1e1e1692c6","内蒙古","包头市","固阳县","固阳县金山镇包白公路东侧",41.013634,110.050832,41.015460,110.052112,1
"1502222017B00297","826527fa-aec0-4abe-8325-fbf4ab15eb46","内蒙古","包头市","固阳县","包头金山工业园区B5-02地块（局部）",40.985533,110.054798,41.024244,110.063536,1
"1502222018B00089","8a8e2e9d-9a86-4cde-91de-df55a1ef1b32","内蒙古","包头市","固阳县","固阳县金山镇红崖湾村",40.948502,110.144557,40.940688,110.131960,1
"1502222018B00065","242ec05f-121b-4fbd-aae3-52e5a3d9e433","内蒙古","包头市","固阳县","固阳县金山镇万胜壕村",41.001958,110.097846,40.991200,110.048664,1
"1502002010B01150-1","099c259e-1e78-4283-b67c-85c96aa08390","内蒙古","包头市","九原区","稀土高新区校园南路以北，沼潭东路以东",40.623781,109.846251,40.632764,109.838568,1
"1502212016B00327","d9a80372-8f14-43e9-97a1-2540fb9a6799","内蒙古","包头市","土默特右旗","明沙淖乡贺成全村东北侧，萨明公路东侧",40.427972,110.496336,40.420764,110.483840,1
"1502052013B00097","e6b569da-b1c9-4e62-9ef5-115a7bc5a782","内蒙古","包头市","石拐区","石拐区大德恒办事处马场村",40.678299,110.278381,40.670732,110.266376,1
"1502232010B00048","4cb7b76f-5e48-484c-a321-587ba8e8231e","内蒙古","包头市","达尔罕茂明安联合旗","包头市达茂联合旗百灵庙镇百灵工业园区",41.706108,110.442441,41.698040,110.429584,1
"1502232010B00021","e726cada-03a3-4225-9b23-4874a43bf106","内蒙古","包头市","达尔罕茂明安联合旗","包头市达茂联合旗百灵庙镇百灵工业园区",41.706108,110.442441,41.698040,110.429584,1
"1502222014B00017","e80cfc4d-4aa6-46fd-8da7-bc19d5dea43f","内蒙古","包头市","固阳县","固阳县金山镇繁荣路",41.029417,110.076192,41.021708,110.063760,1
"1502002010B00300","d079afed-edff-4443-85c4-858235fe194e","内蒙古","包头市","青山区","青山区富强路12#街坊",40.681818,109.879413,40.675400,109.865016,1
"1502222009B00738","b1ac84b3-8195-4b49-bffa-e76309857033","内蒙古","包头市","固阳县","固阳县金山镇阿拉塔南街西侧",41.041378,110.068073,41.031160,110.056736,1
"1502002010B01840","a1e04196-ee61-4b52-af04-51e78b0b2f6f","内蒙古","包头市","九原区","滨河新区",40.584457,109.912557,40.586940,109.940904,1
"1502002014B02755","ada02ecf-76bb-403a-b553-de086562ffcd","内蒙古","包头市","九原区","高新区希望园区光明路以南、金冀路以东",40.594570,109.928570,40.634660,109.875480,1
"1502002013B00936","d3a977ac-59c5-472d-9338-6d971db85629","内蒙古","包头市","昆都仑区","装备园区B4路北侧",40.662929,109.846544,40.620992,109.916096,1
"1502002013B00984-1","a006a57c-02ff-4a50-a841-742ea1478ca3","内蒙古","包头市","昆都仑区","装备园区B3路南侧，A1路西侧",40.662929,109.846544,40.644052,109.824400,1
"1502002013B00901-1","79a13c86-dd8b-4d4d-acbe-012dec7903b0","内蒙古","包头市","昆都仑区","装备园区B3路北侧",40.662929,109.846544,40.663072,109.831384,1
"1502222012B00217","d5fe5d76-5b27-4758-9bc7-d3f8ef476dc3","内蒙古","包头市","固阳县","固阳县三叉路北",41.040163,110.066433,41.032400,110.054592,1
"1502222010B00697","fbd4190d-f3e7-4d6b-96b0-0efce1ce0c4f","内蒙古","包头市","固阳县","固阳县党政大楼东",41.040163,110.066433,41.032400,110.054592,1
"1502222010B00739","76cf15d3-3788-4e4d-a66c-a9c0d14017d5","内蒙古","包头市","固阳县","固阳县支农路北",41.032383,110.080161,41.024676,110.066384,1
"1502232011B00039","a140d05c-fcce-4c82-bc73-ed5db3d4ff1e","内蒙古","包头市","达尔罕茂明安联合旗","包头市达尔罕茂名安联合旗百灵庙镇河东区",41.706233,110.442994,0.000000,0.000000,1
"1502212010B00067","4bba8463-660d-4d1b-8ba2-d69d78653a30","内蒙古","包头市","土默特右旗","土右旗萨拉齐镇新区",40.524329,110.542981,40.562352,110.513128,1
"1502232011B00140","f7f71c16-b252-4e50-b9c5-0532196dcf9a","内蒙古","包头市","达尔罕茂明安联合旗","包头市达尔罕茂名安联合旗乌克镇厂汉村",41.706233,110.442994,41.698028,110.435040,1
"1502222013B00350","8f26f306-cbbd-4afd-96f0-9e1010661c9f","内蒙古","包头市","固阳县","固阳县新建路北侧",41.022618,110.079149,41.032400,110.054592,1
"1502222009B00778","9595ae56-0148-42a3-9a90-833ca06b2d90","内蒙古","包头市","固阳县","固阳县包白公路西",41.040163,110.066433,41.015460,110.052112,1
"1502222009B00268","6d75783d-04c4-4557-9fa5-6c47e6a39e77","内蒙古","包头市","固阳县","固阳县包白公路西",41.040163,110.066433,41.015460,110.052112,1
"1502222009B00023","0ea8b839-5a89-41b0-b9e6-5ce2e4de26d0","内蒙古","包头市","固阳县","固阳县金山镇",41.013634,110.050832,41.005648,110.038408,1
"1502052012B00174","3ba4147f-9f43-48e7-ad80-a87ed73c11c9","内蒙古","包头市","石拐区","石拐区大德恒办事处后营子村",40.678299,110.278381,40.670732,110.266376,1
"1502222010B00628","13c52c62-492d-41f7-ac9d-3af490d9c6ce","内蒙古","包头市","固阳县","固阳县三中墙外",41.040163,110.066433,41.006020,110.052488,1
"1502002011B00660","bfa95f82-5cc4-4e43-bd47-dc51c7bd7e76","内蒙古","包头市","九原区","九原区哈林格尔镇南绕城",40.613397,109.969588,40.566852,109.877112,1
"1502212009B00276","1115d124-3531-4168-bad0-2c2a82fbd316","内蒙古","包头市","土默特右旗","土右旗苏波盖乡美岱桥村北侧",40.596811,110.690088,40.656200,109.834528,1
"1502212008B00226-1","2fa5163f-c710-41af-80ca-fd26fedb3b1c","内蒙古","包头市","土默特右旗","萨拉齐镇137铁路线东侧",40.567326,110.529919,40.555128,110.517368,1
"1502212008B00237","1074336f-8142-4772-b160-eaba6607d3c3","内蒙古","包头市","土默特右旗","萨镇果园路东侧",40.580579,110.522214,40.656200,109.834528,1
"1502002011B00330","52ddf1a2-1646-43e4-945c-2195f44e44b2","内蒙古","包头市","九原区","高新区稀土园区",40.594570,109.928570,40.618788,109.846672,1
"1502002012B01957","17114783-1536-4ee8-927a-ae01270dfa5d","内蒙古","包头市","昆都仑区","昆区南排道以东、自力道以北、莫尼路以南",40.680281,109.805181,40.674840,109.802304,1
"1502052014B00257","347a9dc8-074c-4e68-ad53-e98c3e9ddfeb","内蒙古","包头市","石拐区","石拐区大德恒办事处后营子村",40.678299,110.278381,40.670732,110.266376,1
"1502212013B00189","824998c2-0bf6-4313-acce-d4ec617befc5","内蒙古","包头市","土默特右旗","东至生态公园东环形路，西至生态公园和谐路，北至林地，南至小路",40.582351,110.522256,40.571320,110.507824,1
"1502232018B00299","aef8d9b4-41f1-4687-9eb6-cf50f0fcbad6","内蒙古","包头市","达尔罕茂明安联合旗","达茂旗百灵庙镇解放街边贸市场门脸（香辣板面）",41.705694,110.447267,41.697912,110.437272,1
"1502002018B00258","5678329b-825c-4fc9-9928-61fc845c55ec","内蒙古","包头市","东河区","东河区利郎路西、盛达路北侧",40.582228,110.050395,40.576764,110.007664,1
"1502052015B00067","1d071f9a-fcbd-4010-9e2f-6203a0688899","内蒙古","包头市","石拐区","石拐区大德恒办事处后营子村",40.678299,110.278381,40.670732,110.266376,1
"1502222009B00908","233d101d-6323-4a74-bd72-80247e727c4e","内蒙古","包头市","固阳县","固阳县金山镇阿拉塔南街西侧",41.041378,110.068073,41.031160,110.056736,1
"1502052011B00414","7c5cd047-1d67-4316-99a6-d3420d50bc16","内蒙古","包头市","石拐区","石拐区五当召镇白草沟村",40.690250,110.261661,40.790616,110.307792,1
"1502002010B00727","1b317eb8-0593-4a2b-b822-7ea876e21abd","内蒙古","包头市","东河区","东河区巴彦塔拉大街（原三电厂）",40.586762,110.024516,40.583260,109.998032,1
"1502002016B00148","1d9ef8fa-231d-4a41-a803-e7cd3bc02bde","内蒙古","包头市","九原区","稀土高新区滨河新区秋实路以南、火炬路以东、万水泉大街以西、春晓路以北",40.575323,109.927369,40.560672,109.904280,1
"1502002016B00197","33a4ddfe-9a6b-4b7f-a38e-954981acd063","内蒙古","包头市","九原区","希望园区南绕城公路以南、金翼路以西",40.615581,109.731354,40.553880,109.919888,1
"1502212016B00028","760e02c6-9f24-4629-8823-dcdb63ab6841","内蒙古","包头市","土默特右旗","西环路东侧，纬四路南侧，经十一路西侧，太平西街北侧",40.554807,110.517949,40.620992,109.916096,1
"1502002010B02055","03d1f745-b4c0-4268-8085-48a110f00ed7","内蒙古","包头市","九原区","滨河新区",40.584457,109.912557,40.586940,109.940904,1
"1502002009B00937","27b16daf-d5bc-48da-8139-bc635647afd3","内蒙古","包头市","九原区","九原区沙河镇南",40.620960,109.973223,40.556228,110.059376,1
"1502002012B00526","12ab7404-6c42-4dc4-b154-e40beaa65404","内蒙古","包头市","九原区","九原区新城路西、哈业敖包街北",40.613397,109.969588,40.601892,109.962984,1
"1502222011B00099","8ff0a743-d599-406e-a02b-517088ccc541","内蒙古","包头市","固阳县","固阳县金山镇阿拉塔北街东侧（原粮食局院）",41.046160,110.066780,41.034012,110.055680,1
"1502002013B02201","68206822-8f07-4c71-bcd3-80f581adf00d","内蒙古","包头市","昆都仑区","昆区南排道西侧、昆工路南侧",40.675380,109.813857,40.642980,109.794136,1
"1502212011B00067","3a24889a-c3f5-4987-9f11-8b1215f33ea6","内蒙古","包头市","土默特右旗","萨拉齐镇大北街西侧",40.563599,110.524596,40.554700,110.512304,1
"1502062011B00240","f5ed028c-67e3-4589-b6f2-7d63544af0bb","内蒙古","包头市","白云鄂博矿区","白云鄂博大街北",41.767183,109.964140,40.656200,109.834528,1
"1502212012B00363","e4344c23-30ae-4f02-9950-59c0f0c2c5a4","内蒙古","包头市","土默特右旗","萨拉齐镇振华大街北，工业大街南，敕勒川大街西侧",40.574915,110.530880,40.555128,110.517368,1
"1502002012B00231","91578f3f-6694-452c-a8ec-282f23ea68a3","内蒙古","包头市","青山区","青山区劳动路西侧、钢铁大街以南",40.650303,109.881827,40.654308,109.863120,1
"1502222010B00796","a1a8012c-7a5a-486e-a4a2-6f0f86cb4faa","内蒙古","包头市","固阳县","固阳县三中",41.013899,110.065002,41.005240,110.052104,1
"1502002016B01052","34b53cf4-66dd-4cd8-9b34-d4ab56014f57","内蒙古","包头市","九原区","稀土高新区稀土应用产业园",40.620009,109.898642,40.612900,109.886512,1
"1502062008B00025","7e97609a-6ac6-4aab-9438-c66208ddc903","内蒙古","包头市","白云鄂博矿区","塔拉小区（原工程公司）",41.779523,109.977273,40.588180,109.984624,1
"1502002011B00087","0ea45312-c6a6-46d2-8158-31dd4e879cc9","内蒙古","包头市","东河区","装备制造产业区（110国道666公里处南）",40.581032,110.048421,40.659932,109.929688,1
"1502002009B01219","83c4055b-c217-4762-9099-bfc479f367fc","内蒙古","包头市","青山区","青山区迎宾小区",40.678482,109.861448,40.669420,109.850240,1
"1502002010B01983","91b6808b-0279-494f-969b-80ac04a76b47","内蒙古","包头市","昆都仑区","稀土路以东、区间路以南",40.636622,109.846581,40.631216,109.868952,1
"1502222010B01069","00676293-c8bb-4319-a0b0-26506767890a","内蒙古","包头市","固阳县","固阳县金山工业园区",40.982693,110.104686,41.024244,110.063536,1
"1502222013B00129","5a27ad84-3df0-493e-8265-8bf870562b28","内蒙古","包头市","固阳县","固阳县光荣小区",41.040163,110.066433,41.032400,110.054592,1
"1502002010B01730","dd1f7705-6746-439a-b185-199e97f6260d","内蒙古","包头市","九原区","九原区兴胜经济开发区、哈业敖包街以北、乌拉特路以西",40.613397,109.969588,40.629472,109.951712,1
"1502002009B01201","52e0ae6c-6540-407c-abeb-fcc3b6a8a8ed","内蒙古","包头市","昆都仑区","昆区河西工业区03街",40.624423,109.778399,40.664200,109.811288,1
"1502002011B00421","42b09a6f-f6b3-42d9-ac31-996f379041e9","内蒙古","包头市","昆都仑区","昆区钢铁大街以南、少先路以北、昆河东路西侧、滨河路东侧",40.662823,109.840708,40.651348,109.834256,1
"1502222010B00250","47ed7b0a-ed41-42cf-ac84-3ba09389728d","内蒙古","包头市","固阳县","固阳县金山镇阿拉塔大街西侧原军民文化馆",41.032742,110.071416,41.024840,110.058616,1
"1502052018A00035","caead700-7caa-4925-85e0-75883878e1bb","内蒙古","包头市","石拐区","石拐区大德恒办事处开州窑子、后营子村",40.678299,110.278381,40.672160,110.267776,1
"1502222010B00098-1","e85f5ac7-fc98-40c2-8420-7d042c71b577","内蒙古","包头市","固阳县","固阳县下湿壕镇六顶帐房村",40.927396,110.393207,40.913100,110.324200,1
"1502002011B01090","b4bd88fb-891e-47f2-ab29-1f8d0b0fe8e2","内蒙古","包头市","青山区","青山区自由路13号街坊",40.658970,109.897049,40.652988,109.885456,1
"1502002011B01193-1","d66ee33b-60b2-4188-8e3a-b352e10502c2","内蒙古","包头市","昆都仑区","昆区林荫路西侧、校园路南侧",40.676519,109.829105,40.621676,109.815280,1
"1502002012B00409","d8f40493-1416-4cc0-936a-3509d17082c9","内蒙古","包头市","东河区","东河区巴彦拉大街南、耐火厂路东",40.582740,110.055346,40.575020,110.042904,1
"1502222010B00562","68dd773e-bfb1-461f-be04-4811afe7ea32","内蒙古","包头市","固阳县","固阳县公益民中学南路西",40.990076,109.982606,40.984944,109.976744,1
"1502052013B00200","ebae455f-3c90-4fc1-b420-d42fdd2c7ae0","内蒙古","包头市","石拐区","石拐区五当召镇白草沟村",40.690250,110.261661,40.790616,110.307792,1
"1502212015B00160","47028582-a154-4c49-a7e4-e55445230d3c","内蒙古","包头市","昆都仑区","土右旗新型工业园区内",40.662929,109.846544,40.594400,110.624296,1
"1502002010B01910","155ee2ee-5027-4649-af35-db9f807f2300","内蒙古","包头市","昆都仑区","希望工业园区",40.662929,109.846544,40.588140,109.803480,1
"1502212008B00108","3e16f354-b414-4f5d-9995-5debb4b713ca","内蒙古","包头市","昆都仑区","二环路东侧",40.662929,109.846544,40.656200,109.834528,1
"1502002011B00227","7f176c3f-77c5-4fb4-9863-07df0e57ce8e","内蒙古","包头市","东河区","东河区巴彦塔拉大街南、南门外大街西",40.586762,110.024516,40.576304,110.021536,1
"1502002010B01505","decf8561-291e-4fc1-a8e9-6c4e5d979ecb","内蒙古","包头市","九原区","哈林格尔乡厂汉村",40.608444,109.756999,40.857996,110.195920,1
"1502232013B00369","1f278067-5691-44cf-a9e7-b8d042caf23d","内蒙古","包头市","达尔罕茂明安联合旗","希拉幕仁孙氏旅游中心西侧",41.320816,111.238892,41.321300,111.222704,1
"1502222009B00898","011a6699-4833-4235-b28c-d02fc599a34d","内蒙古","包头市","固阳县","固阳县金山镇阿拉塔南街",41.041378,110.068073,41.022720,110.058376,1
"1502002009B00971","f096d395-7ddd-4e30-b34c-4e4c81a47652","内蒙古","包头市","东河区","东河区东兴街道1号街坊",40.570483,110.138940,40.564840,110.140088,1
"1502002009B00997","f9581567-842d-458b-97fd-84a37d2891aa","内蒙古","包头市","东河区","东河区东兴街道1号街坊",40.570483,110.138940,40.564840,110.140088,1
"1502052011B00333","d96d9b12-9e54-462c-9e30-d2c1ff8825dd","内蒙古","包头市","石拐区","石拐区五当召镇白草沟村",40.690250,110.261661,40.790616,110.307792,1
"1502002010B00905","88824c1d-6363-489e-b29b-5b97789ed3ef","内蒙古","包头市","青山区","文化路北，原第一苗圃西",40.670447,109.893734,40.656200,109.834528,1
"1502002013B01266","6edb2d39-86ab-4897-9387-963fc3c27e71","内蒙古","包头市","昆都仑区","包头市职教基地内",40.662929,109.846544,40.545428,110.498000,1
"1502002009B00848","8db138fe-41df-4180-950e-a27b1c0fdb32","内蒙古","包头市","昆都仑区","昆区青年路9号街坊",40.669867,109.834574,40.661460,109.808864,1
"1502002010B01499","bca40dc7-8fed-4bbf-88dc-3da0afdb5dce","内蒙古","包头市","九原区","哈林格尔乡厂汉村",40.608444,109.756999,40.857996,110.195920,1
"1502002012B00559","d277d57a-79b6-4783-88b2-c3c92ce1fb48","内蒙古","包头市","九原区","东河区铝业园区、河东镇毛其来村、镫口村（南绕城公路南侧）",40.553090,110.061853,40.565028,110.159392,1
"1502002008B01696","2e09a43b-b65d-4887-94d7-23fdc51804e7","内蒙古","包头市","昆都仑区","高新区富强南路两侧，新光东路两侧",40.645936,109.845488,40.638684,109.839024,1
"1502222013B00163","387ccb77-740a-4ecf-8b39-e565178897ef","内蒙古","包头市","固阳县","金山镇旧城区D24－06－01、D24－04－01、D24－05",41.013634,110.050832,41.034060,110.051760,1
"1502002013B01610","02f71911-c0b3-466f-8245-30cea57a2ccc","内蒙古","包头市","昆都仑区","包头市职教基地内",40.662929,109.846544,40.545428,110.498000,1
"1502002013B02319","06896c78-0b83-4240-b656-371aaa02466a","内蒙古","包头市","昆都仑区","昆区钢铁大街南侧，广场西路西侧，广场南路北侧，市府西路东侧",40.662823,109.840708,40.657056,109.816832,1
"1502002011B00407","18aebaee-0c1d-4e1e-ac2b-416f9d136059","内蒙古","包头市","东河区","东河区巴彦塔拉大街南",40.586762,110.024516,40.574840,110.038016,1
"1502002011B01071","60b791e5-342e-497d-ab25-d2c187b5ec46","内蒙古","包头市","东河区","110国道北、塞北公司西侧",40.581032,110.048421,40.551252,110.520048,1
"1502212009B00231","7a2a59c2-6b95-4f8e-9419-39a9473938a2","内蒙古","包头市","土默特右旗","土右旗萨拉齐镇西老藏营村",40.564827,110.606322,40.562352,110.513128,1
"1502002012B01737","8d870d51-1835-4aa8-9e76-4e3b0d39b229","内蒙古","包头市","九原区","滨河新区南绕城以北、西区十一街以西",40.584457,109.912557,40.566852,109.877112,1
"1502002016B00176-2","20bd6aae-096a-465a-bfe6-9e3bbbf4142e","内蒙古","包头市","九原区","稀土高新区南绕城以南、金翼路以东",40.575323,109.927369,40.566852,109.877112,1
"1502002012B01879","3afe2696-8594-45e0-8218-04d548156725","内蒙古","包头市","九原区","青山区110国道737公里处",40.707667,109.867189,40.665060,109.879400,1
"1502002012B01917","7720ca1a-eca5-45e3-9b61-bef68f32f14a","内蒙古","包头市","九原区","青山区110国道737公里处",40.707667,109.867189,40.665060,109.879400,1
"1502002012B00127","d6b6a1d0-8b16-41e7-9e8f-ca3c66bef5bd","内蒙古","包头市","青山区","稀土高新区青工南路南侧、劳动路以西",40.634700,109.870913,40.628584,109.868360,1
"1502002011B00101","c9d07c15-7e9a-422b-9b74-40e321eca8b6","内蒙古","包头市","青山区","青山区民主路东侧、蒙牛路南侧",40.661037,109.906361,40.643100,109.896680,1
"1502002012B01339","91710dd3-da39-404f-b5fd-4da999b76f0f","内蒙古","包头市","昆都仑区","昆区少先路16号街坊（友谊大街北侧、民族东路西侧）",40.660591,109.808310,40.644900,109.823376,1
"1502002011B01347","483660e5-d69a-4b67-90e6-607052c9f968","内蒙古","包头市","九原区","青山区兴胜镇王应基村",40.733248,109.984139,40.672400,110.043088,1
"1502002013B01659","7855639d-3a85-4625-bb33-7a84bf3f1fb9","内蒙古","包头市","昆都仑区","包头市职教基地内",40.662929,109.846544,40.545428,110.498000,1
"1502002013B00205","32d0f6e5-6d4c-4c44-9879-697355c5bcae","内蒙古","包头市","九原区","昆区昆北路以西、支路三两侧、昆北西路东侧",40.690979,109.849134,40.684192,109.836840,1
"1502002013B00211","59930616-b68a-4bfd-89ac-aa9d19dec999","内蒙古","包头市","昆都仑区","昆区民族西路以东、兵工南路以北",40.663445,109.837570,40.658836,109.825464,1
"1502212011B00197","96aee230-86ed-44b0-9dac-3b3c13df71d8","内蒙古","包头市","土默特右旗","萨拉齐镇车站街道北西区果园路东侧",40.580579,110.522214,40.555128,110.517368,1
"1502212008B00129-1","b6ee3d88-9b4f-4cca-acf4-9f6bdc819f8aA","内蒙古","包头市","东河区","萨拉齐镇工业路北侧",40.588267,110.041829,40.572992,110.519512,1
"1502212008B00210","70e9855e-c903-4865-8879-b9166fea0167","内蒙古","包头市","土默特右旗","沟门镇纳太村",40.603621,110.621436,40.597492,110.616096,1
"1502212014B00437","e80a8f22-ad9d-4eb4-a45e-1334507971cd","内蒙古","包头市","土默特右旗","沟门镇110国道南侧，东环路与110国道连接线东侧",40.602064,110.665581,40.618868,109.987000,1
"1502052014B00020","ae79ec46-1482-4891-a657-6c4d53505bc5","内蒙古","包头市","石拐区","石拐区大德恒办事处后营子村",40.678299,110.278381,40.670732,110.266376,1
"1502002014A02955","9d75ad32-26f3-474c-ac72-a0c9148f2490","内蒙古","包头市","青山区","滨河新区区间路以南、文昌路以东",40.637070,109.933988,40.656200,109.834528,1
"1502222010B00606","87fb97b8-8526-4f05-8e4a-20a273bdabea","内蒙古","包头市","固阳县","固阳县三叉路南",41.040163,110.066433,41.032400,110.054592,1
"1502222014B00260","6ea868bf-0fcf-434a-8d12-ac4ea64c1282","内蒙古","包头市","固阳县","固阳县金山镇新区A20-01（部分2）地块",41.013634,110.050832,41.005648,110.038408,1
"1502002012A01976","65581237-0170-4dc6-a1cd-c03cc0aa4dac","内蒙古","包头市","九原区","高新区滨河新区画匠营子水源地以南、黄河大桥以西",40.538684,109.922843,40.535352,109.933216,1
"1502222009B00156","62caa715-2f4e-4613-9989-6862c0fcb52a","内蒙古","包头市","固阳县","固阳县金山镇阿拉塔南街西侧",41.041378,110.068073,41.031160,110.056736,1
"1502232015B00123","707f964e-2fd1-4c24-9031-72c6ca5db7af","内蒙古","包头市","达尔罕茂明安联合旗","位于百灵庙镇百灵工业园区",41.807461,110.533131,40.659932,109.929688,1
"1502002012B00398","9380d7db-56d6-4272-a0de-cfdaa1652aed","内蒙古","包头市","昆都仑区","昆区少先路北侧、市府西路东侧",40.654691,109.841966,40.649740,109.824024,1
"1502002012A01796","bcc02203-06a4-48e8-86d6-2b7abf50c517","内蒙古","包头市","青山区","包头稀土高新区科技路以西，沼园南路以南",40.634700,109.870913,40.628732,109.837512,1
"1502212008B00195-1","69ce3124-0c93-4d5e-b43f-494c7528d9d1","内蒙古","包头市","土默特右旗","土右旗沟门镇高速公路北侧",40.588717,110.547926,40.656200,109.834528,1
"1502212016B00150","2d2bca92-387f-4455-b3e3-874afce44d68","内蒙古","包头市","土默特右旗","影院街北侧",40.565599,110.516683,40.557960,110.506096,1
"1502222010B00808","6c82383d-3306-4aed-8a91-c212e9677e0e","内蒙古","包头市","固阳县","固阳县新建南街",41.040163,110.066433,41.032400,110.054592,1
"1502232010B00050","3d93d197-febe-4b7c-984c-27135863049c","内蒙古","包头市","达尔罕茂明安联合旗","包头市达茂联合旗达尔罕苏木哈沙图嘎查",41.950806,110.769622,41.942508,110.756896,1
"1502212013B00217","63fdd753-8f91-455d-a9ed-6f8233d6f0b6","内蒙古","包头市","土默特右旗","海子乡杜守将村，科园大道以东，萨凉路以北",40.553267,110.645226,40.551676,110.632544,1
"1502002009B00668","6662260b-9b60-47c7-8ab5-157e0b17b202","内蒙古","包头市","昆都仑区","青山区友谊大街北(原联通铁塔院)",40.652241,109.836613,40.659900,109.929128,1
"1502062009B00092-1","816ab976-2f22-426a-9482-052aa9f4e892","内蒙古","包头市","白云鄂博矿区","白云鄂博矿区通阳道东，白云鄂博大街北",41.772849,109.975361,41.765432,109.962848,1
"1502002009B01328","b491d928-18d1-4ddd-a988-2d0d1eb9339f","内蒙古","包头市","九原区","九原区兴胜镇宏庆德村(110国道北侧,丹拉高速公路九原出口西侧)",40.671710,109.935599,40.685528,110.014088,1
"1502212011B00047","133aebcd-7d8b-4383-974b-334f5ec2d756","内蒙古","包头市","昆都仑区","萨秦公路北侧",40.662929,109.846544,40.656200,109.834528,1
"1502212009B00139-1","8dca331e-cec5-469f-85a4-59bdc66d11df","内蒙古","包头市","达尔罕茂明安联合旗","萨拉镇西新城区",41.775491,109.498914,40.561388,110.518200,1
"1502002013B01892","09ebdf5e-6208-429c-9848-f0936d47012e","内蒙古","包头市","东河区","东河区建设路以东、查干鄂博路以南",40.601626,109.993422,40.594760,109.981120,1
"1502232013B00327","cf1d228a-1ca3-4412-8fa2-0e45ec679a2e","内蒙古","包头市","昆都仑区","百镇草原洗浴南侧：原农牧队菜地北侧",40.662929,109.846544,40.652320,109.826656,1
"1502212016B00131","5fd74212-8c32-4f58-a81d-f92db6aa3591","内蒙古","包头市","土默特右旗","振华大街南侧",40.574915,110.530880,40.567152,110.525400,1
"1502212016B00140","622fd44f-1ae0-4311-8455-3de0b430851b","内蒙古","包头市","土默特右旗","振华大街北侧",40.574915,110.530880,40.656200,109.834528,1
"1502212016B00087","3c26a881-d4a6-4dc6-83ae-5ecd0ed060bd","内蒙古","包头市","土默特右旗","振华大街南侧",40.574915,110.530880,40.567152,110.525400,1
"1502052009B00048-3","a356c78e-8e9f-4e04-b563-e9b40be6fd21C","内蒙古","包头市","石拐区","石拐区五当召镇白草沟村",40.690250,110.261661,40.790616,110.307792,1
"1502222009B00246","88d10a80-8d67-4ec9-a25e-5d673e0b30d6","内蒙古","包头市","固阳县","固阳县金山镇阿拉塔南街东侧",41.041378,110.068073,41.022720,110.058376,1
"1502052018A00077","03811937-639c-4180-b26d-f67b2a2bf918","内蒙古","包头市","石拐区","石拐区大德恒办事处开洲窑子村",40.678299,110.278381,40.695432,110.267400,1
"1502062010B00038","c2738ce7-f650-4734-8a88-96f12e8b2f4a","内蒙古","包头市","白云鄂博矿区","白云矿区矿山技校南侧",41.780593,109.980215,41.773592,109.969704,1
"1502002016A00955","125870e8-2ef8-4801-ad5f-8c087e3d705a","内蒙古","包头市","九原区","滨河新区文昌路以东、区间路以南",40.580433,109.941675,40.656200,109.834528,1
"1502002015B00686","ce9408f2-655d-4395-b303-51a4e84e2396","内蒙古","包头市","九原区","滨河新区西区六路以北、西区一街以东",40.584457,109.912557,40.656200,109.834528,1
"1502212013B00010","aeb9f4db-9855-44b8-b616-5a052d81c0f8","内蒙古","包头市","土默特右旗","敕勒川大街西侧，工业大街南侧，东方明城东，",40.578795,110.544114,40.572312,110.528704,1
"1502052009B00089","17ad625e-0fc7-4293-8fb8-5cdede6ac6eb","内蒙古","包头市","石拐区","石拐区五当召镇白草沟村",40.690250,110.261661,40.790616,110.307792,1
"1502232009B00071","0f480f95-205b-4c6d-912b-440e42a1143c","内蒙古","包头市","达尔罕茂明安联合旗","包头市达茂联合旗百灵庙镇巴音敖包嘎查",41.706108,110.442441,41.698040,110.429584,1
"1502002010B00609","e14c3505-ef2a-4a96-a0dc-8086c61010af","内蒙古","包头市","青山区","青山公安分局南",40.658561,109.912660,40.650420,109.900776,1
"1502002018B00155","5b187139-2808-4042-b573-1cf2ccea8152","内蒙古","包头市","昆都仑区","昆区稀土大街以南、丰盈路以东、沼园西路以北、林荫南路以西",40.628017,109.831316,40.650300,109.794936,1
"1502002014B02376","9aa4fdb9-4412-4963-8574-a064eef594bd","内蒙古","包头市","九原区","高新区滨河新区机电园区",40.587090,109.915954,40.656200,109.834528,1
"1502002013B00305","0f76550d-6a51-4096-83e2-bbf58059c0fc","内蒙古","包头市","九原区","内蒙古华业特钢旧厂区内，纬三东街以北，纬四街南侧，经二路东侧，经一路西侧",40.629348,109.925535,40.682840,109.786088,1
"1502232013B00401","2cbab44e-d6ee-4006-9854-0ad3ecf08aaa","内蒙古","包头市","达尔罕茂明安联合旗","达茂旗百灵庙镇商业大楼院内",41.706039,110.446210,41.698000,110.433352,1
"1502002013B00777-1","1e12367d-28b6-471f-b988-dab056b149e5","内蒙古","包头市","昆都仑区","昆区团结大街北侧、民族西路东侧",40.676440,109.832707,40.668172,109.799160,1
"1502052010B00240","57699528-f21a-489c-8a88-1b8814132426","内蒙古","包头市","石拐区","石拐区五当召镇白草沟村",40.690250,110.261661,40.790616,110.307792,1
"1502002010B01829","007aa574-96ba-4bee-b7b6-8c42109c6d3f","内蒙古","包头市","九原区","稀土高新区稀土工业园内",40.575323,109.927369,40.599672,109.802712,1
"1502212015B00042","90e4d620-0760-41e9-907c-7d5a9a1eb24e","内蒙古","包头市","土默特右旗","萨拉齐城区，北起规划的纬三路，南至太平东街，东起东胜街，西至霍家园路",40.558913,110.527565,40.562248,110.527064,1
"1502212016B00174","8e6f276f-8ceb-48c0-9f8a-84615d6d0abf","内蒙古","包头市","土默特右旗","交通街北侧，站前街南侧",40.567733,110.532927,40.559324,110.519328,1
"1502002010B01407","4c08b7bf-da66-4f4f-9722-a3fd70ff1ed5","内蒙古","包头市","昆都仑区","昆区莫尼路北侧、昆北路西侧、阿吉奈道以东",40.676230,109.833894,40.684192,109.836840,1
"1502002010B01299","4c20b511-c507-4556-88d6-c15ad39d53b9","内蒙古","包头市","昆都仑区","昆区团21#街坊，三八路西、莫尼路南、昆河东路东、自力道南北两侧",40.680281,109.805181,40.666148,109.804136,1
"1502222009B00789","105fbec5-1466-485a-893d-8d39cb45b674","内蒙古","包头市","固阳县","固阳县金山镇阿拉塔南街东侧",41.041378,110.068073,41.022720,110.058376,1
"1502232018B00929","d5cf7b05-e82d-4322-932f-fbb38c6086f7","内蒙古","包头市","达尔罕茂明安联合旗","达茂旗查干哈达苏木那仁宝力格嘎查",42.110275,110.435872,42.104260,110.429408,1
"1502232018B00855","120fce9b-008d-424b-8296-5434722918f9","内蒙古","包头市","达尔罕茂明安联合旗","达茂旗百灵庙镇艾不盖街",41.704803,110.444089,41.695100,110.422928,1
"1502002009B00959","dcb50459-79ba-48bc-9624-de2996f3b153","内蒙古","包头市","九原区","九原区健康路8-9号街坊,新春街南,健康路东",40.604014,109.978687,40.597956,109.960944,1
"1502002015B00775-1","7a11a47f-277a-4c3e-a2db-e696a53442a4","内蒙古","包头市","青山区","劳动路以东、沼园东路以南",40.650303,109.881827,40.628584,109.868360,1
"1502212016B00016","333f8d3b-cf44-43db-888b-7cedb63d06d3","内蒙古","包头市","土默特右旗","土右旗萨拉齐镇土默特大街东侧、东二环路西、京包铁路北。",40.599422,110.571615,40.562352,110.513128,1
"1502052015B00046","44777863-b592-4ce0-9864-d662730de1ea","内蒙古","包头市","石拐区","石拐区大德恒办事处马场村",40.678299,110.278381,40.670732,110.266376,1
"1502232018B00475","5e92a333-77b4-4cc9-9393-a07bef67cbdb","内蒙古","包头市","达尔罕茂明安联合旗","达茂旗明安镇希拉朝鲁嘎查、莎茹塔拉嘎查",41.778743,109.754487,41.771092,109.741848,1
"1502212009B00473","37eb2389-7da5-49f8-82d0-899eb59795e4","内蒙古","包头市","土默特右旗","萨拉齐镇新区科技大街南侧",40.524329,110.542981,40.555128,110.517368,1
"1502232013B00520","ffe5cdef-5837-4beb-b136-e2801f85b12d","内蒙古","包头市","达尔罕茂明安联合旗","位于百灵庙镇大街（西口外）",41.807461,110.533131,40.580376,110.009552,1
"1502222009B00628","25cf8b1e-1051-42ed-acc7-2a8f86effa37","内蒙古","包头市","固阳县","固阳县",41.040163,110.066433,41.032358,110.054624,1
"1502002016B00152","c01fe014-4d28-4aaa-b07f-d14b0298fb7f","内蒙古","包头市","九原区","稀土高新区稀土园区经二路以南、纬三路以东",40.575323,109.927369,40.622452,109.918104,1
"1502212014B00084","becf8744-f9a4-448f-9cd3-fc51da3570a2","内蒙古","包头市","土默特右旗","东至敕勒川大街，西至欧美路，南至祥隆热力，北至科技大街",40.578795,110.544114,40.575108,110.528000,1
"1502212014B00096","cce78c50-0bc0-4892-a60c-366a2cc4c3dd","内蒙古","包头市","土默特右旗","东至敕勒川大街，西至欧美路，南至工业大街，北至祥隆热力",40.578795,110.544114,40.575108,110.528000,1
"1502212014B00060","6fdd9ffd-f647-4106-a962-c87979f5c48e","内蒙古","包头市","土默特右旗","东至诺宝龙悦城，西至文化西路，南至诺宝龙悦城，北至阿勒坦大道",40.588735,110.539373,40.578120,110.520480,1
"1502002013A00397","0a2e8804-a823-4edf-99a9-9165980c8d9a","内蒙古","包头市","昆都仑区","民族西路以东、兵工南路以北",40.663445,109.837570,40.658836,109.825464,1
"1502002014B02406","53b12d1f-2fd6-4e9c-b091-9ebb54a1b16b","内蒙古","包头市","九原区","滨河新区礼贤路东侧、秋实路北侧",40.567992,109.928443,40.560596,109.919880,1
"1502002008B00166","A3E3BA576C6E4AAFA638DF02DA602258","内蒙古","包头市","东河区","110国道726公里",40.581032,110.048421,40.656200,109.834528,1
"1502052009B00190","af2aaf19-fd31-4fd3-8777-9fcf6adbc196C","内蒙古","包头市","石拐区","石拐区大磁街道办事处十居委",40.716010,110.274262,40.694920,110.268240,1
"1502052009B00189","54f06808-fffa-4e3d-bc29-2656834e98be","内蒙古","包头市","石拐区","石拐区大磁街道办事处十居委",40.716010,110.274262,40.694920,110.268240,1
"1502002010B01684","790f0eca-d689-4af8-a3b8-afaf9dd586f9","内蒙古","包头市","九原区","滨河新区",40.584457,109.912557,40.586940,109.940904,1
"1502062014B00085","2b4e19ce-bc33-4957-8370-c9b27bef4da6","内蒙古","包头市","白云鄂博矿区","通阳道西，丁道衡路东，新开街南",41.772877,109.969455,41.765432,109.962848,1
"1502002014B02787","e0e3a5bb-3640-4b62-8773-055458669052","内蒙古","包头市","青山区","包头市青山区青山路8号",40.667482,109.913709,40.660032,109.902008,1
"1502222014B00155","731a8fe3-19db-4271-8476-5934e3b24252","内蒙古","包头市","固阳县","固阳县金山镇新区翠溪大街北侧、怀朔大街南侧",41.013634,110.050832,41.004660,110.041152,1
"1502232008B00067-1","317ac79b-78a1-4773-a044-2dc138215288A","内蒙古","包头市","达尔罕茂明安联合旗","达茂旗百灵庙镇种羊场",41.705509,110.442479,41.704480,110.428000,1
"1502002017B01038","155e6ecd-8a7e-47a9-9b95-fac2a3d47f6d","内蒙古","包头市","九原区","九原区三道沙河河槽以东、二0二铁路以南，四至为西至环安路",40.613397,109.969588,40.636872,109.963808,1
"1502212014B00360","382a48f4-2834-47aa-b793-85418d5ccb9e","内蒙古","包头市","土默特右旗","太平街南侧，东胜街东侧，大东街北侧，萨二中西侧，",40.563364,110.524992,40.562248,110.527064,1
"1502002015A00042","64d49ad4-f1e7-4236-bbfe-aba784c4a3da","内蒙古","包头市","东河区","东河区站北路南、工业路西",40.581279,110.022555,40.572300,110.014864,1
"1502232016B00390","41c651f2-ed6d-4fb0-bf9a-1658e94041e0","内蒙古","包头市","达尔罕茂明安联合旗","达茂旗百灵庙镇河东新区",41.705509,110.442479,41.704480,110.428000,1
"1502232012B00134","5e97a56e-89c9-44b7-928c-4751bdcb0390","内蒙古","包头市","河东区","百镇河东区北临伟七街",39.126626,117.261693,41.697688,110.432120,1
"1502002008B01733","b4f50873-a336-4ace-8f2a-45045660411d","内蒙古","包头市","九原区","幸福南路东，青工路南",40.622335,109.871990,40.639660,109.857096,1
"1502222015B00096","c701b0e6-3d3f-42dd-b041-10a98d92aad6","内蒙古","包头市","固阳县","固阳县金山镇旧区D1-02（部分02）",41.013634,110.050832,41.005648,110.038408,1
"1502212009B00382","836b657d-33df-4d73-b82f-cff903d34ee6","内蒙古","包头市","土默特右旗","萨拉齐镇西老藏营村西",40.564827,110.606322,40.557860,110.593280,1
"1502232009B00059","6f8a46ed-8934-456d-9472-8b0b3c17ed0e","内蒙古","包头市","达尔罕茂明安联合旗","包头市达茂旗明安镇",41.751806,109.643397,41.684052,110.446384,1
"1502002012B01159-1","85544ee8-bc3e-4eff-9969-4ed8ba24c7a9","内蒙古","包头市","昆都仑区","昆区阿尔丁大街面西侧、包头市种子管理站院内",40.632246,109.843512,40.672648,109.835640,1
"1502052014B00083","a718cbeb-6de5-44c7-b885-505904cb72d3","内蒙古","包头市","石拐区","石拐区大德恒办事处后营子村",40.678299,110.278381,40.670732,110.266376,1
"1502232013B00499","ab4a3a80-b733-4825-889b-9af9e314ca8c","内蒙古","包头市","达尔罕茂明安联合旗","百镇吉祥湾街（原木器厂院）",41.706858,110.451397,41.694172,110.456352,1
"1502232013B00131","751d2212-a1df-4acb-8c06-b14f30cb90cf","内蒙古","包头市","达尔罕茂明安联合旗","艾不盖步行街西街",41.537085,109.867415,41.529656,109.854992,1
"1502212009B00069-2","8711786f-c1c8-4f22-b806-7d076c57ce13A","内蒙古","包头市","土默特右旗","萨拉齐镇萨凉公路东侧",40.524329,110.542981,40.555128,110.517368,1
"1502232013B00427","e207ba0c-5323-45ca-8608-cec9e0064de7","内蒙古","包头市","昆都仑区","百镇新区英华酒店北侧",40.650213,109.816653,40.602896,109.960272,1
"1502232016B01341","88975589-960b-451f-b147-9f6c3f956574","内蒙古","包头市","达尔罕茂明安联合旗","达茂旗明安镇希拉朝鲁嘎查、呼格吉勒图嘎查",41.778743,109.754487,41.771092,109.741848,1
"1502002015B00496","f7999bab-d874-4481-89c0-4e92e9aa2641","内蒙古","包头市","东河区","东河区古城湾乡沟门村，丹萨高速公路北侧",40.578180,110.196723,40.566236,110.119464,1
"1502222009B00974","679b6100-f878-4d67-9e86-860a9a135c3a","内蒙古","包头市","固阳县","固阳县金山镇阿拉塔南街东侧",41.041378,110.068073,41.022720,110.058376,1
"1502222009B00308","00778faa-7115-44f3-9dd7-fbb12f9129e6","内蒙古","包头市","固阳县","固阳县金山镇阿拉塔be北街西侧",41.013634,110.050832,41.029048,110.058000,1
"1502222014B00058","d7876db4-9c3c-47e1-8d30-2aa9a9e016b1","内蒙古","包头市","固阳县"," 金山镇旧区D18-03地块",41.013634,110.050832,41.034060,110.051760,1
"1502002013B02246","b89089b9-1cbf-40f3-a9b3-c73456060caf","内蒙古","包头市","九原区","九原工业园区",40.613397,109.969588,40.615120,109.647304,1
"1502052012B00101","d3c07024-2747-419d-a97f-3c2b2a9d987f","内蒙古","包头市","石拐区","石拐区大德恒办事处马场村",40.678299,110.278381,40.670732,110.266376,1
"1502002012B00468","f612df26-27a5-4023-81f1-44619bf4fe47","内蒙古","包头市","青山区","青山区文化路南、赛汉路东、四道沙河西侧",40.670447,109.893734,40.662220,109.928160,1
"1502212016B00250","c1053c28-ded0-4051-87e2-402a70e7d2a2","内蒙古","包头市","土默特右旗","土右旗新型工业园区内东工业园区大街南侧，科园大道西侧",40.553267,110.645226,40.594400,110.624296,1
"1502212016B00267","b7bc3299-b41f-4e79-9bdd-3ede72db4f33","内蒙古","包头市","土默特右旗","美岱召镇何家圐圙村南侧，美将公路绕行道路东侧",40.596095,110.760812,40.586284,110.754280,1
"1502212009B00017","0555ab08-c5b7-4e14-86b6-26dd99be491c","内蒙古","包头市","土默特右旗","萨拉齐镇小袄兑一村120号",40.524329,110.542981,40.548100,110.557504,1
"1502222010B01010","4db199bd-30cc-4f62-a009-b5b5a3064c13","内蒙古","包头市","固阳县","固阳县光荣街东侧",41.034539,110.076297,41.032400,110.054592,1
"1502222010B01007","06223bdd-5450-4420-aa56-df9909be1092","内蒙古","包头市","固阳县","固阳县光荣街东侧",41.034539,110.076297,41.032400,110.054592,1
"1502232015B00164","793a1daa-7b78-4771-9830-57fbdab22009","内蒙古","包头市","河东区","河东区产品交易市场北侧、河东旧村东侧",39.126626,117.261693,40.910868,110.315536,1
"1502002014B02820","d2f9d9de-3246-46f9-9e1c-b47d825126ea","内蒙古","包头市","青山区","包头装备制造产业园区（二期）B2路南侧",40.667302,109.941667,40.659932,109.929688,1
"1502222009B00679","740c0e61-3ff8-4387-bf9a-f544aee41dec","内蒙古","包头市","固阳县","固阳县甲坝村",41.040163,110.066433,41.032400,110.054592,1
"1502002012B01501","90682a3d-f688-448f-85c5-f461ea3a3936","内蒙古","包头市","九原区","包伊公路以南、南绕城公路以北",40.615581,109.731354,40.599608,109.737352,1
"1502002013B00894-1","90272a8a-383d-4eb6-9fd0-1227ad80e4a6","内蒙古","包头市","昆都仑区","装备园区B3路南侧",40.662929,109.846544,40.568636,109.821592,1
"1502212014B00347","5c426d64-1514-4b26-a955-9f93a8ea46a0","内蒙古","包头市","土默特右旗","沟门镇威俊村，高速公路以北，东侧、南侧、北侧均为空地",40.590808,110.489542,40.588048,110.484832,1
"1502002011B00369","535242a3-6eec-4a48-900a-58748d5a7259","内蒙古","包头市","东河区","昆区三八路西侧，昆区环卫局院北侧",40.598265,110.023475,40.659420,109.800464,1
"1502222010B00548","f3c8e832-80d9-4dbf-8112-c14b37bf0610","内蒙古","包头市","固阳县","固阳县公圣南街",41.040163,110.066433,41.014788,110.055760,1
"1502232012B00109","fdeb08a2-ad5b-4e4b-9a31-62d3151c9b01","内蒙古","包头市","昆都仑区","达茂旗百镇稀土矿西侧",40.662929,109.846544,40.668560,109.836440,1
"1502002013B01314","7e5983b8-5e8b-4c15-ac54-3c101aff8296","内蒙古","包头市","石拐区","石拐区大德恒办事处后营子村、开州窑子村",40.678299,110.278381,40.670732,110.266376,1
"1502212011B00200","6c6b9eb7-b591-401b-829b-4d29fd085bbb","内蒙古","包头市","土默特右旗","土右旗海子乡杜守将村",40.496140,110.595867,40.503572,110.651376,1
"1502002010B01929","d41bff58-57ee-4593-a6fd-be2912da17a6","内蒙古","包头市","九原区","稀土高新区滨河新区",40.584457,109.912557,40.567120,109.914920,1
"1502002011B01104","4f8ebf1d-e62f-4011-bb70-7dd86eba1ecd","内蒙古","包头市","九原区","青山区110国道北侧、四道沙河西侧、环城铁路南侧",40.678542,109.932246,40.662220,109.928160,1
"1502002010B00836","dc86fd8f-b73c-4381-b4c9-f867f06d90a8","内蒙古","包头市","九原区","昆区阿尔厅北大街西，包钢疗养院西南，厂前路两侧",40.700546,109.849670,40.672648,109.835640,1
"1502002010B02006","6d99791e-88b8-4c5b-8fc1-2d821d3beacf","内蒙古","包头市","青山区","高新区昭潭东路以东、黄河大街以北",40.642038,109.868276,40.627404,109.837664,1
"1502002012B01963","8ba7bb61-63c1-4364-bf22-316a7b30b6cc","内蒙古","包头市","昆都仑区","昆区少先路北侧、民族西路西侧",40.658241,109.848483,40.649740,109.824024,1
"1502002012B00151","c2ef61e7-d414-4539-9ab0-456377bcf479","内蒙古","包头市","昆都仑区","昆区林荫南路以东、校园路北侧",40.628017,109.831316,40.622520,109.819248,1
"1502052015B00033","170fbdaf-129b-4246-871b-dbf26a1461c5","内蒙古","包头市","石拐区","石拐区大德恒办事处马场村",40.678299,110.278381,40.670732,110.266376,1
"1502222014B00197","f34bc454-d298-466e-8841-de708b343f9f","内蒙古","包头市","固阳县","固阳县金山镇新区A1-02地块",41.013634,110.050832,41.005648,110.038408,1
"1502052010B00187","d73857e0-0291-419d-b3f9-d8cf1211f78c","内蒙古","包头市","石拐区","石拐区五当召镇爬榆树村",40.690819,110.348327,40.681160,110.247728,1
"1502002016B00737","f399d40e-8218-461f-81a2-3a3fa7ab5f68","内蒙古","包头市","青山区","包头装备制造产业园区",40.667302,109.941667,40.659932,109.929688,1
"1502002011B00231","72a84427-e1f8-4894-9b41-783b7dc18158","内蒙古","包头市","东河区","工业路2号街坊（东河区环城路南，工业路东）",40.587559,110.043213,40.580380,110.030880,1
"1502232015B00114","ca550761-b7c2-45b2-9cd2-3e164c7e1f0d","内蒙古","包头市","固阳县","百灵庙至固阳公路8公里处",41.040163,110.066433,41.696460,110.425720,1
"1502222013B00247","0cb669db-24ff-4f8a-90f5-6dce5d30bbce","内蒙古","包头市","固阳县","固阳县党政大楼东侧",41.040163,110.066433,41.032400,110.054592,1
"1502002011B00399","0ce93754-c0e3-4fc5-b34d-29ddb13959e5","内蒙古","包头市","东河区","东河区第三医院北",40.599191,110.031482,40.574840,110.038016,1
"1502222014B00226","08375517-1d42-4844-8a18-e3665d379204","内蒙古","包头市","固阳县","包头市金山工业园区C2-01地块",40.982693,110.104686,41.024244,110.063536,1
"1502002013B01446","51041343-3752-4318-8feb-54d423907f27","内蒙古","包头市","昆都仑区","包头市职教基地内",40.662929,109.846544,40.545428,110.498000,1
"1502232017B00315","5ad839d0-1789-4a81-b771-6d76e5372019","内蒙古","包头市","达尔罕茂明安联合旗","达茂旗百灵庙镇西外环路西侧",41.705509,110.442479,41.704480,110.428000,1
"1502002011B00114","f164e440-2313-46d3-a29e-fec4961f31e6","内蒙古","包头市","东河区","东河区财神庙街北、榆树沟巷西",40.604301,110.035010,40.595484,110.018344,1
"1502002012B00387","03de42e0-a35f-4b4b-99aa-a63920f7e408","内蒙古","包头市","九原区","九原区哈林格尔街北、210国道东",40.613397,109.969588,40.600812,109.746624,1
"1502212009B00666-1","1091a7dc-b15d-4389-aab6-523e48eb4eb4","内蒙古","包头市","东河区","沟门镇北只图村110国道南侧",40.581032,110.048421,40.593764,110.553448,1
"1502002011B00700","079e88eb-033f-4b5d-838e-1b1d1a1be5a6","内蒙古","包头市","九原区","青山区文化路南侧、四道沙河东侧",40.678542,109.932246,40.662220,109.928160,1
"1502222011B00168-1","28338368-bc4a-4226-bd44-82ae9724cb81","内蒙古","包头市","固阳县","金山镇阿拉塔南街东",41.041378,110.068073,41.030592,110.057560,1
"1502222011B00080-1","25c6cfd1-32ae-44c7-b5fc-509b5afcfdb8","内蒙古","包头市","固阳县","金山镇阿拉塔南街东",41.041378,110.068073,41.030592,110.057560,1
"1502222011B00127-1","aea56465-0912-4d2f-8cd4-4923d7bd4cea","内蒙古","包头市","固阳县","金山镇阿拉塔南街东",41.041378,110.068073,41.030592,110.057560,1
"1502002013B02183","60948486-da68-45c8-bc21-60ab8a4c4c1f","内蒙古","包头市","昆都仑区","包头市职业教育园区内",40.662929,109.846544,40.656200,109.834528,1
"1502052014B00068","714db874-e22e-4934-b670-8e12954fd1a4","内蒙古","包头市","石拐区","石拐区大德恒办事处后营子村",40.678299,110.278381,40.670732,110.266376,1
"1502002013B00110","8137f0b7-4db5-4a54-a815-4e6bd680d3f6","内蒙古","包头市","昆都仑区","白云路西侧",40.690976,109.820551,40.615580,109.802032,1
"1502212011B00171","6c4881a4-0429-4de2-a473-f6f396d8c9d1","内蒙古","包头市","土默特右旗","土右旗明沙淖乡田家圪旦村",40.460100,110.400437,40.454736,110.392904,1
"1502002010B01369","2eb1ab8d-89e4-4cca-a723-5d9a5bff3c72","内蒙古","包头市","昆都仑区","昆区青年路9号街坊",40.669867,109.834574,40.661460,109.808864,1
"1502052009B00226","71a5aad5-c09a-4d67-9010-f2fc62646cf2","内蒙古","包头市","石拐区","石拐区大磁街道办事处十居委",40.716010,110.274262,40.694920,110.268240,1
"1502052008B00142","26c0244f-131d-4b04-946f-d336962a6e4c","内蒙古","包头市","石拐区","包头市石拐区白草沟村",40.690250,110.261661,40.682856,110.249304,1
"1502222008B00156","e20f29c6-356a-44e6-85e3-2b20cca9ec5d","内蒙古","包头市","固阳县","固阳县新建路南",41.022618,110.079149,41.032358,110.054624,1
"1502232016B00077","064ca2df-2fe2-4de6-9e2a-0ce2c4d5c2b0","内蒙古","包头市","达尔罕茂明安联合旗","达茂旗百灵庙镇解放街艾不盖小区",41.705509,110.442479,41.697912,110.437272,1
"1502002016B00777","55aaf53e-4127-4312-a27d-f7f38506c36b","内蒙古","包头市","青山区","稀土高新区稀土路以南、幸福南路以西、黄河大街以北",40.634700,109.870913,40.626184,109.860584,1
"1502232015B00046","e9b3fdec-be1c-4402-926c-3f3a4aa3ad5a","内蒙古","包头市","达尔罕茂明安联合旗","达茂旗百灵庙镇解放街（原汽车站）",41.705509,110.442479,41.697912,110.437272,1
"1502002017B01066","a548e707-496f-4fc0-9728-056e16ec337b","内蒙古","包头市","九原区","稀土高新区同官村规划路以东、六路以南、二路以西",40.614595,109.896058,40.628928,109.834120,1
"1502002014B02880","469c2b71-f047-41c2-8c1d-9a770f42723e","内蒙古","包头市","青山区","装备制造产业园区，青山路以南、奥林匹克公园以北",40.670143,109.939897,40.665736,109.891752,1
"1502002013B01160","ccbbd49d-eabe-448a-9e3a-2f40ad5f48d1","内蒙古","包头市","青山区","青山区沙河东路东侧、公园路西侧、康乐西路北侧",40.662533,109.962439,40.655508,109.947368,1
"1502212014B00262","c05e850a-73ea-48c0-a1f7-8ea01ba80eda","内蒙古","包头市","土默特右旗","沟门镇G6高速公路南侧，110国道北侧",40.602064,110.665581,40.568636,109.821592,1
"1502002014B02812","39714618-4e0e-433b-bc4d-ee34b6412acd","内蒙古","包头市","九原区","稀土高新区白云路以东、包兰铁路以南",40.606977,109.817986,40.628732,109.837512,1
"1502232016B00436","250f1268-0270-4984-b9a9-f7de54329572","内蒙古","包头市","达尔罕茂明安联合旗","达茂旗百灵庙镇女儿山街（当代豪庭南侧）",41.701390,110.450608,41.703920,110.429512,1
"1502222017B00335","f4ef4042-2d6f-48ce-8efc-8b0d16ffe7a8","内蒙古","包头市","固阳县","固阳县红泥井",41.349495,109.994320,41.343572,109.987016,1
"1502002012B01727-1","649dc9f5-2eb1-4e6a-92a8-0a48064402b1","内蒙古","包头市","九原区","稀土高新区滨河新区",40.584457,109.912557,40.567120,109.914920,1
"1502222015B00175","7021fcaa-f622-4430-8357-2450fd265ea9","内蒙古","包头市","固阳县","固阳县包头金山园区A8-02地块",41.040163,110.066433,41.024244,110.063536,1
"1502002017B01053","66fcd0e4-baad-4699-84a5-b3653afe81ac","内蒙古","包头市","东河区","稀土高新区同官村色楞湾路以东、六路以南、规划路以西",40.594700,109.992160,40.628928,109.834120,1
"1502232016B00406","66d5d298-4fcd-4513-9270-0339158ec7cf","内蒙古","包头市","达尔罕茂明安联合旗","达茂旗希拉穆仁镇哈拉乌素嘎查",41.288216,111.201351,41.282320,111.187000,1
"1502232016B01291","90d3b2cf-c510-45f5-b316-b21bda29845d","内蒙古","包头市","达尔罕茂明安联合旗","达茂旗乌克镇东河村、石宝镇红山村、石宝镇温都不令村",41.474222,110.733809,41.463612,110.712152,1
"1502002009B00948","125c2427-6ca0-4c19-b1db-6d5cda094f38","内蒙古","包头市","九原区","九原区健康路8、9号街坊,新春街南、健康路东",40.608691,109.977800,40.597956,109.960944,1
"1502222017B00317","e57a968c-6244-46aa-9bdb-c83aa7643816","内蒙古","包头市","固阳县","兴顺西镇",41.286588,109.990812,41.275148,109.982736,1
"1502232015B00213","1b2c7646-fcb6-4ca6-a3c0-1a0cd6a85f56","内蒙古","包头市","达尔罕茂明安联合旗","百灵庙镇红格塔拉村",41.807461,110.533131,41.650980,110.468672,1
"1502002016B01109","56650a0d-1cbb-494c-b53b-9b4d8e1bea40","内蒙古","包头市","青山区","新都市中心区建华路东侧、纬十九路北侧",40.645000,109.950789,40.639628,109.940616,1
"1502222013B00276","33e7d2fe-68c8-44ab-a8ff-8c6e02f52a2a","内蒙古","包头市","固阳县","固阳县兴顺西镇耳居兔村包白公路东侧",41.286588,109.990812,41.376220,109.957272,1
"1502212016B00330","9817d350-0386-4750-835b-9e22a0aad64f","内蒙古","包头市","土默特右旗","工业大街北侧，文化东路西侧",40.580512,110.533569,40.653020,109.901840,1
"1502232018B01007","6262d224-ba82-4949-b981-3ed7856553e8","内蒙古","包头市","达尔罕茂明安联合旗","达茂旗百灵庙镇呼恒乌拉街",41.701246,110.451662,41.704480,110.428000,1
"1502222011B00227","073ea106-59fd-4776-b6fd-11cd9c1dddcb","内蒙古","包头市","固阳县","固阳县怀朔镇香房村",41.215266,110.218061,41.209600,110.210592,1
"1502002014B02461","91b6b304-8105-4d09-aa57-3e93b72e7bd1","内蒙古","包头市","青山区","高新区曙光路东侧、站前路北侧",40.642038,109.868276,40.634660,109.875480,1
"1502212010B00329","501d5a89-b598-4a0f-a4e6-f80199508efd","内蒙古","包头市","土默特右旗","土右旗沟门镇110国道北侧",40.602064,110.665581,40.656200,109.834528,1
"1502222010B00976","a660f884-2928-4b11-af85-3deaffeb6b14","内蒙古","包头市","固阳县","固阳县光荣街东侧",41.034539,110.076297,41.032400,110.054592,1
"1502062008B00089","42b663dd-ee1b-4a54-a357-a430b5019aec","内蒙古","包头市","昆都仑区","白云区西北4公里处",40.662929,109.846544,40.729336,109.637888,1
"1502052014B00160","e43dbc84-5192-40e6-84a9-cdf9de3bdc89","内蒙古","包头市","石拐区","石拐区大德恒办事处后营子村",40.678299,110.278381,40.670732,110.266376,1
"1502002009B00658","5871d1e2-cc8f-4eff-974d-53e9c03de32f","内蒙古","包头市","九原区","九原区文明路6号街坊(原工商银行九原支行)",40.607009,109.972826,40.601908,109.961960,1
"1502002013B00014","0d6134db-7f7c-4ea9-9cf4-7302506a71b2","内蒙古","包头市","青山区","稀土高新区幸福南路以东、青工南路以北",40.634700,109.870913,40.656200,109.834528,1
"1502002009B00896","0b423263-b942-48ed-9f69-61a418acc3b7","内蒙古","包头市","九原区","九原区哈业胡同镇哈业脑包村",40.637341,109.490983,40.665384,109.686544,1
"1502002015B00636","930c7609-6e09-42aa-9bd2-994878f45233","内蒙古","包头市","青山区","装备制造产业园区（二期）A1路以西、B2路以北",40.670143,109.939897,40.659932,109.929688,1
"1502002009B00449","70acf63c-addc-47c3-8d5e-466ab521258e","内蒙古","包头市","青山区","沼园路南，劳动路西",40.650303,109.881827,40.611760,109.862416,1
"1502002013B00279","1f440db2-2af3-4af5-852d-d847416f059e","内蒙古","包头市","东河区","东河区东门大街南、东河槽西",40.600514,110.043396,40.592580,110.034200,1
"1502232013B00642","e9cad094-f2e1-4d71-9ea4-210000305183","内蒙古","包头市","达尔罕茂明安联合旗","石宝镇三合明村",41.368981,110.972906,41.361308,110.960000,1
"1502002018B00472","17ab2ccf-4fef-4e28-89aa-0b09e7871fe2","内蒙古","包头市","青山区","包头装备制造产业园区新规划区，B1路以北、B6路以东",40.667302,109.941667,40.659932,109.929688,1
"1502062018B00045","4f8f92b9-f511-4063-9887-4a2fe6917ba3","内蒙古","包头市","白云鄂博矿区","稀土大街南侧、铁矿棚户区东侧",41.774245,109.978181,40.681280,109.678360,1
"1502002009A01869","9b7aa0e3-341b-4822-a8ae-a51265fc9f66","内蒙古","包头市","九原区","高新区滨河新区",40.587090,109.915954,40.567120,109.914920,1
"1502002009A01793","802bd0a4-75ca-4d09-87d2-2ecdfd5f9bc0","内蒙古","包头市","九原区","高新区滨河新区",40.587090,109.915954,40.567120,109.914920,1
"1502232013B00590","8215c63d-b802-42d0-8a9f-ff3eba643bbd","内蒙古","包头市","达尔罕茂明安联合旗","位于百灵庙镇呼恒乌拉街",41.701246,110.451662,41.687200,110.441104,1
"1502212017B00164","f61c4480-42cb-4d24-a706-a1f51f30f6d2","内蒙古","包头市","土默特右旗","萨拉齐镇城南新区，霍家园路东，南环路南，敕勒川大街西，哈屯高勒大街北",40.550958,110.541501,40.543592,110.529232,1
"1502002007B01754","4a7b5989-7e62-4f27-ad12-9267f3ca18e8","内蒙古","包头市","九原区","稀土路北，幸福南路东",40.622335,109.871990,40.631216,109.868952,1
"1502232007B00193","9f0a7cc7-6611-4f91-bdd6-4769733c5eda","内蒙古","包头市","达尔罕茂明安联合旗","达茂旗石宝镇",41.362967,110.962986,41.360632,110.963856,1
"1502222007B00757","02e15db0-18b3-41d8-a7b1-f1d9e0d34ab4","内蒙古","包头市","固阳县","固阳县科教路",41.029009,110.067691,41.021128,110.054880,1
"1502232007B00139","08c56315-c17b-42f0-9b3a-f3334d8d442c","内蒙古","包头市","达尔罕茂明安联合旗","达茂旗百灵庙镇",41.705509,110.442479,41.600000,110.433504,1
"1502002017B00327","8c43a418-2a37-4ca7-8470-f174fdbc9234","内蒙古","包头市","东河区","东河区北梁腾空区，外环路东、西脑包后街南、规划路西、西脑包大街北",40.582228,110.050395,40.586280,109.990120,1
"1502222007B01779","0b6a2818-d78f-4a09-b166-054d379e7768","内蒙古","包头市","固阳县","固阳县农贸大楼",41.040163,110.066433,41.031428,110.056960,1
"1502222009B00419","3a2e870b-9057-4c4a-93fd-5349d3b2f96d","内蒙古","包头市","固阳县","固阳县旧城村委七份子村小组",41.040163,110.066433,41.008800,110.038360,1
"1502232007B00175","75310a25-336a-4e42-a81c-c8e10824e34d","内蒙古","包头市","昆都仑区","达茂旗明安镇巴润矿区",40.662929,109.846544,41.684052,110.446384,1
"1502212017B00029","b56ec251-598c-4e84-8970-4d0911e29157","内蒙古","包头市","九原区","美岱召高速出口引道东侧，110国道南2000米",40.567332,110.048421,40.604128,110.705544,1
"1502222009B00922","f622af19-61de-4c24-889b-b21e9eb70b8e","内蒙古","包头市","固阳县","固阳县金山镇建设西路南侧",41.013634,110.050832,41.005648,110.038408,1
"1502002017B00400","14e57d5f-7dbe-46e8-969d-62acb2fe0001","内蒙古","包头市","九原区","沼园东路以南、经二路以北、纬一路以东",40.632780,109.934162,40.621968,109.919680,1
"1502212017B00302","8529e70a-7cb1-4094-b756-9cd9425357e2","内蒙古","包头市","土默特右旗","将军尧镇三岔口村南，黄河大坝北侧",40.311352,110.938558,40.559700,109.612400,1
"1502002016B01097","a85f14f7-1e38-43c0-9c13-4e035e8dfcc4","内蒙古","包头市","九原区","稀土高新区稀土应用产业园",40.620009,109.898642,40.612900,109.886512,1
"1502232016B00130","d534478a-288b-4a09-a84c-4f1be5adea24","内蒙古","包头市","达尔罕茂明安联合旗","达茂旗百灵庙镇解放街",41.705509,110.442479,41.697912,110.437272,1
"1502222017B00160","698dd6d6-bd64-4981-a83c-b5ec8e777208","内蒙古","包头市","固阳县","固阳县金山镇广义魁村",41.013634,110.050832,40.997600,109.972760,1
"1502002009B01129","c88b9aad-8ddc-4566-bfd6-910c99c6cf20","内蒙古","包头市","昆都仑区","昆区团结小区",40.673436,109.832083,40.671952,109.815536,1
"1502222007B00778","f1366bd4-c563-44f3-80f2-dff378dc62f6","内蒙古","包头市","固阳县","固阳县金山镇阿拉塔街西侧",41.013634,110.050832,41.029048,110.058000,1
"1502002016B00449","521082e5-09f8-4ff8-a21e-89be767a2365","内蒙古","包头市","青山区","装备制造产业园区新建区青山路以南、公园路以北、新园路以东、清源路以西",40.670143,109.939897,40.659932,109.929688,1
"1502222009B00448","1bf53070-4baf-4be8-b47e-566d1fe85ba9","内蒙古","包头市","固阳县","固阳县忽鸡沟乡民胜村胜利壕村",40.949158,110.089645,40.948528,110.059712,1
