electr_supervise_no,id,province,city,district,location,bd_lat,bd_lon,tdt_lat,tdt_lon,flag
"4509242009A00037","d982f7fb-dfb5-47e8-82eb-cff663f9d182","广西壮族","玉林市","兴业县","兴业县石南镇七团村牛麻垌",22.743479,109.883246,22.740956,109.872440,1
"4509812009A00517","610948f7-c231-40b5-a52e-05f8371a9f91C","广西壮族","玉林市","北流市","清湖路9号（原农机公司用地）",22.724020,110.359039,22.639062,110.160008,1
"4509222009B00286","b6a6b6e7-a715-4921-bd3e-e1a5e9628db6","广西壮族","玉林市","陆川县","陆川县城万丈村付龙塘队",22.313366,110.264092,22.311780,110.252224,1
"4509812010B00439","0dd54ce2-55d3-43fa-9163-d4f874d48baa","广西壮族","玉林市","北流市","北流市六靖镇六靖村",22.261757,110.541307,22.256850,110.529248,1
"4509232010B01015","bdd6667b-e385-4026-aa2e-737fc2d83861","广西壮族","玉林市","博白县","博白县顿谷镇博海路031号",22.163874,109.781937,22.137310,109.787136,1
"4509222017B00700","b24bfedf-678c-4124-bdb4-9bb7549baa55","广西壮族","玉林市","陆川县","陆川县米场镇米场新街公路边",22.433880,110.259255,22.403990,110.255080,1
"4509232015B00545","21e81918-c7da-4620-8224-8a8f29278add","广西壮族","玉林市","博白县","博白县博白镇人民南路五里庙(原县物资局煤场)",22.247114,109.985763,22.248910,109.975440,1
"4509002012A00138","09de861a-ed71-4050-b47a-bb97eef260c0","广西壮族","玉林市","玉州区","玉林市玉东新区玉东大道西北侧",22.662983,110.216160,22.650370,110.183760,1
"4509232009B00140","3c4aa140-f420-47f5-9360-f9114fe8a64f","广西壮族","玉林市","博白县","博白镇人民南路(马头岭)",22.235979,109.979111,22.221384,109.960720,1
"4509002008B00271","80de91b6-2270-409d-813a-dd0abbe49218","广西壮族","玉林市","玉州区","玉林市江南区上曲轭塘村西侧，玉林市江南区南流江南侧、金港路西侧",22.601278,110.090173,0.000000,0.000000,1
"4509222008B00072","fefd1fe2-61dd-49bb-9750-74adef48d760","广西壮族","玉林市","陆川县","陆川县城三峰中路",22.316410,110.266826,22.313146,110.255816,1
"4509812008B00498","d21b9a5e-dbdb-4623-bcfd-4193d8b3d9cb","广西壮族","玉林市","北流市","六靖镇镇南村北宝二级公路西侧",22.277006,110.563674,22.274130,110.552840,1
"4509242011B00150","8bea8bbd-99d1-4b6c-8a83-55a8800bb479","广西壮族","玉林市","兴业县","兴业县大平山工业区（大平山镇大苏村路口）",22.665734,110.000559,22.661868,109.996768,1
"4509212012B00029","9a5c7d33-648e-4ce9-bdd0-2f13d534ce86","广西壮族","玉林市","北流市","容州镇平坡村",22.599010,110.266495,22.422958,110.198600,1
"4509002012A00097","dae22340-2705-4ed1-b772-7105a9d511e2","广西壮族","玉林市","玉州区","玉林市玉东新区阳光路与金榜路交叉口西北侧",22.662983,110.216160,22.650370,110.183760,1
"4509232013B00475","2faa575c-4cc0-41ae-894a-9ac401eb290f","广西壮族","玉林市","博白县","博白县英桥镇桥东路",21.931108,110.041447,21.901200,110.074240,1
"4509812016B00265","06589c27-139b-4279-af10-6e1df5718160","广西壮族","玉林市","北流市","城北区二环北路北面（原虎威公司用地）",22.732667,110.362483,22.729200,110.350544,1
"4509812017A00730","4bc5233d-6879-4242-ac28-71f6e7729e7c","广西壮族","玉林市","北流市","塘岸镇长塘村",22.639664,110.325097,22.636620,110.314104,1
"4509242011B00118","c00557b9-7284-428d-9583-d59d2be1c772","广西壮族","玉林市","兴业县","兴业县大平山工业区（大平山镇大苏村路口）",22.665734,110.000559,22.661868,109.996768,1
"4509232010B00097","89a690f2-9886-44b6-8cc0-d8be7abc4739","广西壮族","玉林市","博白县","博白县文地工业园",22.278675,109.982553,21.944008,110.191976,1
"4509232010B00086","fcbf0bf5-f327-4566-93ee-14290da9fa2bC","广西壮族","玉林市","博白县","博白镇城东工业园16号地",22.284831,110.007993,22.271128,109.986872,1
"4509222014B00519","1fbc5745-afb6-4668-bc63-0838fe509ab6","广西壮族","玉林市","陆川县","陆川县温泉镇中屯村",22.309686,110.249380,22.304272,110.243688,1
"4509002014B00370","5316c9af-46fc-4a30-8bcb-df007778f558","广西壮族","玉林市","玉州区","玉林经济开发区，纵二路与横四路交叉口东南侧",22.649041,110.205171,22.643734,110.160160,1
"4509002014B00190","b7d7c7ec-3659-4ada-8217-246d73d898ee","广西壮族","玉林市","玉州区","南江镇岭塘村",22.598077,110.188612,22.591308,110.181504,1
"4509812016B00304","456389c2-6bf8-49e3-bb2b-0806ab64cbca","广西壮族","玉林市","玉州区","市人民医院三门诊所西面",22.659831,110.188453,22.707750,110.339072,1
"4509002014A00650","dd5a7f68-ada0-4cb5-9d09-dc432cfb3125","广西壮族","玉林市","玉州区","玉东新区文体路南侧、玉东第一小学东北侧",22.668836,110.200828,22.650370,110.183760,1
"4509232010B00331","d5cb29ba-f2ee-4609-b2ff-b2fdebfff92f","广西壮族","玉林市","博白县","宁潭镇兴宁路068号",22.026647,110.137423,22.022700,110.128384,1
"4509222009B00212","4905befe-7bf8-4a92-a8a5-784172065f08C","广西壮族","玉林市","陆川县","陆川县城通政路北、政府大门西",22.327222,110.270456,22.044446,110.226304,1
"4509812013B00516","e44b4d28-6ab5-479d-a050-b8b8282ad1cb","广西壮族","玉林市","北流市","北流市岑兴高速公路引道与民乐至西埌公路交汇东南面",22.793099,110.318144,22.792028,110.320280,1
"4509002010B00458","9cfb2df8-002b-4495-afe3-ca70313e6fcd","广西壮族","玉林市","玉州区","玉林市福绵管理区福绵镇天河西路两侧地块三",22.579188,109.999899,22.609514,110.031752,1
"4509002016B00196","2316c009-6d07-447f-970c-4053559f7c0b","广西壮族","玉林市","玉州区","玉林市人民东路735号",22.639744,110.163580,22.641200,110.166992,1
"4509232010B00914","fbae8afa-9e5e-4b1b-8b21-0a7a3c96f698","广西壮族","玉林市","博白县","博白镇博龙花园城(粮油批发市场)",22.297754,110.004915,22.264420,109.975616,1
"4509812009B00279","4d8d80ec-7a60-45f4-8a00-af99bebd4d7fC","广西壮族","玉林市","北流市","北流市北流镇甘村玉容一级公路边",22.698696,110.326616,22.695658,110.315584,1
"4509222016B00634","ec7f88f8-3e88-402d-88c2-83a0c04f774f","广西壮族","玉林市","陆川县","陆川县横山镇稔坡村地块B06-05",22.213222,110.158104,22.237960,110.160976,1
"4509222016B00611","d80f2f4e-dd65-457c-be0e-94abc084e420","广西壮族","玉林市","陆川县","陆川县良田镇良田街地块北B-2-01",22.048349,110.233763,22.045662,110.222760,1
"4509222016B00526","59ce9aea-9bae-48f5-a6b0-572344b68caf","广西壮族","玉林市","陆川县","陆川县珊罗镇六燕村A－1地块",22.567473,110.186658,22.563496,110.185856,1
"4509232010B00734","92ae4fd1-1322-46c1-830b-1b39dbca5503","广西壮族","玉林市","博白县","博白县那卜镇东路019号",21.869384,109.918267,21.852820,109.916800,1
"4509812013B00409","25f8f13c-2d39-40de-9dce-78761a6a3725","广西壮族","玉林市","北流市","北流市城区新芝路0082号",22.711767,110.358120,22.709294,110.346776,1
"4509222014B00209","b281cbe7-1d27-4032-bfbc-07d6614293d7","广西壮族","玉林市","陆川县","陆川县温泉镇三峰东路以南",22.316296,110.277880,22.311818,110.266880,1
"4509242014B00222","7968cb1e-36a9-4047-a251-bc82af1c9b63","广西壮族","玉林市","兴业县","兴业县玉贵路东侧",22.745809,109.892943,22.739394,109.870960,1
"4509002011A00609","ce55f64e-cc33-4efc-b021-fcf669cac757","广西壮族","玉林市","玉州区","玉林市玉福路南面、玉公公路西面",22.609015,110.096343,22.270254,109.770304,1
"4509242016B00091","29d5aff1-3e2a-4279-baa7-4a17e8876418","广西壮族","玉林市","兴业县","兴业县沙塘镇镇区",22.930944,109.892931,22.923734,109.863592,1
"4509242014B00111","40b1519e-2001-4b1a-8c02-c43ede2f923e","广西壮族","玉林市","兴业县","兴业县城隍镇工业园区",22.631077,109.736709,22.602930,109.739704,1
"4509222014B00136-2","6bce8f64-8347-4a96-b913-c3d684b3b445","广西壮族","玉林市","陆川县","陆川县",22.327222,110.270456,22.323965,110.259757,1
"4509232011B00457","bf4cda4c-7c34-4dab-a809-4f2637982717","广西壮族","玉林市","博白县","博白县城区城东鹤木岭",22.278675,109.982553,22.276004,109.971992,1
"4509002015B00706","31aeca96-0716-441d-a5b2-c106a961df5d","广西壮族","玉林市","玉州区","玉林市人民东路398号",22.642448,110.171986,22.638920,110.160960,1
"4509002016B00310","3e9f41d3-c351-404b-a7f8-3c7f6adfb856","广西壮族","玉林市","玉州区","玉林市玉东新区石牛路与玉东大道交叉口东南侧",22.661952,110.192668,22.657094,110.183456,1
"4509002010B00010","846568a6-060f-486e-96cd-fa3afd5d87b0","广西壮族","玉林市","玉州区","玉林市海试区科技产业园（一期）玉梧公路东侧地块16",22.659831,110.188453,22.630790,110.146600,1
"4509232010B00036","301719c6-58b6-4ebf-ace8-9d1e2416f448","广西壮族","玉林市","博白县","锦绣东路南面",22.265563,109.996508,22.639062,110.160008,1
"4509232011B00220","90a453fb-00f9-448d-84c6-2ed944b54b7b","广西壮族","玉林市","博白县","博白县城规划40米人民南路的东面,规划60米玉山二级公司的北面(A地块)",22.235979,109.979111,22.266100,109.977784,1
"4509232015B00054","bdd5be1c-8a7e-4867-9808-51b0740b20fa","广西壮族","玉林市","博白县","博白县龙潭镇白树村(龙潭产业园)",21.680139,109.735295,21.676960,109.724840,1
"4509232015B00040","55f41a0f-8c23-4826-ae23-6612efb41edb","广西壮族","玉林市","博白县","博白县龙潭镇长岭村(龙潭产业园)",21.680139,109.735295,21.676960,109.724840,1
"4509222009B00661","c712645a-7faa-4d4d-ad1c-a78d74a9138e","广西壮族","玉林市","陆川县","陆川县温泉镇温泉东滨路东侧",22.328237,110.273028,22.324388,110.263752,1
"4509002018B01621","c34b760d-f8ab-4277-b5cc-54c16b042831","广西壮族","玉林市","玉州区","玉林市民主南路东侧、洛湛铁路南侧地块一",22.611725,110.184696,22.577920,110.184744,1
"4509812008B00102","f3ce041f-1d1a-4c56-8df4-865c5424cd20","广西壮族","玉林市","北流市","北流市城区城中路",22.706503,110.361087,22.711180,110.349688,1
"4509232011B00611","5a15c8b9-c810-4bfc-b8eb-afd3ff2a89b2","广西壮族","玉林市","博白县","博白县沙河镇河中路288号(B地)",22.074883,109.702907,22.063500,109.711792,1
"4509232011B00290","ea954ee4-0b14-4a7e-8509-c98f33831d2c","广西壮族","玉林市","博白县","博白县博白镇城东玉沙二级公路东面(博白县城东工业园22号B地块)",22.284831,110.007993,22.281840,109.996784,1
"4509242011A00122","169ba705-4557-4338-b189-7d3a4475cc04","广西壮族","玉林市","兴业县","兴业县城南区",22.742268,109.881552,22.775090,110.087576,1
"4509002010B00526","8665dea1-32b6-4224-b5f1-1ebe70f40a39","广西壮族","玉林市","玉州区","玉林市茂林镇泉塘村",22.662239,110.216661,22.656536,110.210920,1
"4509232010B01002","a7a9a00b-f61a-433d-a5ac-4e5a594b63fb","广西壮族","玉林市","博白县","博白县顿谷镇博海路031号",22.163874,109.781937,22.137310,109.787136,1
"4509222016B00887","2fa4b9d3-ba6b-4885-a739-3829c83e88c6","广西壮族","玉林市","陆川县","陆川县珊罗镇六燕村（鹤山村）D-06-02地块",22.567473,110.186658,22.563496,110.185856,1
"4509222014B00199","a967425f-8650-4d99-870f-a981471db9a2","广西壮族","玉林市","陆川县","陆川县温泉镇万丈村万丈铺东边",22.309436,110.266681,22.306140,110.255856,1
"4509222014B00221-1","1e13db16-9537-4d90-8b6c-32f630cdca09","广西壮族","玉林市","陆川县","陆川县温泉镇三峰东路以南、龙腾家园以西",22.315396,110.276641,22.311818,110.266880,1
"4509212013B00094","8c62b231-129c-4b4a-9d2e-b6b05ec24460","广西壮族","玉林市","容县","容县容西镇西山圩水井垌B5地块",22.806119,110.485584,22.321570,110.213000,1
"4509002012B00455","c9bf1857-477e-4fd2-acbd-dfd7d527d1b3","广西壮族","玉林市","玉州区","玉林市玉陆公路西侧",22.587209,110.189835,22.630440,110.158536,1
"4509002013B00623","bc08105c-525b-490b-bced-c958554dc64d","广西壮族","玉林市","玉州区","玉林市内环路东侧",22.633825,110.155610,22.639062,110.160008,1
"4509002012B00386","56222973-e31a-4ffa-850f-36a45450f66b","广西壮族","玉林市","玉州区","玉林市玉东新区玉东大道与金榜路交叉口南侧、东秀路与九岭路交叉口北侧",22.662983,110.216160,22.650370,110.183760,1
"4509222018B00898","8cb971d1-0e85-4ca5-b17d-98d07a2c174e","广西壮族","玉林市","陆川县","陆川县温泉镇三峰东路以南、龙腾家园以西",22.315396,110.276641,22.311818,110.266880,1
"4509002009B00306","809bb1f7-3dc8-4e96-b670-2eb66eb26a9d","广西壮族","玉林市","玉州区","玉林市江南区新民路北侧、城站路东面、万秀路两侧地块二",22.616679,110.163623,0.000000,0.000000,1
"4509232011B00449","90fd44bb-9170-4f02-ad52-629474c97b71","广西壮族","玉林市","博白县","博白县城区城东鹤木岭",22.278675,109.982553,22.276004,109.971992,1
"4509812014B00028","3434831f-849c-4d07-a14d-6986461e8771","广西壮族","玉林市","北流市","大伦镇城中路013号",22.714413,110.358923,22.300450,110.710776,1
"4509232009B00038","f7500597-f2fa-4bb0-97ee-7b2ab9fcaf61","广西壮族","玉林市","博白县","博白县三滩镇南昌路",22.188351,110.036965,22.276004,109.971992,1
"4509232015B00736","ac0c586a-8a1d-4d8d-9e6a-515c73df13e8","广西壮族","玉林市","博白县","博白县龙潭业园",22.278675,109.982553,22.146450,109.930240,1
"4509812018B00281","8844ae31-8722-484d-8da7-a2265b524e7e","广西壮族","玉林市","容县","民乐镇大容山林场",22.919779,110.428084,22.706070,110.331328,1
"4509002018B01349","cc220099-26cc-423a-8e7e-0847289cd564","广西壮族","玉林市","玉州区","玉林市金玉路西侧（地块二）",22.650674,110.184161,22.649944,110.169384,1
"4509222011B00217","6d289039-79a1-4444-bed7-1853bcb96ca7","广西壮族","玉林市","陆川县","陆川县城官田垌开发区",22.327222,110.270456,22.320634,110.285496,1
"4509222013B00900","5a45c197-6064-42d7-a296-5793620db1da","广西壮族","玉林市","陆川县","陆川县珊罗镇珊罗街",22.573251,110.232564,22.562886,110.224296,1
"4509002011B00333","e682ab1b-be6b-4679-8855-b7667efcc0f3","广西壮族","玉林市","玉州区","玉林市民主北路西侧",22.652994,110.155464,22.651354,110.143832,1
"4509812011A00040","8db0730e-7883-47c1-b37f-3a71e9d45861","广西壮族","玉林市","北流市","石窝镇永安街3号（原石窝供销社收购部用地）",22.257182,110.461453,22.860850,110.535840,1
"4509002008B00154","5daea93c-18a4-44d0-aa02-36142452f7aa","广西壮族","玉林市","玉州区","玉林市清湾江北部、塘步岭工业区以南、玉石公路西侧(玉林市城西工业区印刷城二期地块九",22.634820,110.113654,22.643796,110.106512,1
"4509212012B00046","1a2f8161-ff1c-4712-96e6-a8f086fe29ec","广西壮族","玉林市","容县","容县经济开发区华侨创业园B-5地块",22.863666,110.564530,22.609390,110.152744,1
"4509212012B00057","5d5053bb-540b-4402-b9c7-99d0f6b7bfa1","广西壮族","玉林市","容县","容县经济开发区华侨创业园B-6地块",22.863666,110.564530,22.609390,110.152744,1
"4509002010A00049","fbc1c900-f697-4a2b-8725-a8a7ac974eb5","广西壮族","玉林市","容县","玉林市玉公公路坡塘段东侧",23.060260,110.643205,21.996974,110.248632,1
"4509812017A00657","8b08d85c-793d-44be-9b36-53b47f899c7b","广西壮族","玉林市","玉州区","丛义八组安置留用地南面",22.659831,110.188453,22.687944,110.352776,1
"4509222018B00956","cac8dabf-238c-4614-8c8a-a0755daababe","广西壮族","玉林市","陆川县","陆川县乌石镇月垌街",22.263474,110.360597,22.224584,110.316112,1
"4509812013B00374","834c737a-4ef2-4732-9c20-33c6a6818f80","广西壮族","玉林市","北流市","西埌镇田心村甘新路南面",22.729445,110.290416,22.756174,110.279752,1
"4509242016B00015","e9a6105d-62a7-479d-96af-842c0c5382c6","广西壮族","玉林市","兴业县","兴业县卖酒镇",22.802549,110.055934,22.771550,110.077840,1
"4509812009B00111","20011de6-e5bb-4c54-8c39-5d024705f553","广西壮族","玉林市","玉州区","北流市城区一环路尾转盘附近",22.635931,110.173147,22.703930,110.335920,1
"4509812013B00336-1","aecf31be-f7de-44b1-88c3-9f67ac6ef1ea","广西壮族","玉林市","玉州区","三环西路与甘新路交汇处东南面",22.659831,110.188453,22.639062,110.160008,1
"4509002010B00117","992ac255-68b4-437d-994c-034f97997937","广西壮族","玉林市","玉州区","玉林市玉东新区，教育东路与文体路交叉口东侧",22.670536,110.195372,22.667472,110.183808,1
"4509222010B00069","c0701a04-fa8e-4452-8b7a-b38a0f175007","广西壮族","玉林市","陆川县","陆川县马坡镇马坡火车站",22.498482,110.194658,22.494540,110.218328,1
"4509002015B00277","b61b4bd5-b740-4acf-b7eb-c129a8cf810c","广西壮族","玉林市","玉州区","玉林市玉容公路南侧",22.659831,110.188453,22.854700,110.540960,1
"4509232010B00746","8289a053-9efb-4a6f-9b0e-16a3fbea2729","广西壮族","玉林市","博白县","双旺镇双旺街037号",21.801589,109.832400,21.798322,109.821720,1
"4509232011B00635","06870d22-3975-425e-80f6-f22179f882cc","广西壮族","玉林市","博白县","博白镇城东工业园18号B地块",22.284831,110.007993,22.850800,110.545384,1
"4509812008B00031","e094c0c8-135e-4d9a-80df-4cff82d9449c","广西壮族","玉林市","北流市","北流市城区黑泥塘玉容一级公路辅道边",22.691332,110.363459,22.688272,110.352352,1
"4509812016B00110","52c1a29b-ad19-4ba9-852f-48587e09f59d","广西壮族","玉林市","玉州区","工业区小学对面",22.659831,110.188453,22.730000,110.346808,1
"4509212016B00701","3829bd95-0805-4c9a-87bd-404cb332e3ca","广西壮族","玉林市","容县","广西瑞浩投资有限公司东侧（容县高峰板厂北侧一#地块）",22.863666,110.564530,22.640000,110.166128,1
"4509222013B00895","d05333ec-945f-4226-a46b-65951bf7f633","广西壮族","玉林市","陆川县","陆川县城三峰东路以南、龙腾嘉园小区以西",22.315418,110.278079,22.310000,110.267056,1
"4509222013B00997","52cce15b-979f-4e9d-a9f3-51566dfee159","广西壮族","玉林市","陆川县","陆川县城碰塘开发区",22.327222,110.270456,22.326272,110.257288,1
"4509222017B00795","5b4fa41c-1007-43d2-9b03-f0a2077732a2","广西壮族","玉林市","陆川县","陆川县滩面镇滩面村地块A",22.110948,110.223314,22.107050,110.212400,1
"4509212016B00081","d2c7ed31-0493-4ae2-a94d-9f925d4bd396","广西壮族","玉林市","容县","石寨大华村王容塘东侧",22.825803,110.549462,22.820186,110.543640,1
"4509232016B00932","5cf39673-216a-46e6-8d1a-8f71c193d1bd","广西壮族","玉林市","博白县","博白县沙河镇沙河村",22.067247,109.721752,22.063980,109.711184,1
"4509222009B00386","b9dae0f9-c941-4c08-847f-a984590e2549C","广西壮族","玉林市","陆川县","陆川县城城东新区九州路南边、二级路西边",22.327222,110.270456,22.309452,110.256336,1
"4509232013B00124","8dd981b5-a3a9-479b-85e2-86e44c97a4d1","广西壮族","玉林市","博白县","博白县东平镇桂南农场农业队",22.008010,109.824480,22.013600,109.765264,1
"4509812015B00307","afdc3a68-9b53-43a3-a055-950a200dc28a","广西壮族","玉林市","北流市","民乐镇南庆村东荣羽毛制品厂西面",22.784990,110.362169,22.574090,110.118792,1
"4509812018B00094","c6869915-9684-4a85-8a32-c56facc6e005","广西壮族","玉林市","北流市","荔枝场新区碧桂园小区东面（城南生态新城）",22.215614,110.430489,22.212174,110.419400,1
"4509812018B00035","b123e78b-774e-4707-8566-259fed796dc2","广西壮族","玉林市","北流市","西埌镇神达兽药厂西南面",22.808120,110.298982,22.617960,110.123280,1
"4509812018B00049","9867fd60-6476-4fea-aea5-f752a908de31","广西壮族","玉林市","北流市","西埌镇田心村向东组林地北面",22.729445,110.290416,22.696300,110.347800,1
"4509232009B00330","987270a5-4286-499d-8a78-684fe57ebbb7","广西壮族","玉林市","博白县","江宁镇长江村山肚坡",22.188335,109.642399,21.875520,109.931192,1
"4509242015A00066","a603f545-a5cc-4dd6-8d12-3fbae1566f72","广西壮族","玉林市","兴业县","兴业县蒲塘镇区运美站东侧",22.925866,109.971765,22.909770,109.962416,1
"4509002013B00571","dc67409e-3c07-4986-91a7-786e7e0284b4","广西壮族","玉林市","玉州区","玉林经济开发区，胜利路北面，纵五路西侧",22.638898,110.179976,22.643734,110.160160,1
"4509002010B00576","2dd5c4e9-25dd-4bf6-bc4f-d7c28e8897e9","广西壮族","玉林市","玉州区","玉林市经济开发区纵一路（暂名）东侧、横六路（暂名）南侧",22.638726,110.204365,22.634514,110.191944,1
"4509812011B00536","2974542d-a191-4da9-997e-75e35f5f2d5a","广西壮族","玉林市","北流市","北流市城区独石湖公园南面",22.729214,110.361125,22.726670,110.348088,1
"4509002013B00107","241368fc-9b56-4833-96e2-2e675a86eacb","广西壮族","玉林市","玉州区","玉林经济开发区，纵二路与胜利路交叉口东北侧地块七",22.638898,110.179976,22.643734,110.160160,1
"4509002013B00157","2aa2f304-80b9-480b-a97c-e57b81ce1ab3","广西壮族","玉林市","玉州区","玉林经济开发区，纵二路与胜利路交叉口东北侧地块六",22.638898,110.179976,22.643734,110.160160,1
"4509002011A00417","e3c37eca-08e8-446a-a673-a97e6043406c","广西壮族","玉林市","玉州区","玉林市玉东新区茂林镇政府西南面",22.662983,110.216160,22.661770,110.204280,1
"4509212008B00161","ae416efa-ef19-41d4-baff-b9d8cf474a94","广西壮族","玉林市","容县","容州镇河南狗虱岭中发汽车修配厂西侧",22.877733,110.515697,22.850790,110.547000,1
"4509212013B00089","c4f2fb85-6636-4414-85d6-bd51a40f7d6c","广西壮族","玉林市","容县","容县容州镇中环西路城北净水厂东北侧地块",22.866987,110.548417,22.862710,110.551728,1
"4509812016B00249","8c62ae71-58bf-443a-8a79-80013942b078","广西壮族","玉林市","玉州区","玉林高新技术产业开发区横三路东北侧",22.659831,110.188453,22.654460,110.195384,1
"4509002016B00346","71c91c9a-dbcd-43ce-81c7-8433799623ab","广西壮族","玉林市","玉州区","玉林市玉州区大北路493号",22.640253,110.138569,22.637020,110.127704,1
"4509242014B00215","3e02f699-5994-4875-be97-aba2e20c0a67","广西壮族","玉林市","兴业县","兴业县城南区兴业大道南侧（B-16地块）",22.739994,109.885752,22.738300,109.877536,1
"4509212012B00017","2eeb05a7-660e-45bc-8d4d-3684dc8487b0","广西壮族","玉林市","玉州区","广西雅视科技有限责任公司北侧",22.659831,110.188453,22.652670,110.179904,1
"4509222012B00277-1","793c55d9-9191-40f4-83dc-e51bb5fbbe98","广西壮族","玉林市","陆川县","陆川县珊罗镇六燕村N地块",22.567473,110.186658,22.563496,110.185856,1
"4509002009A00380","4ad29940-b0d9-4939-983f-d0e1205f1f24","广西壮族","玉林市","玉州区","玉林市玉东新区秀水路东侧",22.662983,110.216160,22.665890,110.209560,1
"4509222014B00440","dc9e9fdb-2c40-43cd-b990-886f9b5c34ff","广西壮族","玉林市","陆川县","陆川县城龙豪区西环路",22.327222,110.270456,21.945502,110.290280,1
"4509002018A01912","9ae54f41-3463-4860-80e6-8bd44d22596c","广西壮族","玉林市","玉州区","玉林市星火路与沂山路交叉口西南侧",22.649126,110.149529,22.645792,110.138424,1
"4509002008B00506","4f02e789-5a3e-4dd4-86ea-bd7477577b14","广西壮族","玉林市","玉州区","玉林市江滨路北侧（原南门塘）",22.628505,110.172153,22.625020,110.161600,1
"4509002018B01849","2431f51b-a34b-4dce-bb75-ac4e4357d18c","广西壮族","玉林市","玉州区","玉林市福绵区樟木镇中村（地块十）",22.524043,110.022703,22.539796,110.063192,1
"4509242015B00091","1e1b8f39-a68d-4f33-a287-db21d8c9a555","广西壮族","玉林市","兴业县","兴业县石南镇高速引线西侧富阳路口",22.747625,109.882255,22.744870,109.871488,1
"4509212016B00725","f49b26f8-df3b-4ff2-b306-6bf13b8512db","广西壮族","玉林市","容县","灵山镇松岭塘昌瑞新城地块三",22.641527,110.605049,22.650910,110.585520,1
"4509002010B00829","ac4e8c39-c8dc-442a-8292-45f7c5dd4d99","广西壮族","玉林市","玉州区","玉林市福绵管理区福绵镇福西村委北面地块三",22.590907,110.066155,22.583980,110.042360,1
"4509212015B00297","a6115de5-c6de-480c-83f2-ff8e8cbfaa64","广西壮族","玉林市","容县","容县公安局交通管理大队西侧",22.857790,110.556189,22.981160,110.441256,1
"4509232013B00270","13a55bc7-aa69-41a5-9042-be27fa77e693","广西壮族","玉林市","博白县","博白县沙河镇河中路064号",22.074883,109.702907,22.063500,109.711792,1
"4509002014B00642","ad24f557-373f-41e3-9f05-e3a470c4e9ab","广西壮族","玉林市","玉州区","玉林市玉东新区秀水路与九岭路交叉口南侧",22.662983,110.216160,22.665890,110.209560,1
"4509002011B00827","23fb3879-9168-4b0e-a6bb-ed8d9324441f","广西壮族","玉林市","玉州区","玉林市玉东新区，文体路与九岭路交叉口南侧",22.662983,110.216160,22.650370,110.183760,1
"4509002010B00548","89276660-01fa-411f-8d91-c7b4113b34a0","广西壮族","玉林市","玉州区","玉林市苗园路南侧",22.608249,110.163259,22.606558,110.155816,1
"4509002014B00135","69d6e81e-98e9-45f2-a001-6683d3917ea5","广西壮族","玉林市","玉州区","玉林市城站路90号",22.620046,110.163000,22.616520,110.152040,1
"4509212013B00040","6bfa9d8b-a4c2-4b1a-83a3-0bc83297ba1c","广西壮族","玉林市","容县","容县容城电站东侧（原万力纸厂）A1地块",22.863666,110.564530,22.150308,109.552320,1
"4509212013B00032","6f85b833-9357-4207-a5c4-1e03b23ab020","广西壮族","玉林市","容县","容县经济开发区广西盛世鸿霞玻璃钢制品有限公司西南侧地块",22.863666,110.564530,22.631860,110.115184,1
"4509222016B00282","a2133db7-bfde-4c03-8519-9f30c708c584","广西壮族","玉林市","陆川县","陆川县古城镇盘龙街",21.957043,110.325098,21.940170,110.341664,1
"4509812009B00527","14e7fe08-bde3-437a-a5a4-52afb36f6a73CC","广西壮族","玉林市","北流市","广西北流市荔枝场",22.215614,110.430489,22.212174,110.419400,1
"4509222009B00085","e6ca0d38-9373-45b1-b74b-202f370a395c","广西壮族","玉林市","陆川县","清湖镇清湖街",22.038913,110.352570,22.033650,110.343728,1
"4509812011B00707","bdd5e5ea-21a3-4321-8e8a-1a8a0143893e","广西壮族","玉林市","永丰县","城区永丰一区24号（原特殊学校）",27.324342,115.447402,22.640640,110.155088,1
"4509222009B00163","ea79f1c6-c3fe-4413-bafa-1456557aa2a6","广西壮族","玉林市","陆川县","陆川县米场镇米场街东路10号",22.409517,110.265202,22.403990,110.255080,1
"4509002014B00098","be0eab30-1174-46d1-84cd-4cb48d9e44ca","广西壮族","玉林市","玉州区","玉林市玉东新区石牛路与玉东大道交叉口东南侧（地块A）",22.661952,110.192668,22.657094,110.183456,1
"4509222013B00606","77994c39-cb2f-43d4-a69d-1ec4a4e5f34a","广西壮族","玉林市","陆川县","陆川县乌石镇乌石新街",22.201522,110.335519,22.165714,110.232624,1
"4509002009B00509","35e68810-3822-45dd-bb8c-85e923213211","广西壮族","玉林市","玉州区","玉林市城东新区，为民路与文体路交叉口北侧",22.660184,110.187661,22.646980,110.148600,1
"4509002017B01119","19a01348-1a50-407b-85b4-ecdb93ba92da","广西壮族","玉林市","玉州区","玉林市玉州区岭塘工业小区",22.634493,110.157431,22.685916,110.173696,1
"4509002018B01494","c9a82cab-f0d6-4b3d-8699-a7549ef64a6c","广西壮族","玉林市","玉州区","玉林市民主南路东侧、洛湛铁路南侧地块三",22.611725,110.184696,22.577920,110.184744,1
"4509002018B01457","bc2345fb-f426-42b3-b102-aabaccf8222a","广西壮族","玉林市","玉州区","玉林市二环东路东侧、玉北大道北侧",22.669299,110.236365,22.668124,110.231176,1
"4509002010B00552","727e6b7d-e794-4ef6-867c-a4fb42d4c400","广西壮族","玉林市","玉州区","玉林市苗园路南侧",22.608249,110.163259,22.606558,110.155816,1
"4509812010B00580","29f9fe20-d3e5-4711-88de-f02a49d750e9","广西壮族","玉林市","玉州区","民乐会众高速公路引道西面",22.659831,110.188453,22.783808,110.324848,1
"4509232014B00184","ccca153b-bd12-456b-b117-eff14ef67407","广西壮族","玉林市","博白县","博白县龙潭镇白树村（玉林龙潭产业园）",21.679587,109.736058,21.676960,109.724840,1
"4509002009A00146","d3acdcb0-ab84-45bd-bb77-3373cab464d5","广西壮族","玉林市","玉州区","玉林市海达开发区五区、广场东路西南面",22.653165,110.180049,22.642452,110.169832,1
"4509222009B00751","8206481c-5317-436d-b988-08ac3797b5a0","广西壮族","玉林市","陆川县","陆川县珊罗镇六燕村",22.567473,110.186658,22.564110,110.175712,1
"4509232011B00040","1c3221d3-ce3e-4efd-893d-da94f3f713c3","广西壮族","玉林市","博白县","旺茂镇南街(老政府所在地)",22.097480,109.923543,22.857510,110.549248,1
"4509232011B00089","79213d7b-f423-4026-9a6b-b369b216fe7e","广西壮族","玉林市","博白县","旺茂镇南街(老政府所在地)",22.097480,109.923543,22.857510,110.549248,1
"4509242009B00013","8f8f8814-70bc-438c-b203-386e5b4c5459","广西壮族","玉林市","兴业县","兴业县山川垌政府住宅B区",22.742268,109.881552,22.744800,109.879152,1
"4509002011B00589","df75946d-210f-4a90-9439-38b1092f6ae5","广西壮族","玉林市","玉州区","玉林市玉东新区，经济开发区南区、二环南路北侧、民主南路东侧地块一",22.588268,110.157438,22.577920,110.184744,1
"4509002008B00035","e6d0f8f4-04f5-421a-ad0a-cd98d4e43b23","广西壮族","玉林市","玉州区","玉林市江南区新民路北侧城站路东片地块三",22.616679,110.163623,0.000000,0.000000,1
"4509232014B00195","4cc72e60-8fde-407e-80a3-0ffac368cf8c","广西壮族","玉林市","博白县","博白县县城区绿珠大道农贸市场南面",22.256819,109.990489,22.265580,109.976096,1
"4509002009B00269","ee454ecd-37c9-4b4a-879e-db74fe7ddb01","广西壮族","玉林市","玉州区","玉林市福绵管理区福绵镇下枥村,玉福路南侧",22.609015,110.096343,22.639062,110.160008,1
"4509002009A00118","4260998f-ee23-4bf2-8412-471556447a9a","广西壮族","玉林市","玉州区","玉林市福绵管理区玉福路西北面",22.609015,110.096343,22.471250,110.078680,1
"4509232011B00567","635b42f0-625b-4498-a1b1-785ed9f369b0","广西壮族","玉林市","博白县","博白县博白镇南州北路东面(原北新路商标印刷厂)",22.279695,109.985337,22.277352,109.974328,1
"4509812018B00310","432445e7-aed8-473d-a4a4-e58b2e18c898","广西壮族","玉林市","北流市","民安镇高车村石桥头组东面",22.784729,110.442805,22.735172,110.719032,1
"4509002017B00970","017d399a-c1f7-456c-93f0-d5698b0d4fcf","广西壮族","玉林市","玉州区","玉林市玉州区仁东镇木根村",22.634174,110.080817,22.622426,110.079696,1
"4509222012B00417","150f93ce-0aef-4a14-a6ea-1d31cacdef42","广西壮族","玉林市","陆川县","陆川县城官田垌开发区",22.327222,110.270456,22.320634,110.285496,1
"4509242008A00037","a28d2b67-0b6d-478a-8642-6a91303ec6a1","广西壮族","玉林市","兴业县","兴业县环城小区",22.742268,109.881552,22.739394,109.870960,1
"4509232018B00079","16434e67-1b2b-402e-b363-79bf05203ee6","广西壮族","玉林市","博白县","博白县旺茂产业园",22.278675,109.982553,22.169150,109.868240,1
"4509002010B00066","ca0cedd8-2bb1-4c14-ad29-bcd6db2a81c8C","广西壮族","玉林市","玉州区","玉林市教育中路45号",22.651602,110.173856,22.648090,110.163000,1
"4509212017A01209","3689be71-557a-46d5-ab51-0ae423575812","广西壮族","玉林市","容县","容州镇东光村",22.865361,110.564167,22.862430,110.553392,1
"4509212017A01484","24214d18-4b76-4b64-a636-9ecf3b907d37","广西壮族","玉林市","容县","容州镇泗登村",22.882704,110.573097,22.877368,110.567408,1
"4509212017A01415","63683af1-2ec2-47ea-bf58-41e1fda85184","广西壮族","玉林市","容县","容州镇大明村",22.899488,110.560455,22.893818,110.554600,1
"4509222015B00466","71b99144-98ae-48de-8f75-76d2398ca1aa","广西壮族","玉林市","陆川县","陆川县米场镇蚁岭马盘二级公路边",22.433880,110.259255,22.403990,110.255080,1
"4509222018B01015","e0d565b2-f6fc-47d9-aeb1-40b9cfb3e2e4","广西壮族","玉林市","陆川县","陆川县温泉镇官田垌开发区",22.330521,110.281446,22.321620,110.263704,1
"4509812009B00085","425cf37d-7ed5-4985-bbf0-f8aec8d296dd","广西壮族","玉林市","北流市","北流市城北路不干窝原农贸市场",22.721245,110.351148,22.711180,110.349688,1
"4509812009B00108","d53bce36-89fe-4784-8229-5684b0341c88","广西壮族","玉林市","玉州区","北流市城区一环路尾转盘附近",22.635931,110.173147,22.703930,110.335920,1
"4509812009B00079","681c5def-4179-4945-9767-305a1b4df0f2","广西壮族","玉林市","北流市","北流市城区红云酒店西面",22.711869,110.353924,22.708960,110.342680,1
"4509222014B00468","368ede49-8edf-4c3e-8382-f6cfc927216f","广西壮族","玉林市","陆川县","陆川县温泉镇西滨路",22.325278,110.270580,22.320128,110.263624,1
"4509242011B00141","58e9f7e4-0d98-49d7-ade9-c1583eb75620","广西壮族","玉林市","兴业县","兴业县城南区兴业大道南侧（B-23-03-01地块）",22.739994,109.885752,22.738300,109.877536,1
"4509812013B00029","7686e820-4f29-4c3a-9cb7-329a6f962efa","广西壮族","玉林市","北流市","北流市城区花果山",22.712235,110.351452,22.711180,110.349688,1
"4509812013B00057","5508b5a5-529a-43bd-b6f4-085a4abdf2f0","广西壮族","玉林市","玉州区","城区沿江南路0009号宗地北面",22.625222,110.159917,22.708410,110.351960,1
"4509222014B00396-1","8a38ce99-ff8a-40f1-af06-530c974565e3","广西壮族","玉林市","陆川县","陆川县城中新区九龙路南侧",22.327222,110.270456,22.321620,110.263704,1
"4509812012B00365","12de9805-30ea-4dc2-b5cd-e1b6a8f9cd29","广西壮族","玉林市","玉州区","城区二环北路石围肚(原第二水泥厂用地)",22.666737,110.166545,22.699604,110.289400,1
"4509222008B00044","46413cb9-b6a0-4e43-be6f-fee2f49565b0","广西壮族","玉林市","陆川县","陆川县沙湖乡新街村",22.365059,110.191530,22.348420,110.289704,1
"4509232013B00074","066ccf58-88d5-48a8-b9c4-cf1b0c0cfd64","广西壮族","玉林市","博白县","博白县文地镇文地村(工业园8号地块)",21.955782,110.208659,21.952670,110.197728,1
"4509242012B00127","133d9bef-a80c-48f5-84e8-657c18677dd9","广西壮族","玉林市","兴业县","兴业县城东区（县工商局对面）",22.742268,109.881552,22.739394,109.870960,1
"4509222015B00746","fcc3aef4-975a-4a7a-8974-3dae631b9125","广西壮族","玉林市","陆川县","陆川县城远辰大道以东A-16地块",22.327222,110.270456,22.321620,110.263704,1
"4509222016B00516","e5e213ff-9983-48a6-b3c5-b4750c3b4d48","广西壮族","玉林市","陆川县","陆川县城官田垌开发区（官田加油站以东、规划20米道路南侧）",22.327222,110.270456,22.320634,110.285496,1
"4509232012B00189","8f6c717a-581f-48b6-b899-504ee8744d06","广西壮族","玉林市","博白县","博白县县城城东大道东面",22.278675,109.982553,22.254846,109.983832,1
"4509002015A00725","1a6030cb-9873-4127-808e-91ccd0a14b3a","广西壮族","玉林市","玉州区","玉林市福绵区玉福路东侧福绵村大江垌",22.609015,110.096343,22.583020,110.053616,1
"4509002013B00490","671aaf2c-7723-46d2-a717-964522baac54","广西壮族","玉林市","玉州区","玉林市玉州区城西街道庆丰开发区庆丰路南侧",22.641295,110.134733,22.637170,110.125984,1
"4509222012B00656","100a4450-1b6b-44e5-a2f5-3e31b04c9314","广西壮族","玉林市","陆川县","陆川县城三峰东路以南、龙腾嘉园小区以西",22.315418,110.278079,22.310000,110.267056,1
"4509232010B00057","2799f0da-bbea-4349-96c8-0c6c2ff497de","广西壮族","玉林市","博白县","锦绣东路南面",22.265563,109.996508,22.639062,110.160008,1
"4509212014B00026","7bc55786-a915-4906-93fb-00c12936f119","广西壮族","玉林市","容县","容县十里甘旺佳佳食品东侧",22.863666,110.564530,22.890490,110.568096,1
"4509002012B00425","71703cc1-0df1-462b-9fc1-af86a3cfaf60","广西壮族","玉林市","玉州区","玉林市二环南路北侧、玉发大道西侧地块二",22.588268,110.157438,22.639062,110.160008,1
"4509002008A00346","e9f9a4ed-9c74-423a-8ff4-2ff99ce56cf4","广西壮族","玉林市","玉州区","玉林市玉梧公路东南侧",22.659831,110.188453,22.617234,110.167736,1
"4509002018A01615","6bf24699-ac7c-4f6d-aa94-74cb63052760","广西壮族","玉林市","玉州区","玉林市福绵区福绵镇青岭村南流江西侧",22.601278,110.090173,22.565654,110.060136,1
"4509222018B01168","06bf2e94-97af-42e5-9e73-c53a146b8a5c","广西壮族","玉林市","陆川县","陆川县温泉镇泗里村，西环路西侧地块B08－1－1",22.335119,110.270165,22.320128,110.263624,1
"4509222009B00259","687ea690-0d9f-47d4-ac82-141e4862ef2e","广西壮族","玉林市","陆川县","陆川县乌石镇乌石街",22.201522,110.335519,22.165532,110.232576,1
"4509812011B00542","97b23488-468c-4cf5-8c52-c896e814342a","广西壮族","玉林市","北流市","广西北流日用陶瓷工业园区",22.740072,110.411015,22.639062,110.160008,1
"4509232013B00214","24b9d577-f877-47cf-81d7-4e6335c7a9ed","广西壮族","玉林市","博白县","博白县县城规划60米绿珠大道东的北面、乌豆江的西面",22.259056,110.000616,22.276004,109.971992,1
"4509002011B00069","a371ec51-9baf-46dd-8361-6832f00b9325","广西壮族","玉林市","玉州区","二环北路南侧、龙表河西北侧",22.666737,110.166545,22.639062,110.160008,1
"4509812011B00787","5914fedf-7d45-4898-a276-d7de3d0bdbbd","广西壮族","玉林市","永丰县","城区永丰一区24号（原特殊学校）",27.324342,115.447402,22.640640,110.155088,1
"4509812011B00776","8b564f9c-40c1-4ae0-9bd4-214c8dbb8a45","广西壮族","玉林市","永丰县","城区永丰一区24号（原特殊学校）",27.324342,115.447402,22.640640,110.155088,1
"4509002011A00155","a02cec17-7c0c-4cdb-b797-44024369ecd5","广西壮族","玉林市","玉州区","玉林市城西开发区庆安路西侧",22.637474,110.139375,22.640622,110.116024,1
"4509002009A00573","a2c3ff67-f063-4fd7-82c5-5dbd89ebeabe","广西壮族","玉林市","玉州区","南流江北面、二环路西侧",22.660443,110.146624,22.618170,110.143920,1
"4509232011B01157","d1bd27c7-696d-49a3-9eda-5fec6286c7cf","广西壮族","玉林市","博白县","博白镇东风北路(C地块)",22.277048,109.993912,22.271128,109.986872,1
"4509242014B00256","024152ac-7cc1-4d2e-b445-44cfc314b73d","广西壮族","玉林市","兴业县","兴业县城隍镇工业园区",22.631077,109.736709,22.602930,109.739704,1
"4509222016B00291","9805586b-22ca-44ee-9b1b-c78c1dedb587","广西壮族","玉林市","陆川县","陆川县官田垌开发区",22.327222,110.270456,22.323966,110.259760,1
"4509232010B00398","fa23d2a8-ac1d-4d61-9d58-58fdee394dfa","广西壮族","玉林市","博白县","博白镇锦绣东路",22.265563,109.996508,22.271128,109.986872,1
"4509232015B00417","1db555f1-0aa1-4f89-917f-8d9b03f140d1","广西壮族","玉林市","博白县","博白县博白镇官田村五里庙",22.247114,109.985763,22.271660,109.984672,1
"4509242012B00080","b4fd9287-7eb8-476f-bff4-5ce7cc796a79","广西壮族","玉林市","兴业县","兴业县大平山镇玉石公路温口路段南侧",22.684543,109.976688,22.681804,109.965848,1
"4509212016B00045","86fdcfa9-65cf-4a14-85e8-5018d69dfaab","广西壮族","玉林市","容县","容县黎村镇黎村街及太平村、容信二级公路北侧",22.590604,110.738811,22.584750,110.726464,1
"4509812012B00172","e748e387-1b5e-44cc-af34-f824bcdf185e","广西壮族","玉林市","玉州区","民乐会众",22.659831,110.188453,22.776704,110.351664,1
"4509002014B00747","d6a9c619-f1a7-48eb-8949-17405f01f039","广西壮族","玉林市","玉州区","玉林市江南区苗园路北侧",22.608249,110.163259,0.000000,0.000000,1
"4509212014A00037","7797a41b-0d5f-4240-9781-17ea687d4275","广西壮族","玉林市","容县","容县容州镇东光村下埌",22.865361,110.564167,22.862430,110.553392,1
"4509002009A00477","ca796ecb-88da-4149-ad82-fdfe065acaf9","广西壮族","玉林市","玉州区","玉林市大南路573号",22.629412,110.156824,22.639062,110.160008,1
"4509222016B00379","c13474a4-5adf-4059-8aec-984ba3cfd9c3","广西壮族","玉林市","陆川县","陆川县温泉镇万丈双龙街B地块",22.317972,110.261065,22.306140,110.255856,1
"4509222012B00061-1","12b00d4d-e70a-48de-a3d9-bae6a2793ad8","广西壮族","玉林市","陆川县","珊罗镇六燕村地块L",22.567473,110.186658,22.563496,110.185856,1
"4509812009B00203","b31da034-6e82-46e6-896d-dee87db27069C","广西壮族","玉林市","容县","北流市二环路人寿保险公司旁（原交警大队指挥中心）",22.849774,110.561703,22.703740,110.323696,1
"4509222015B00510","84351d2e-d072-4097-b47d-8d2691bb1671","广西壮族","玉林市","陆川县","陆川县城温汤路县交通局宿舍西面",22.320317,110.272613,22.316990,110.262000,1
"4509222013B00967","ccd30ca6-40cc-40d7-9612-ac75af39c621","广西壮族","玉林市","陆川县","陆川县城官田垌开发区",22.327222,110.270456,22.320634,110.285496,1
"4509002008A00474","0a5a7a6e-7391-4620-8348-7555325844fd","广西壮族","玉林市","玉州区","玉林市二环路北侧、金港路西侧",22.623389,110.184874,22.622570,110.172008,1
"4509212010B00229","7772fb0b-54ae-436e-9ef6-202f86b22ee1","广西壮族","玉林市","容县","容州镇厢南村广西容县菱通竞业电子有限公司南侧S3地块。",22.845325,110.575605,22.842500,110.564688,1
"4509812016B00344","ae51821e-8d70-4429-be1e-8bb5f521dc2f","广西壮族","玉林市","北流市","城西公园东面",22.709667,110.326155,22.707198,110.315336,1
"4509222017B00721","5c9a1ebe-d223-450c-b7cf-d1eee1e250fa","广西壮族","玉林市","陆川县","陆川县良田镇良田街",22.048349,110.233763,22.045662,110.222760,1
"4509002013B00610","90d11af1-3628-4d39-8dcf-c192470c48a4","广西壮族","玉林市","玉州区","玉林市城站路35号",22.620523,110.163430,22.639062,110.160008,1
"4509242014B00156","4444cd60-3bf9-43cc-b8ab-48bc238b4339","广西壮族","玉林市","兴业县","兴业县葵阳镇新荣村",22.716498,109.782648,22.711154,109.775672,1
"4509242014B00161","ef6493c0-d5be-4380-8dd9-dfe6bd666b93","广西壮族","玉林市","兴业县","兴业县城隍镇",22.631077,109.736709,22.602930,109.739704,1
"4509232015B00798","d9e5f6d3-ca60-4fbb-9450-d097984a45d3","广西壮族","玉林市","博白县","博白县龙潭镇茅坡村(龙潭产业园)",21.680139,109.735295,21.676960,109.724840,1
"4509002012B00419","b175f449-1bd9-47ae-954c-5e8d65c6a8aa","广西壮族","玉林市","玉州区","广西玉林健康产业园仁厚玉药集团洋平石斛基地南侧",22.624887,110.170967,22.655160,110.076696,1
"4509002016B00615","fbb61043-51a1-4d9d-accc-c6952098a8e0","广西壮族","玉林市","玉州区","玉林市城站路166号",22.610211,110.163927,22.639062,110.160008,1
"4509222015B00868","961dd5a6-c54e-4da8-a6a2-27a3330128f9","广西壮族","玉林市","陆川县","陆川县温泉镇万丈村付龙塘队",22.313366,110.264092,22.311780,110.252224,1
"4509812017B00628","00f6eeeb-ebd1-40d9-bb28-65717bdc50ec","广西壮族","玉林市","北流市","民乐镇南庆村",22.784990,110.362169,22.781920,110.351064,1
"4509002016B00475","89818f05-fd10-4cc0-8f54-34a2fb67a461","广西壮族","玉林市","玉州区","玉林市二环南路北面，中秀路西侧",22.588268,110.157438,22.601138,110.159560,1
"4509212016B00117","d54209dc-9f51-41d2-b01f-92d98fee8482","广西壮族","玉林市","容县","容州镇河南村屋底及上荣",22.851034,110.562304,22.846976,110.552112,1
"4509002015B00360","c39ab156-c6ac-4947-a4f0-dd3426367f07","广西壮族","玉林市","玉州区","玉林市玉东新区教育东路与大同路交叉口东南侧",22.662983,110.216160,22.650370,110.183760,1
"4509212008B00222","be311e1b-7060-417e-bb63-d4fc9d197919","广西壮族","玉林市","容县","容州镇河南狗虱岭中发汽车修配厂西侧",22.877733,110.515697,22.850790,110.547000,1
"4509212008B00139","89b0a584-c0d5-40e9-8216-33719c359a54","广西壮族","玉林市","容县","容州镇河南狗虱岭中发汽车修配厂西侧",22.877733,110.515697,22.850790,110.547000,1
"4509232010B00897","ad38bdd7-954a-4137-b36f-dbb969636e61","广西壮族","玉林市","博白县","博白镇博龙花园城(粮油批发市场)",22.297754,110.004915,22.264420,109.975616,1
"4509232012B00120","301c0294-f462-49ab-a839-0b4df57d26e5","广西壮族","玉林市","博白县","博白镇锦绣东路",22.265563,109.996508,22.271128,109.986872,1
"4509002016B00488","d00cfc88-0588-47bb-9ddc-9faa9c2886f2","广西壮族","玉林市","玉州区","玉林市玉东新区玉东大道与规划16米道路交叉口东南侧",22.662983,110.216160,22.650370,110.183760,1
"4509222014B00478","c4fb7181-7e0c-4bb3-b71a-0f3f03845abd","广西壮族","玉林市","陆川县","陆川县清湖镇清湖街",22.038913,110.352570,22.032336,110.343568,1
"4509222014B00482","be91d448-f488-400e-ac25-4a109058fc11","广西壮族","玉林市","陆川县","陆川县清湖镇清湖街",22.038913,110.352570,22.032336,110.343568,1
"4509812017B00702","4779e38a-2ebf-4f2e-babe-58c72deaaccc","广西壮族","玉林市","北流市","民乐镇南庆村",22.784990,110.362169,22.781920,110.351064,1
"4509222009B00641","9ea9f2d7-d585-4ec7-887f-97d92feea694","广西壮族","玉林市","陆川县","陆川县米场镇米场街",22.409517,110.265202,22.323966,110.259760,1
"4509002009B00108-1","2f73b198-533b-43d3-a820-74c44ef9dbd5A","广西壮族","玉林市","玉州区","玉林市城东新区石棠片，市国防教育基地东侧片，人民东路北侧片 ",22.651689,110.190952,22.648890,110.180400,1
"4509222015B00729","029c3846-5de3-4d05-8c8b-a57b543a5891","广西壮族","玉林市","陆川县","陆川县城远辰大道以东A-14地块",22.327222,110.270456,22.323966,110.259760,1
"4509242016B00128","24943acb-0222-4d9e-9542-27ef4955dfdd","广西壮族","玉林市","兴业县","兴业县大平山镇大平山高中旁",22.685693,109.979003,22.683884,109.968840,1
"4509242016B00115","1fcac835-3496-4e88-9ee2-6c9b87eae259","广西壮族","玉林市","兴业县","兴业县沙塘镇圩镇",22.930944,109.892931,22.923734,109.863592,1
"4509232015B00504","c1232df9-a605-4c64-afda-109380c5851b","广西壮族","玉林市","博白县","博白县人民南路072号",22.261144,109.987735,22.276004,109.971992,1
"4509812009B00570","db86ef27-e6a8-4d6b-8815-d34566b21bb8","广西壮族","玉林市","兴业县","六靖镇南村北宝二级公路西南侧",22.573572,109.759221,22.251630,110.569320,1
"4509222015B00138","b8f54f95-ee7a-44ef-b32b-01180474e74b","广西壮族","玉林市","陆川县","陆川县城麻纺厂开发区",22.327222,110.270456,22.323966,110.259760,1
"4509002015A00293","e164084a-f442-44f5-a9f3-b59a2b150954","广西壮族","玉林市","玉州区","玉林市福绵管理区新桥镇南面旧玉博公路西侧",22.546355,110.145604,22.533680,110.107328,1
"4509242013B00249","12765072-71d6-4ab9-95f6-b117cdf811db","广西壮族","玉林市","兴业县","兴业县大平山镇机械产业园",22.672239,109.975228,22.679648,109.950928,1
"4509212017A01124","63be3d33-d54e-464a-b158-4c71774c20a3","广西壮族","玉林市","容县","石寨镇合柳村",22.815288,110.573192,22.809964,110.567368,1
"4509212017A01029","3550c8c5-d1a5-4ea5-8c7e-6abd45be2eb8","广西壮族","玉林市","容县","容州镇厢南村",22.849223,110.566138,22.843782,110.560392,1
"4509212017A01036","260022e8-4b26-41db-9ddc-482cbe695619","广西壮族","玉林市","容县","容州镇厢南村",22.849223,110.566138,22.843782,110.560392,1
"4509232012B00066","9022dc33-5ae6-4ffc-8709-379621079256","广西壮族","玉林市","博白县","博白县龙潭镇东华南路(原红旗场)",21.737976,109.760928,21.739980,109.747400,1
"4509222012B00170","50db9561-5c2f-473c-a7b5-46ec550f7717","广西壮族","玉林市","陆川县","陆川县温泉镇碰塘村碰塘元钉厂北边",22.337641,110.275979,22.396066,110.264384,1
"4509002015B00262","9b0f8018-4d94-4b89-9e96-9bc39d7de342","广西壮族","玉林市","玉州区","玉林市福绵区服装工业小区",22.563705,110.088538,22.593490,110.060472,1
"4509812017A00678","bb6919e3-70b0-4fa8-a42a-0087eee05fab","广西壮族","玉林市","北流市","北流市大里镇罗样村5组",22.750685,110.207833,22.743446,110.200088,1
"4509222010B00079","63fecd8b-730b-4c44-bbbd-ef4298a63faeCCC","广西壮族","玉林市","陆川县","良田镇良田街桥头",22.048349,110.233763,22.045662,110.222760,1
"4509222010B00081","f7cbedc1-1d8e-4448-96ce-13c3aec8a2f8C","广西壮族","玉林市","陆川县","陆川县马坡镇马坡火车站",22.498482,110.194658,22.494540,110.218328,1
"4509222010B00135","e4f81a66-0ed8-418e-a4b9-685b1fe0f7f9C","广西壮族","玉林市","陆川县","沙湖乡沙湖街",22.363213,110.186896,22.359452,110.175664,1
"4509222017B00767","f5d6e0e2-5d6f-44a4-8c6b-de8bc09be70b","广西壮族","玉林市","陆川县","陆川县温泉镇东山村A-21",22.319089,110.286986,22.312420,110.281256,1
"4509212017A01315","59e4a161-9922-417c-9e52-de3f45df200a","广西壮族","玉林市","容县","容州镇公安局",22.877733,110.515697,22.859620,110.551960,1
"4509212017A01520","33ec080a-cd15-45f8-b61e-f486a66ff86d","广西壮族","玉林市","容县","容州镇泗登村",22.882704,110.573097,22.877368,110.567408,1
"4509212017A01400","3b7c1184-1db3-4334-af9b-e12c3df4eb47","广西壮族","玉林市","容县","容州镇大明村",22.899488,110.560455,22.893818,110.554600,1
"4509002013B00206","46c81bb5-4458-4fae-b0af-0090ac4c3a4d","广西壮族","玉林市","玉州区","玉林经济开发区，纵二路与胜利路交叉口东北侧地块四",22.638898,110.179976,22.643734,110.160160,1
"4509002018B01909","2012ebce-9ea8-4196-aa03-03a8e44fd528","广西壮族","玉林市","玉州区","玉林市城站路西侧、新民路两侧",22.616679,110.163623,22.613116,110.152656,1
"4509232017B01550","a05c1de6-1771-4878-9f3f-808103d403fc","广西壮族","玉林市","博白县","博白县城区60米绿珠大道西的南面，规划三十米南流二路的东面",22.251745,109.969595,22.276004,109.971992,1
"4509002017B01356","9d91519d-12fe-4f01-bd87-81d6ec5e0dc6","广西壮族","玉林市","玉州区","玉林市福绵区福绵镇玉福大道金马水洗厂路口东南侧",22.591960,110.067087,22.589560,110.049624,1
"4509222016B00507-1","f84de0d8-f521-45c0-9c9b-2c338f079939","广西壮族","玉林市","陆川县","陆川县城区三峰东路以南、龙腾家园小区以西",22.316296,110.277880,22.311818,110.266880,1
"4509222016B00600","af8331ff-6510-4a35-9051-42f5f54216a4","广西壮族","玉林市","陆川县","陆川县良田镇良田街地块C",22.048349,110.233763,22.045662,110.222760,1
"4509002011B00135","ecd2ad43-0897-4508-838f-299275848a39","广西壮族","玉林市","玉州区","玉林市江南片区二环东路玉苗园路交叉口西北侧",22.635633,110.200294,22.627708,110.188544,1
"4509222009B00066","0b731f53-c280-42f4-9117-2fc6aa4323ab","广西壮族","玉林市","陆川县","陆川县珊罗镇珊罗街",22.573251,110.232564,22.562886,110.224296,1
"4509812013B00380","de040a02-a394-4c61-a334-6fb4875be2a0","广西壮族","玉林市","北流市","广西北流日用陶瓷工业园区垃圾处理厂西面",22.740072,110.411015,22.639062,110.160008,1
"4509232009B00350","9710f101-1554-49d4-98c8-8b3528315887","广西壮族","玉林市","博白县","双凤镇二街坊032号",22.409822,109.895526,22.412498,109.876168,1
"4509232009B00365","b932fac8-5174-458f-9bb4-9db553a7ef26","广西壮族","玉林市","博白县","双凤镇二街坊032号",22.409822,109.895526,22.412498,109.876168,1
"4509812013B00450","598061fe-26f8-43e9-8227-50b1642ca879","广西壮族","玉林市","北流市","民乐镇南庆村",22.784990,110.362169,22.781920,110.351064,1
"4509002008B00128","602c583d-b506-4c51-a3b8-8c2e7b0c86de","广西壮族","玉林市","玉州区","玉林市清湾江北部、塘步岭工业区以南、玉石公路西侧(玉林市城西工业区印刷城二期地块七",22.634820,110.113654,22.643796,110.106512,1
"4509002008B00250","04c22dbe-424b-4085-9d4e-b95dfb62e4e2","广西壮族","玉林市","玉州区","玉林市经济开发区东区，二环东路东侧地块七",22.635633,110.200294,22.639062,110.160008,1
"4509232015B00747","979026f6-71e1-4545-bcde-60ee10d80757","广西壮族","玉林市","博白县","博白县龙潭镇长岭村",21.737976,109.760928,21.685106,109.734104,1
"4509242014A00318","6761315c-5789-4f37-84a1-4062f12e0d16","广西壮族","玉林市","兴业县","山心镇寨门村",22.824265,109.861672,22.819030,109.855728,1
"4509222011B00247","3e06bd72-b1c1-4cdc-aabc-3634dc966648","广西壮族","玉林市","陆川县","陆川县温泉镇政府南面",22.307417,110.267447,22.304100,110.256688,1
"4509242011B00026","bc96d618-e01a-4bc6-ac11-8676fec55a50","广西壮族","玉林市","兴业县","兴业县石南镇大路岭",22.747625,109.882255,22.747602,109.876504,1
"4509222011A00318-1","ddf3a454-1ccc-4d8a-a491-8686834acd4d","广西壮族","玉林市","陆川县","珊罗镇长纳村",22.548218,110.228472,22.542540,110.221920,1
"4509812010B00396","6ee15a60-b0fc-4b1e-83a7-ab5c00d42a2e","广西壮族","玉林市","北流市","北流市城东二路一里20号",22.723405,110.367719,22.711180,110.349688,1
"4509812010B00335","0d0cc13c-fffa-4eff-b973-2075a8123c56","广西壮族","玉林市","北流市","北流市新芝路0070号",22.712030,110.358006,22.711180,110.349688,1
"4509222018B00015","ae6a8512-2529-460c-93d4-e527237618ce","广西壮族","玉林市","陆川县","陆川县清湖镇清湖村A2-2-04、E2-1-02地块",22.037543,110.350253,22.034672,110.338688,1
"4509222009B00313-1","520f7128-c4cd-44a7-af39-7be266c37af4A","广西壮族","玉林市","陆川县","陆川县沙坡镇沙坡街",22.336813,110.388222,22.333020,110.378736,1
"4509002014B00429","656de153-0c13-4ba7-9e17-80f6d8caa4d4","广西壮族","玉林市","玉州区","玉林市玉公公路新桥镇阳岗段西侧地块二",22.546355,110.145604,22.562698,110.122792,1
"4509232011B00336","f5660dcb-27f0-4c73-99b3-1ff9089a777d","广西壮族","玉林市","博白县","博白县博白镇城东玉沙二级公路东面(博白县城东工业园13号地块)",22.284831,110.007993,22.281840,109.996784,1
"4509232010B00170","246d1d96-add8-4184-8a96-d30e6e1c28c7","广西壮族","玉林市","博白县","凤山镇北路",22.053604,109.998399,22.047880,110.000560,1
"4509222015B00896","21650882-d2b6-4edb-b574-14858fd92a9c","广西壮族","玉林市","陆川县","陆川县米场镇福达街北面",22.433880,110.259255,22.323966,110.259760,1
"4509222018A01097","78deec30-eb06-4a58-9246-3131a0998b72","广西壮族","玉林市","陆川县","陆川县城北新区，30米路北",22.327222,110.270456,22.323966,110.259760,1
"4509222009B00680","04bf7b15-200d-4b46-b712-ed8eda469799","广西壮族","玉林市","陆川县","陆川县温泉镇长河村东山牛黄社",22.289706,110.252994,22.284466,110.247032,1
"4509002018B01865","4bf35146-6ca0-4adc-ba14-164c35ab8d27","广西壮族","玉林市","玉州区","玉林市福绵区樟木镇中村（地块六）",22.524043,110.022703,22.539796,110.063192,1
"4509002018B01835","a9dbd6a4-a491-4980-ab50-12a30c55f0db","广西壮族","玉林市","玉州区","玉林市福绵区樟木镇中村（地块四）",22.524043,110.022703,22.539796,110.063192,1
"4509002009A00400","82ea6cb0-6b0d-473f-9209-c085a21f1519","广西壮族","玉林市","玉州区","玉林市玉东新区石牛路与金盾路交叉口西北侧",22.663427,110.191123,22.654110,110.186376,1
"4509242009B00066","6a36fe4d-de44-4a71-bf65-5cf9ec4db54b","广西壮族","玉林市","兴业县","兴业县拥军路西侧",22.742268,109.881552,22.739394,109.870960,1
"4509212018B00061","5eafb667-d3f1-4100-a69a-ed8aab512693","广西壮族","玉林市","玉州区","容州农机厂北侧",22.659831,110.188453,22.829198,110.522480,1
"4509242015A00051","e5e82e7d-9a6d-44ac-bfcc-92e24e2bdfca","广西壮族","玉林市","玉州区","兴业县大平山镇三山园艺场",22.693900,110.048250,22.691144,110.037632,1
"4509222011B00320","49a7cb7a-9457-42c9-b547-52f021fc2b35","广西壮族","玉林市","陆川县","陆川县珊罗镇六燕村",22.567473,110.186658,22.564110,110.175712,1
"4509232011B00426","4b0b1219-790f-478c-b6e3-d6730680116e","广西壮族","玉林市","博白县","博白县朝阳西路(城背坡)A地块",22.283642,109.980868,22.253750,109.840168,1
"4509002014B00238","46bfdda9-9808-4ada-ae98-7578b8fbea26","广西壮族","玉林市","玉州区","玉林市玉东新区石棠路与棠梨路交叉口南侧",22.662983,110.216160,22.663950,110.187080,1
"4509002015B00589","95e10e8f-5a21-4141-8ab6-72439ca1fa73","广西壮族","玉林市","玉州区","玉林市福绵新桥镇养心村玉公公路玉林市远航纸箱厂西侧",22.540132,110.127223,22.589560,110.049624,1
"4509232011B01020","e3e1b52f-4c5f-457e-8f2a-5c6ce61a4e8b","广西壮族","玉林市","博白县","博白县龙潭镇白树村和长岭村(C-1地块)",21.737976,109.760928,21.676440,109.742000,1
"4509812008B00210","f68babf2-b1c3-4239-b861-56d31b96327eCC","广西壮族","玉林市","北流市","北流市城中路山根塘",22.706503,110.361087,22.703436,110.349976,1
"4509812008B00150","d3ac7995-03a9-4442-aa38-3a3030fb789eCC","广西壮族","玉林市","北流市","北流市城中路山根塘",22.706503,110.361087,22.703436,110.349976,1
"4509212008B00180","b82d0961-e486-468d-a647-c1a1f5488779","广西壮族","玉林市","容县","容州镇河南狗虱岭中发汽车修配厂西侧",22.877733,110.515697,22.850790,110.547000,1
"4509212008B00111","b9479b5a-0da2-4d71-b85a-336a7f617ed1","广西壮族","玉林市","容县","容州镇河南狗虱岭中发汽车修配厂西侧",22.877733,110.515697,22.850790,110.547000,1
"4509002018B02139","2c1b51f5-98db-4954-9063-67e4efcfb940","广西壮族","玉林市","玉州区","玉林市福绵区樟木镇中村东侧地块18",22.524043,110.022703,22.520978,110.012392,1
"4509002018B02107","36df426f-e71a-4708-ba1e-6c8bfefbda2a","广西壮族","玉林市","玉州区","玉林市福绵区樟木镇中村东侧地块7a1",22.524043,110.022703,22.520978,110.012392,1
"4509242015B00086","2e7e830f-5826-4db6-8387-939052847e87","广西壮族","玉林市","兴业县","兴业县大平山镇机械产业园区（B03-02-1地块）",22.672239,109.975228,22.680030,109.951912,1
"4509002015A00242","2a89931e-7394-4f56-993d-ed25744cf7ef","广西壮族","玉林市","玉州区","玉林市二环东路与人民东路交叉口西南侧",22.652570,110.192778,22.649004,110.110752,1
"4509812017A00530","e269d28b-8e79-41a7-b766-07e9eabbe9dc","广西壮族","玉林市","北流市","塘岸镇独竹村",22.656635,110.346028,22.653890,110.334896,1
"4509212008B00075","4c27fb48-67e3-4f56-89ea-0efaf8d746a9","广西壮族","玉林市","容县","容州镇厢南村广西容县骏瀚电子有限公司南侧",22.845849,110.574120,22.843782,110.560392,1
"4509002008B00017","8a507e60-7df4-4be6-9c86-de3921ee4746","广西壮族","玉林市","玉州区","玉林市人民东路西北侧、文体路东北侧、市体育中心西侧",22.668836,110.200828,22.633250,110.150160,1
"4509812012B00309","32e2ea1e-51bb-4b6c-87a6-b16a949f6106","广西壮族","玉林市","玉州区","民乐会众",22.659831,110.188453,22.776704,110.351664,1
"4509222012B00117","db804cb0-cdd6-4af4-b78e-e0f9afcd8d4d","广西壮族","玉林市","陆川县","珊罗镇六燕村地块S",22.567473,110.186658,22.563496,110.185856,1
"4509812009B00585","a26029ae-98f5-4c9d-acc1-15b5ff257826","广西壮族","玉林市","北流市","广西北流日用陶瓷工业园区",22.740072,110.411015,22.639062,110.160008,1
"4509002016B00417","f92ca1d0-7645-4be6-b6a2-ae6b6ad8f9b2","广西壮族","玉林市","玉州区","玉林市二环北路北侧、牛运岭（万头塘）西侧",22.666737,110.166545,22.523030,110.187408,1
"4509232013B00249","619e3962-d265-45df-97ca-3df433b6349d","广西壮族","玉林市","博白县","博白县三滩镇新开发区(原三滩粮食管理所)",22.184945,110.038203,22.280760,109.969944,1
"4509002015B00408","a30cf8c4-85e2-4a4d-be40-8832deb1e4d7","广西壮族","玉林市","玉州区","玉林市福绵区成均镇工业园成均国土资源所南侧",22.579029,109.999845,22.576056,109.989008,1
"4509812010B00211","a0afa815-eb36-4603-81b1-545e7af67994","广西壮族","玉林市","北流市","北流市原金荔酒店南面",22.713208,110.354299,22.711180,110.349688,1
"4509812010A00124","ba1eba64-347e-400a-9227-878bac17fcfa","广西壮族","玉林市","玉州区","朱砂罗商贸区市就业服务中心东南面",22.639633,110.180508,22.636010,110.169592,1
"4509812010B00155","433d9c87-cd61-42b7-970e-71198563bdca","广西壮族","玉林市","北流市","北流城区花果山",22.712235,110.351452,22.832818,109.948216,1
"4509002018B01460","8f6a4659-99a9-400e-a627-974555ce00c1","广西壮族","玉林市","玉州区","玉林市二环东路东侧、玉北大道北侧",22.669299,110.236365,22.668124,110.231176,1
"4509242009B00032","349342f7-d372-45fe-8906-0c51c3bd8ac7","广西壮族","玉林市","兴业县","兴业县广场东侧",22.742268,109.881552,22.739394,109.870960,1
"4509222010B00343","80ae5be2-b73b-460b-8e37-4c912199a143","广西壮族","玉林市","陆川县","陆川县城城北大道东侧",22.327222,110.270456,22.323966,110.259760,1
"4509222010B00276","ff3bb0b7-c708-4f02-ac0e-b4254693abf1C","广西壮族","玉林市","陆川县","陆川县城马骝河南边",22.327222,110.270456,22.323966,110.259760,1
"4509232018B00570","2ceea1e0-c9f6-4eb5-a290-6b85a9875512","广西壮族","玉林市","博白县","博白县大垌镇大垌社区居民委员会",21.981905,110.116392,21.893240,109.930000,1
"4509812010B00717","deb7793f-db0f-45d9-b7b3-386ef5b26a42","广西壮族","玉林市","北流市","大里镇古红村",22.727698,110.181378,22.724220,110.170408,1
"4509002013B00470","77e69f85-93c8-4389-a56c-d7a9d602dfaa","广西壮族","玉林市","玉州区","玉林市名山桂园开发区西11栋14号",22.659831,110.188453,22.650600,110.160184,1
"4509812008B00287","ad1071db-ffc4-42a4-be74-5123765a0f17C","广西壮族","玉林市","北流市","北流市玉容一级公路辅道旁边",22.713958,110.360570,22.711180,110.349688,1
"4509242014B00139","025ebc3c-1075-4baa-870d-9a48c9ff4544","广西壮族","玉林市","兴业县","兴业县城隍镇",22.631077,109.736709,22.602930,109.739704,1
"4509812008B00439","abbcc41a-71d5-4a39-bbab-bd64f4b593b8C","广西壮族","玉林市","北流市","西埌镇鑫山工业集中区",22.808120,110.298982,22.550260,110.184672,1
"4509812008B00454","da8d53b3-ea1c-4166-8822-c9be1268a797C","广西壮族","玉林市","北流市","玉林市北流水泥厂对面",22.743053,110.357431,22.740080,110.346288,1
"4509812014A00292","58ae506c-a852-407b-8138-c73c900cee38","广西壮族","玉林市","北流市","北流市荔枝场新区",22.215614,110.430489,22.212174,110.419400,1
"4509002010B00479","bc46c10f-0c3e-4f49-a6b3-bb6096640675","广西壮族","玉林市","玉州区","玉林市玉东新区原城东新区，教育东路东南侧",22.662983,110.216160,22.650370,110.183760,1
"4509812014B00105","a8d4eba2-ab91-478c-a53a-3abc6d0d3cf3","广西壮族","玉林市","北流市","北流市荔枝场新区碧桂园用地西面",22.671633,110.346142,22.212174,110.419400,1
"4509222012B00130","ed7f5aa8-b59e-474f-ba11-c493db6e2b85","广西壮族","玉林市","陆川县","陆川县温泉镇碰塘开发区",22.330521,110.281446,22.326272,110.257288,1
"4509222010B00370","2557f782-8b23-4203-92c8-0e29e62edba5","广西壮族","玉林市","陆川县","陆川县麻坊厂大门口左侧第12号",22.327222,110.270456,22.323966,110.259760,1
"4509812014B00015","7700a357-9252-473a-8173-7f95bdc1eb76","广西壮族","玉林市","北流市","民乐镇兴乐路024号",22.791232,110.363729,22.789480,110.355408,1
"4509232014B00279","51c0f017-4cdf-41a7-b61d-ec8a0955cd31","广西壮族","玉林市","博白县","博白县龙潭镇白树村（龙潭产业园）",21.680139,109.735295,21.676960,109.724840,1
"4509812013B00284","df03e505-f5c0-46d1-b3ea-d1db826b5a88","广西壮族","玉林市","北流市","大里镇六堆村岑兴高速公路南面",22.793099,110.318144,22.750400,110.193096,1
"4509002017B01090","0d840e25-9a98-4ba6-afad-dcb22e1b77f9","广西壮族","玉林市","玉州区","玉林市玉州区岭塘工业小区",22.634493,110.157431,22.685916,110.173696,1
"4509232009B00210","fef40554-57e1-4387-a4db-947f43717301","广西壮族","玉林市","玉州区","永安永顺街",22.659831,110.188453,22.639062,110.160008,1
"4509002017B01107","b6424039-796e-4c80-a86b-20da64b4603c","广西壮族","玉林市","玉州区","玉福公路玉豸段北侧",22.659831,110.188453,22.609510,110.114048,1
"4509222008B00081","29a2e48f-4f35-46c6-99fb-7faa257ff155","广西壮族","玉林市","陆川县","陆川县通政西路",22.327222,110.270456,22.044446,110.226304,1
"4509812008B00116","6088d8c5-4c3c-40e8-b322-4c569b039545CCC","广西壮族","玉林市","北流市","北流市旧北茂公路边",22.713958,110.360570,22.711180,110.349688,1
"4509812008B00135","9a5adb6e-530c-4763-8b2f-b8eee8391041C","广西壮族","玉林市","北流市","隆盛镇冬瓜湾",22.540612,110.464235,22.537604,110.454304,1
"4509812013B00011","a4557bbe-d73c-4ef7-816b-f309f27a3f20","广西壮族","玉林市","北流市","西埌镇石埌塘村",22.740103,110.281920,22.734366,110.275920,1
"4509002009B00018","177788a0-36c7-48b6-8279-78acf3bcf11b","广西壮族","玉林市","北流市","玉林市岭塘工业区金港路西侧",22.619631,110.436516,22.616340,110.425392,1
"4509812009B00219","f5f83820-0d3c-48f8-8611-ff716ccb70a8","广西壮族","玉林市","北流市","北流市城北路不干窝原农贸市场",22.721245,110.351148,22.711180,110.349688,1
"4509812009B00134","3d2124cd-eac8-4836-b3ec-b78582f0d6e5","广西壮族","玉林市","玉州区","北流市城区一环路尾转盘附近",22.635931,110.173147,22.703930,110.335920,1
"4509002011B00295","61bb38bf-5edc-45d1-985b-59d4bf28485b","广西壮族","玉林市","玉州区","玉林市玉柴新城静安路南侧",22.596711,110.162508,22.598610,110.142048,1
"4509232008B00261","028ac6dd-f95b-44ef-98e6-33a4a32b25a4","广西壮族","玉林市","玉州区","东平社部",22.659831,110.188453,22.639062,110.160008,1
"4509232008B00141","93b8beaf-7c7d-42fa-8307-c4b2d0fdcc2c","广西壮族","玉林市","陆川县","径口茶根分部",22.052175,110.264703,21.758526,109.893536,1
"4509232008B00219","b19a5287-c27e-465f-839e-0c68d734d532","广西壮族","玉林市","玉州区","大利社部",22.659831,110.188453,22.639062,110.160008,1
"4509232008B00377","e0199f5f-f3b8-4ebb-8091-7a6fe4762aa4","广西壮族","玉林市","玉州区","双旺",22.659831,110.188453,21.801670,109.823408,1
"4509232015B00011","c5487e53-e384-4312-aa4b-621f67bf7928","广西壮族","玉林市","博白县","博白镇人民南路（三滩镇小白江的东南面）",22.223028,109.968133,22.183728,110.027368,1
"4509232016B00016","72febd62-fcaa-4076-be77-529cd46b4cd5","广西壮族","玉林市","博白县","博白县英桥镇英桥村",21.903032,110.085442,21.900838,110.078264,1
"4509232013B00098","22119d9d-cac0-4e81-953f-d95d85545896","广西壮族","玉林市","博白县","博白县文地镇产业转移园(17)号地块",21.956974,110.157194,21.944270,110.197720,1
"4509222014B00326","de5ca44d-aaf4-4f2e-9550-2bc1a86713ee","广西壮族","玉林市","陆川县","陆川县陆城镇陆兴路152号",22.327266,110.268544,22.360780,110.262352,1
"4509812011B00436","adef1b95-a2e1-4bca-a7d0-9de2dafc9c44","广西壮族","玉林市","北流市","富林塘客运中心北面",22.709623,110.340068,22.709714,110.326376,1
"4509812016B00456-1","7f487d1b-8417-427d-9f14-85e5e110aece","广西壮族","玉林市","北流市","北流市荔枝场新区鼎盛世家东南面",22.682950,110.353509,22.680790,110.342296,1
"4509002018B02156","3d11aa21-8a88-41a6-9b22-41558234d37d","广西壮族","玉林市","玉州区","玉林市福绵区沙田圩镇玉公公路西侧地块九",22.563705,110.088538,22.588320,110.054904,1
"4509812008B00330","ae2a34ec-ed66-4f3f-8c91-cf722cb4155eC","广西壮族","玉林市","北流市","白马镇财政所南面",22.339741,110.682473,22.336810,110.671504,1
"4509222012B00691","f61612cc-7a7d-4558-95ae-f831d436be62","广西壮族","玉林市","陆川县","陆川县平乐镇平乐街",22.534774,110.298667,22.547440,110.273680,1
"4509812010A00250","f4e307f6-7ff1-4bc4-88c1-ea70ae2c6eb0","广西壮族","玉林市","北流市","北流市城区清湖路（原农机公司用地）",22.723165,110.360379,22.725544,110.347448,1
"4509222010B00726","362b32c6-2798-49a0-b4a0-d7a92fabd410","广西壮族","玉林市","陆川县","陆川县米场镇通政路与江滨路之间",22.324676,110.270950,22.321120,110.260560,1
"4509222015B01087","385a2c2e-b9bb-443d-b7d0-da0ec70f72e6","广西壮族","玉林市","陆川县","陆川县温泉镇三峰东路以南龙腾家园以西",22.315396,110.276641,22.311818,110.266880,1
"4509222015B01020","64fd5766-7b1c-4709-8de3-834abca51d32","广西壮族","玉林市","陆川县","陆川县城区三峰路地块",22.316112,110.268668,22.323966,110.259760,1
"4509812016B00190","70ba1b2a-d6dc-4ecb-94a5-9b3f6e6a9dfa","广西壮族","玉林市","北流市","永安路西侧",22.709642,110.360998,22.639062,110.160008,1
"4509812016B00126","bd1a81cf-f256-4fc3-94e6-385e7a5a2f4d","广西壮族","玉林市","北流市","永安路西侧",22.709642,110.360998,22.639062,110.160008,1
"4509002014B00366","184cffa9-2f9d-4a91-a827-2efef2058ff8","广西壮族","玉林市","玉州区","玉林市二环北路南面、清宁路西侧",22.666737,110.166545,22.641530,110.133432,1
"4509002016B00880","a2288d1f-bca7-4336-9114-e75d8914bc2d","广西壮族","玉林市","玉州区","玉林市玉东新区二环东路与江滨东路交叉口东南侧",22.662983,110.216160,22.650370,110.183760,1
"4509232012B00158","d182ba54-9002-4a4f-8df7-8e6aa29b0778","广西壮族","玉林市","博白县","县城区人民南路西面、乌豆江北面",22.235979,109.979111,22.237200,109.969000,1
"4509812008B00467","91a785f0-0244-4325-912d-a76b39703185C","广西壮族","玉林市","容县","旧北茂公路甘村路段",22.761034,110.535275,22.113908,109.905408,1
"4509242012B00033","7f422eed-faab-44c3-bac6-c04dd8e016f0","广西壮族","玉林市","兴业县","兴业县大平山工业区（大平山镇大苏村路口）",22.665734,110.000559,22.661868,109.996768,1
"4509222015B01246","c96fa2bd-8c06-465e-a6fc-f8dcbf9cf846","广西壮族","玉林市","陆川县","陆川县珊罗镇六燕村C-03-02-1",22.567473,110.186658,22.563496,110.185856,1
"4509222014B00351","f81460da-9b64-4b38-98da-b6185dc129ab","广西壮族","玉林市","陆川县","陆川县清湖镇清湖街（红山农场八队班二号山）",22.029132,110.343622,22.028286,110.315864,1
"4509812013B00064","bd34a2e4-34ff-4e27-9a4d-4a002cb5bebd","广西壮族","玉林市","玉州区","二环北路南面",22.666737,110.166545,22.639062,110.160008,1
"4509222009B00749","f191d6af-e33b-4946-9cfd-ffd3b473e526","广西壮族","玉林市","陆川县","陆川县清湖镇清湖街",22.038913,110.352570,22.032336,110.343568,1
"4509812016B00034","3c6db7d4-b955-41f2-902d-495a6789859a","广西壮族","玉林市","北流市","北流市印刷厂北面",22.713958,110.360570,22.704310,110.346472,1
"4509232011B00032","1e42d8e6-6691-4f12-860d-e83650a3b88e","广西壮族","玉林市","博白县","旺茂镇南街（老政府所在地）",22.097480,109.923543,22.857510,110.549248,1
"4509232010B00102","50a788c4-4cac-4ad7-9b5a-16fc3a946850","广西壮族","玉林市","博白县","博白镇兴隆中路",22.277988,109.986635,22.275000,109.976304,1
"4509222015B00571","1bb161cd-3e62-453e-b113-57596ea891fc","广西壮族","玉林市","陆川县","陆川县沙湖镇新街村沙湖蓄电池厂北",22.365059,110.191530,22.359840,110.175944,1
"4509002011B00177","1955ae5c-b182-41c8-a8a2-84afe800c666","广西壮族","玉林市","玉州区","玉林市福绵管理区天河路北侧",22.590907,110.066155,22.471250,110.078680,1
"4509812008B00560","2c29da3b-4298-435b-b060-e2ed0c72d3b5","广西壮族","玉林市","北流市","南广高速公路北流引道出口旁",22.713958,110.360570,22.732726,110.317448,1
"4509232010B00132","d6d67e85-5ed0-4b62-bb2d-15554c9c36ff","广西壮族","玉林市","博白县","博白县东平镇玉沙公路西北面",22.027600,109.856194,22.007290,109.819224,1
"4509002010A00129","264b49da-6d5b-4be2-95ad-c6232f9dfb7d","广西壮族","玉林市","玉州区","玉林市玉东新区、石牛路与金盾路交叉口西北侧、玉林市武警支队南侧",22.663427,110.191123,22.654110,110.186376,1
"4509002009A00217","ba60302e-4b05-423f-adde-4d6a1127a012","广西壮族","玉林市","玉州区","玉林市城东新区，玉林技工学校西北侧",22.658968,110.207372,22.639062,110.160008,1
"4509002009B00268","31a27bfb-f56b-4062-b8c4-b830329888bf","广西壮族","玉林市","玉州区","玉林市玉公公路东侧、二环南路北面，玉柴工业园一期用地内地块五",22.586531,110.133986,22.692212,110.349120,1
"4509232008B00197","5faa00ec-d23c-43a0-9771-1a3598c099cb","广西壮族","玉林市","玉州区","双凤社部",22.659831,110.188453,22.639062,110.160008,1
"4509232011B00156","526462a4-bbef-4bc7-b641-d33f0dd5f279","广西壮族","玉林市","博白县","博白县龙潭镇白树村、长岭村(C地)",21.737976,109.760928,21.676440,109.742000,1
"4509232011B00140","5ec475bc-9e8d-4d90-bb08-45068a1956e4","广西壮族","玉林市","博白县","博白县龙潭镇白树村、长岭村(B地)",21.737976,109.760928,21.676440,109.742000,1
"4509242010B00025","da2775a1-d44f-463e-859e-57cc3dcf20bf","广西壮族","玉林市","兴业县","兴业县城南区香山华府南侧",22.739561,109.876036,22.739394,109.870960,1
"4509002007B01077","2b365e78-5dd0-48dc-960b-9641f0d7b4ed","广西壮族","玉林市","玉州区","玉林市福绵管理区福西村西北侧地块68",22.590907,110.066155,22.600344,110.013112,1
"4509002007B00489","a8c9e448-c6dd-428e-a2f2-46d55a3f51a9","广西壮族","玉林市","玉州区","玉林市福绵管理区福西村西北侧地块9",22.590907,110.066155,22.600344,110.013112,1
"4509002007B01117","42d17659-c73c-442e-b997-c1ec174f23dc","广西壮族","玉林市","玉州区","玉林市福绵管理区福西村西北侧地块72",22.590907,110.066155,22.600344,110.013112,1
"4509002007B00937","813b84a8-7e68-4a57-8973-c2fb83442183","广西壮族","玉林市","玉州区","玉林市福绵管理区福西村西北侧地块54",22.590907,110.066155,22.600344,110.013112,1
"4509002014B00796","699f257f-a6d9-4462-9102-10dfdd6f3941","广西壮族","玉林市","玉州区","玉林市金港路东侧、云良路南侧",22.623389,110.184874,22.617692,110.186792,1
"4509812007B00166","bfad811f-ae0a-48db-ac8d-2996e14bb3a5","广西壮族","玉林市","北流市","北流市原自行车零件厂27号",22.713958,110.360570,22.700510,110.341520,1
"4509812007B00056","c734a862-48a6-447e-96d3-8e4e316cd662","广西壮族","玉林市","北流市","北流市原自行车零件厂15号",22.713958,110.360570,22.700510,110.341520,1
"4509812007B00075","e69c73bd-019b-442d-b037-5570d3da253a","广西壮族","玉林市","北流市","北流市原自行车零件厂17号",22.713958,110.360570,22.700510,110.341520,1
"4509812007B00147","8cdffecb-d6ae-4bd3-84b3-93ac9113c008","广西壮族","玉林市","北流市","北流市原自行车零件厂25号",22.713958,110.360570,22.700510,110.341520,1
"4509812007B00205","dd83bd07-972c-43a9-8442-7ca286120aca","广西壮族","玉林市","北流市","北流市原自行车零件厂32号",22.713958,110.360570,22.700510,110.341520,1
"4509812016B00338","da763aa6-6bd1-42dc-a223-6a0b92637a01","广西壮族","玉林市","玉州区","永顺新区西河南面",22.627351,110.057001,22.694720,110.338040,1
"4509002010B00419","21dba3f5-1289-4ae4-a986-55af903aae1e","广西壮族","玉林市","玉州区","玉林市玉东新区，为民路与文体路交叉口南侧地块一、地块二",22.660184,110.187661,22.650370,110.183760,1
"4509222015B00459","c787e12c-b548-49b0-a020-2ab930da9043","广西壮族","玉林市","陆川县","陆川县米场镇蚁岭马盘二级公路边",22.433880,110.259255,22.403990,110.255080,1
"4509812016B00021","2ba8f5fc-14a6-4df1-bf4a-3cd58b890910","广西壮族","玉林市","北流市","六靖镇桂丰路东面",22.256013,110.531846,22.306724,110.256512,1
"4509232011B00538","b05a2c0c-55e2-41f3-9eee-c4d67575835d","广西壮族","玉林市","玉州区","县城南开发区60米大道南面",22.659831,110.188453,22.843050,110.555264,1
"4509232011B00554","e3eb53b8-07b1-476e-a3b4-8a0ab247e40f","广西壮族","玉林市","玉州区","县城南开发区60米大道南面",22.659831,110.188453,22.843050,110.555264,1
"4509812011B00318","74337de8-3db3-4e80-b358-ece82b88e863","广西壮族","玉林市","北流市","城区沿江路北流镇陵城初级中学东南面",22.718747,110.369016,22.689590,110.348224,1
"4509002009B00053","2327c3d4-6f37-4719-9afe-95703fc0f577","广西壮族","玉林市","玉州区","玉林市玉柴工业园坡塘工业区、玉公公路西面",22.578194,110.129489,22.237200,109.969000,1
"4509232018B00036","d47de5c9-67d9-41f3-933a-9835f4554c0b","广西壮族","玉林市","博白县","博白县城区规划40米东风北路的西面、规划18米道路的南面",22.277048,109.993912,22.255280,109.984488,1
"4509002011B00591","8328e4c5-9fd8-4cb9-b197-1baf9efedcd4","广西壮族","玉林市","玉州区","玉林市福绵管理区万福村车陂江西侧",22.590907,110.066155,22.571094,110.029736,1
"4509212010B00267","00a2f1c4-4743-4bb9-8492-e84c3b079d44","广西壮族","玉林市","容县","容州镇厢南村广西容县菱通竞业电子有限公司南侧S2地块。",22.845325,110.575605,22.842500,110.564688,1
"4509002018B01772","1a766720-5992-46cb-bcc5-94300123c852","广西壮族","玉林市","玉州区","玉林市福绵区樟木镇中村（地块二十二）",22.524043,110.022703,22.539796,110.063192,1
"4509002016B00505","293ff8a1-3c3d-4334-83f7-714314e712fa","广西壮族","玉林市","玉州区","玉林市玉州区城北街道高山村松城圩",22.698963,110.153828,22.695418,110.142824,1
"4509002017A00010","5a04c3fc-ba3f-4da5-b3ee-07f2ce154c80","广西壮族","玉林市","玉州区","玉林市玉东新区教育东路南侧、秀水路西侧",22.662983,110.216160,22.650370,110.183760,1
"4509222009B00291","f17ad93c-30de-4e07-bdb2-786ee0a0b66b","广西壮族","玉林市","陆川县","陆川县温泉镇万丈村富龙塘队",22.313366,110.264092,22.311780,110.252224,1
"4509222016B00329","802052db-d6ab-4f9d-ac35-67b66fc72c63","广西壮族","玉林市","陆川县","陆川县温泉镇三峰路12米街南、回建区10栋",22.316112,110.268668,22.312656,110.258648,1
"4509002016B00025","980f6e63-59ab-4f0c-beb1-dec4a3c83a97","广西壮族","玉林市","玉州区","玉林市玉东新区九岭路与东秀路交叉口北侧",22.662983,110.216160,22.650370,110.183760,1
"4509812018A00557","bc976169-8973-4d25-9661-40f31980eff3","广西壮族","玉林市","北流市","民乐镇石垌村",22.832190,110.307729,22.828660,110.296680,1
"4509002017B00848","c2d71abe-6fb7-49c7-9149-1df8d0870ed0","广西壮族","玉林市","玉州区","玉林市玉州区城西街道玉豸村",22.612903,110.126287,22.606154,110.119288,1
"4509222017B00120","eaba2353-c324-4172-aef2-67b38f4392f1","广西壮族","玉林市","陆川县","陆川县温泉镇万丈村付龙塘队（县城三峰西路以北、黎湛铁路以西）",22.313366,110.264092,22.311780,110.252224,1
"4509812007B01212","b004319f-f19e-4581-9081-12a3ca197061","广西壮族","玉林市","玉州区","原永丰水果市场用地（市园林管理处对面）",22.630560,110.165041,22.696450,110.344960,1
"4509812007B01236","a32ec571-c5ae-4a07-8c74-7ad56f33882c","广西壮族","玉林市","玉州区","原永丰水果市场用地（市园林管理处对面）",22.630560,110.165041,22.696450,110.344960,1
"4509812007B01169","36663e2f-e567-4f6b-9aa4-ec5110c67f75","广西壮族","玉林市","玉州区","原永丰水果市场用地（市园林管理处对面）",22.630560,110.165041,22.696450,110.344960,1
"4509812007B01557","4b01cb20-0961-43da-b984-0ea9112a9d2c","广西壮族","玉林市","玉州区","原永丰水果市场用地（市园林管理处对面）",22.630560,110.165041,22.696450,110.344960,1
"4509812007B01116","3513bb33-b05b-44b8-8817-06bcebb6eb54","广西壮族","玉林市","北流市","一环南路与玉容一级公路交汇处南面",22.701902,110.363398,22.699872,110.353400,1
"4509812007B01122","2a061bbd-1fdb-480c-b471-ed7f68cddea2","广西壮族","玉林市","北流市","一环南路与玉容一级公路交汇处南面",22.701902,110.363398,22.699872,110.353400,1
"4509812007B01136","14f86056-bc76-44ac-a50f-9f1e3a70fe72","广西壮族","玉林市","北流市","一环南路与玉容一级公路交汇处南面",22.701902,110.363398,22.699872,110.353400,1
"4509812007B01088","8fd34924-2247-46ed-9112-c76702ee878a","广西壮族","玉林市","北流市","一环南路与玉容一级公路交汇处南面",22.701902,110.363398,22.699872,110.353400,1
"4509812007B01035","f67e2ffa-5930-4884-a28b-166700887c8a","广西壮族","玉林市","北流市","一环南路与玉容一级公路交汇处南面",22.701902,110.363398,22.699872,110.353400,1
"4509812007B00916","2bd7607e-132d-4a3a-9eef-01759ae71101","广西壮族","玉林市","北流市","城区城西二路(原农科所用地)",22.708639,110.340688,22.704974,110.323528,1
"4509812007B00950","baa4a87a-78f9-413d-930f-41ba3a61fa23","广西壮族","玉林市","北流市","城区城西二路(原农科所用地)",22.708639,110.340688,22.704974,110.323528,1
"4509812010B00655","0f605eb6-80a7-4ca9-9704-ec35de8e3428","广西壮族","玉林市","玉州区","城区山根塘",22.659831,110.188453,22.639062,110.160008,1
"4509212014B00120","24a12f28-8662-47c7-a1bc-96f7aa2ad066","广西壮族","玉林市","玉州区","玉容一级公路南面西厢南收费亭东侧",22.659831,110.188453,22.600520,110.156600,1
"4509232013B00316","586fa917-7ef9-49f7-af14-7ce1078a3093","广西壮族","玉林市","博白县","博白县龙潭镇长岭村（C地块）",21.737976,109.760928,21.685106,109.734104,1
"4509232013B00347","3131b4a4-4ffc-462f-b2bb-c733a397d49c","广西壮族","玉林市","博白县","博白县龙潭镇长岭村（F地块）",21.737976,109.760928,21.685106,109.734104,1
"4509232013B00328","c52ffc3a-b292-4d34-9eed-6de79321e101","广西壮族","玉林市","博白县","博白县龙潭镇长岭村（E地块）",21.737976,109.760928,21.685106,109.734104,1
"4509222018A01226","6af055e6-cb80-4032-9535-7dad059907d7","广西壮族","玉林市","陆川县","陆川县古城镇盘龙村",21.916237,110.347475,21.913172,110.336432,1
"4509812011B00574","1270332d-b0b1-4ec5-9994-2991b1936f1d","广西壮族","玉林市","北流市","清湾镇平旦村北宝二级公路边",22.235946,110.592213,22.230596,110.586328,1
"4509242010B00055","7c0be1d0-2c3a-48f6-893d-44a60457a2ce","广西壮族","玉林市","兴业县","大平山镇工业集中区",22.672239,109.975228,22.550260,110.184672,1
"4509002008B00569","915ec5aa-2107-4b45-b355-edaca68cae29","广西壮族","玉林市","玉州区","玉林市江南区江南路西侧、玉林制药有限公司和金鞍路南侧",22.621517,110.172120,0.000000,0.000000,1
"4509222016B00431-1","e0ed21fb-233f-481d-937a-4585b09d4e98","广西壮族","玉林市","陆川县","陆川县城区远辰大道以东地块A-12",22.327222,110.270456,22.323966,110.259760,1
"4509002007B00065","f6893f2b-7833-4d7f-8007-d3d7652247af","广西壮族","玉林市","玉州区","玉林市人民东路北侧地块九",22.651689,110.190952,22.641200,110.166992,1
"4509232010B00327","0be48a40-5820-43b5-9835-8a8fe5233992","广西壮族","玉林市","博白县","宁潭镇兴宁路068号",22.026647,110.137423,22.022700,110.128384,1
"4509812007B00352","b6b7fe67-0a0c-4b5b-b029-1bc4d27527b8","广西壮族","玉林市","北流市","北流市一环南路尾",22.701902,110.363398,22.699872,110.353400,1
"4509812007B00392","0615f583-51d9-4c5d-a711-f6353641fe69","广西壮族","玉林市","北流市","北流市一环南路尾",22.701902,110.363398,22.699872,110.353400,1
"4509812007B00376","a410aa6e-101e-45fc-a59e-936a48e31eb5","广西壮族","玉林市","北流市","北流市一环南路尾",22.701902,110.363398,22.699872,110.353400,1
"4509232017B01346","b7ab8263-af83-414f-8c7f-1d5deddbee51","广西壮族","玉林市","博白县","博白县东平镇博龙街149号",22.010277,109.829306,22.005770,109.816544,1
"4509232015B00421","9c1bb131-cb83-43f6-be84-6615e4551dd7","广西壮族","玉林市","博白县","博白县博白镇官田村五里庙",22.247114,109.985763,22.271660,109.984672,1
"4509242013B00030","7140ab90-d256-4a39-82ee-91b93f9a2260","广西壮族","玉林市","兴业县","兴业县城隍镇鹿峰山",22.631077,109.736709,22.624210,109.780808,1
"4509222013B00629","cdfdcdef-5894-446f-bb57-19ef3db4e090","广西壮族","玉林市","陆川县","陆川县城通政西路南地块",22.327222,110.270456,22.323966,110.259760,1
"4509212013B00258","6a7a9834-eb77-4e88-8110-e2798f876fb9","广西壮族","玉林市","容县","容县自良镇龙镇村地块",23.074769,110.654286,22.639062,110.160008,1
"4509222013B00937","4ea5e868-53e0-4b8c-a03a-e97a88e44465","广西壮族","玉林市","陆川县","陆川县城官田垌开发区",22.327222,110.270456,22.320634,110.285496,1
"4509812014B00039","46012867-7564-489c-ba9f-72373c91efc8","广西壮族","玉林市","北流市","北流市二桥至三桥圭江东岸",22.737190,110.411914,22.701120,110.358912,1
"4509222015B00391","f4754357-8990-4d9e-b315-3f668fe95b0e","广西壮族","玉林市","陆川县","陆川县城南官田垌开发区",22.327222,110.270456,22.323966,110.259760,1
"4509002007B00022","598fa0db-9c90-4b28-9bb6-8f318dd50f1a","广西壮族","玉林市","玉州区","玉林市江南区，民主南路与万良路交叉口南侧",22.621983,110.178961,22.639062,110.160014,1
"4509002007B00036","b188b39b-3b06-40ab-9f07-f5b4ec29407a","广西壮族","玉林市","玉州区","玉林市江南区，民主南路玉中山路交叉口北侧",22.611725,110.184696,22.784610,108.269210,1
"4509232017B01456","b5d29845-ce5b-4052-be5a-443e3f98ff4e","广西壮族","玉林市","博白县","博白县亚山镇四和村",22.187573,109.964501,22.186050,109.951064,1
"4509232018A00496","a21d4b56-90ed-40ee-895c-aa9a05a120e5","广西壮族","玉林市","博白县","博白县教育园区",22.278675,109.982553,22.276004,109.971992,1
"4509812018A00506","f493842e-82f2-4e97-97ef-c115582b4696","广西壮族","玉林市","北流市","玉容一级公路边红领巾水库西面",22.720938,110.391032,22.854700,110.540960,1
"4509002018A01957","302a0453-2fcf-470e-9abb-c3c0f0b160ba","广西壮族","玉林市","玉州区","玉林市五彩田园",22.676269,110.298382,22.645300,110.289728,1
"4509002018A01979","a7fc4a60-7991-4461-8f4c-ca4e3cda707a","广西壮族","玉林市","玉州区","玉林市玉东新区",22.662983,110.216160,22.650370,110.183760,1
"4509002018A02067","6da7589a-6f4c-45cf-a2a6-32233e69cd7a","广西壮族","玉林市","玉州区","玉林市龟山公园侧",22.691537,110.217466,22.688660,110.206400,1
"4509242018A00180","b682fb94-042d-474d-8cc8-ffb0b035bd56","广西壮族","玉林市","兴业县","兴业县城西区环江二号",22.742268,109.881552,22.739394,109.870960,1
"4509242018A00216","ff70cc82-93c7-434f-b534-bb24792572cd","广西壮族","玉林市","兴业县","兴业县城南区旧城二号",22.742268,109.881552,22.727252,109.862336,1
"4509242018A00235","6aa4d8e7-289e-4a23-a366-f900d1e0af3c","广西壮族","玉林市","兴业县","兴业县城南区",22.742268,109.881552,22.775090,110.087576,1
"4509002013B00297","dd254ccd-e22c-4b3b-84ee-e9fb0883ec95","广西壮族","玉林市","玉州区","玉林市十里长街水浸社",22.634372,110.155447,22.425772,109.880680,1
"4509242007A00028","9d9d6804-e992-4d3a-95a0-2c9a42243bf8C","广西壮族","玉林市","兴业县","兴业县广场东侧",22.742268,109.881552,22.739394,109.870960,1
"4509222015B00070","7cfb109e-17e6-4fc4-bbf3-41a2852310a5","广西壮族","玉林市","陆川县","陆川县温泉镇三峰东路以南、龙腾家园以西",22.315396,110.276641,22.311818,110.266880,1
"4509812011B00196","68388951-b0c7-4360-9f10-313931715388","广西壮族","玉林市","北流市","六靖镇桂丰路东面",22.256013,110.531846,22.306724,110.256512,1
"4509812011B00021","c4bf5e58-95d7-49b0-9294-c0339a486feb","广西壮族","玉林市","玉州区","城区沿江南路104号宗地东南面",22.625222,110.159917,22.622850,110.158520,1
"4509232009B00307","eecc08bf-9e44-428d-9f2e-2d81fe96e597","广西壮族","玉林市","博白县","博白镇城东工业园",22.284831,110.007993,22.271128,109.986872,1
"4509232009B00286","92aa09c2-9659-4c04-862b-f40b3971aa21","广西壮族","玉林市","博白县","文地镇工业园",21.956974,110.157194,22.847700,110.559056,1
"4509222016B00921","3a5f9966-cad1-430e-adb0-1cb727626004","广西壮族","玉林市","陆川县","陆川县温泉镇万丈村、中屯村A14－1",22.330521,110.281446,22.311780,110.252224,1
"4509002011A00655","5228be1f-1d66-4563-9f6f-c3265606cbb0","广西壮族","玉林市","玉州区","玉林市民主北路西面",22.652994,110.155464,22.651354,110.143832,1
"4509812016B00467-1","85714b6a-2342-46b2-b649-aede1617173f","广西壮族","玉林市","北流市","北流市荔枝场新区鼎盛世家东南面",22.682950,110.353509,22.680790,110.342296,1
"4509222010B00282","7b5a1c2d-527d-476b-85c1-809f1d93c170","广西壮族","玉林市","陆川县","清湖镇道班斜对面",22.038913,110.352570,23.002828,110.589456,1
"4509002012B00516","198f8879-0311-4d7f-8498-131c90370807","广西壮族","玉林市","玉州区","玉林市玉东新区玉东大道与金榜路交叉口东侧",22.662983,110.216160,22.650370,110.183760,1
"4509002010A00665","eb513248-cdaa-4a9e-b0ba-00b59e7d2471","广西壮族","玉林市","玉州区","玉林市二环北路南侧",22.666737,110.166545,22.639062,110.160008,1
"4509222012B00019","921046ba-283d-416c-9444-434ec3a6ad28","广西壮族","玉林市","陆川县","温泉镇温泉村",22.323472,110.273964,22.557798,110.727888,1
"4509812007B00834","c04584f0-d2c1-4eda-b969-ddc1f0ac0286","广西壮族","玉林市","北流市","城中路山根塘",22.706503,110.361087,22.703436,110.349976,1
"4509002007A00258","63fddeeb-d46e-41e8-aba7-7cca38165c09","广西壮族","玉林市","玉州区","玉林经济开发区二环东路南侧",22.635633,110.200294,22.643734,110.160160,1
"4509232017B01200","c4973bf9-ce95-4ab9-a20b-662b72047f10","广西壮族","玉林市","博白县","博白县城东新区,城东大道的东面",22.278675,109.982553,22.276004,109.971992,1
"4509212018A00927","4c502a47-682e-4123-857e-b72ea93adc38","广西壮族","玉林市","容县","容州镇厢南社区",22.877733,110.515697,22.845314,110.554552,1
"4509212018A00545","6fd9dd1d-2361-4842-9dcb-89ddd0fde9ad","广西壮族","玉林市","玉州区","卓源木业东南侧",22.659831,110.188453,22.826420,110.530056,1
"4509212018A00725","9da7bc2a-80f5-4418-8192-d7f113612eb0","广西壮族","玉林市","容县","石寨镇大华村",22.825803,110.549462,22.820186,110.543640,1
"4509812018A00679","9b6845f2-89b4-4fd9-bb2e-7e38ef519b6a","广西壮族","玉林市","北流市","荔枝场新区",22.215614,110.430489,22.212174,110.419400,1
"4509812018A00626","829293dd-6ede-4eb5-8fdd-32d8d0658726","广西壮族","玉林市","容县","民乐镇工业大道",22.865071,110.547490,22.789480,110.355408,1
"4509812007B00527","ee7528ad-b19f-49eb-b19f-44e3a9e9f2d0","广西壮族","玉林市","北流市","北流市沿江路原酒厂地块",22.718747,110.369016,22.711180,110.349688,1
"4509812017A00614","a3819d87-eb82-4488-a691-64beb8220359","广西壮族","玉林市","陆川县","旧北宝路丛义村解沙垌西侧",22.252286,110.273092,22.687944,110.352776,1
"4509812007B00590","65b746b1-49fb-4d4e-88bc-6b45a171b38c","广西壮族","玉林市","北流市","北流市城西二路4-5号",22.708622,110.340092,22.711180,110.349688,1
"4509002007B00990","491f18c0-71d1-4ab8-a781-963ce68b4409","广西壮族","玉林市","玉州区","玉林市福绵管理区福西村西北侧地块60",22.590907,110.066155,22.600344,110.013112,1
"4509242017B00071","82d06962-05b4-4249-b976-0b7b7930c89c","广西壮族","玉林市","兴业县","兴业县大平山镇工业园区",22.672239,109.975228,22.679648,109.950928,1
"4509212018A00830","02f0fea1-2a68-4bbd-b637-32e953c9b177","广西壮族","玉林市","容县","容州镇大明村",22.899488,110.560455,22.893818,110.554600,1
"4509212018A00956","c6b7adca-864b-4b32-b730-0a613b87b25a","广西壮族","玉林市","容县","容州镇厢南社区",22.877733,110.515697,22.845314,110.554552,1
"4509212018A00588","e6e4e975-975d-48f3-ae4b-3d21407c0b75","广西壮族","玉林市","玉州区","卓源木业东南侧",22.659831,110.188453,22.826420,110.530056,1
"4509212018A00899","ad97d3fa-c6d7-4183-bdeb-a1c6afaa7cd6","广西壮族","玉林市","容县","十里镇泗登村",22.882704,110.573097,22.639062,110.160008,1
"4509222017B00310","0d50cd50-4b64-4527-9922-2cd0ebdf827a","广西壮族","玉林市","陆川县","陆川县温泉镇东山村牛黄社（陆川县城城东新区）",22.319089,110.286986,22.312420,110.281256,1
"4509232017B01178","c190274f-86b5-480a-8bff-617786f4d043","广西壮族","玉林市","博白县","博白县城东新区，经一路的东面",22.278675,109.982553,22.276004,109.971992,1
"4509812007B00294","25ffae3b-e9ae-43bc-8e4a-ee71cae8c629","广西壮族","玉林市","北流市","北流市富达花园北面18号",22.698385,110.360337,22.695900,110.349120,1
"4509812007B00239","7d7eddf0-e9f5-4bfa-850c-06b2dfc8f13b","广西壮族","玉林市","北流市","北流市富达花园北面1号",22.698385,110.360337,22.695900,110.349120,1
"4509812007B00257","554bebc3-ac64-42da-83f9-0649729e0ca4C","广西壮族","玉林市","北流市","北流市富达花园北面5号",22.698385,110.360337,22.695900,110.349120,1
"4509222017B00439","d79dbf90-6739-47c2-827b-a0547ad8e7d3","广西壮族","玉林市","陆川县","陆川县温泉镇三峰东路以南、龙腾家园以西",22.315396,110.276641,22.311818,110.266880,1
"4509002007B00662","47583a55-2049-4c94-9c5c-297af669b51f","广西壮族","玉林市","玉州区","玉林市福绵管理区福西村西北侧地块27",22.590907,110.066155,22.600344,110.013112,1
"4509002007B01049","54d786d3-869c-434f-8930-244a8e07e2d8","广西壮族","玉林市","玉州区","玉林市福绵管理区福西村西北侧地块65",22.590907,110.066155,22.600344,110.013112,1
"4509212018A00177","70047d4c-f582-492a-9f77-f61e17f26efb","广西壮族","玉林市","容县","容州镇育才路北侧",22.864846,110.565833,22.859620,110.551960,1
"4509212018A00210","eebc79c3-5f2d-407b-b1d6-05de2e10e20b","广西壮族","玉林市","容县","容州镇育才路北侧",22.864846,110.565833,22.859620,110.551960,1
"4509212018A00660","1c492a67-adad-43bf-9120-b5342354ce57","广西壮族","玉林市","容县","容州镇厢南社区",22.877733,110.515697,22.845314,110.554552,1
"4509212018A00566","1c4d029d-35ff-408c-b677-c7b0fe1368e9","广西壮族","玉林市","玉州区","卓源木业东南侧",22.659831,110.188453,22.826420,110.530056,1
"4509212018A00145","36b223e1-1543-4a49-aea9-6f53b31ae8ac","广西壮族","玉林市","容县","容州镇育才路北侧",22.864846,110.565833,22.859620,110.551960,1
"4509212018A00357","608dfe81-d345-4660-8ddd-7dceaf8bc7a2","广西壮族","玉林市","容县","容州镇育才路北侧",22.864846,110.565833,22.859620,110.551960,1
"4509212018A00199","b35c4c01-d32a-4780-859c-758e2d3b494b","广西壮族","玉林市","容县","容州镇育才路北侧",22.864846,110.565833,22.859620,110.551960,1
"4509212018A00132","d2c34612-a486-4f31-8629-7a93fce9f88e","广西壮族","玉林市","容县","容州镇育才路北侧",22.864846,110.565833,22.859620,110.551960,1
"4509222017B00107","c905f485-f4f1-4e6c-92da-de8789e755fa","广西壮族","玉林市","陆川县","陆川县清湖镇清湖村E-4-02",22.037543,110.350253,22.034672,110.338688,1
"4509222017B00070","d421eda3-2bd3-4796-8a97-8c9506a45eea","广西壮族","玉林市","陆川县","陆川县大桥镇大桥、三善村地块B03-02、B04-02、B05-01",22.243259,110.242333,22.234110,110.237712,1
"4509812007B01702","602882a6-d451-40a4-9db5-fd8f4a9ba0c2","广西壮族","玉林市","玉州区","旧324国道北侧",22.674222,110.036220,22.639062,110.160008,1
"4509812007B01481","3ff8b52e-d5c9-4983-951e-4b1cc0e26b45","广西壮族","玉林市","玉州区","原永丰水果市场用地（市园林管理处对面）",22.630560,110.165041,22.696450,110.344960,1
"4509812007B01645","3da21af9-8f4c-40e0-8075-6eb10ff091c9","广西壮族","玉林市","玉州区","原永丰水果市场用地（市园林管理处对面）",22.630560,110.165041,22.696450,110.344960,1
"4509812007B00856","b05132ca-13bd-4fac-8e04-e405e2a3d7b1","广西壮族","玉林市","容县","城区城北路",22.866156,110.556731,22.639062,110.160008,1
"4509002007B00046","c1bcedde-04d2-4f44-a401-a6617684cba6","广西壮族","玉林市","玉州区","玉林市江南区、金港路东北侧、中山路东段东南侧",22.623389,110.184874,0.000000,0.000000,1
"4509002009B00038","f749d91b-34f9-4e29-baf9-b91173b0e828","广西壮族","玉林市","玉州区","玉林市城东新区，为民路南侧、市人防办用地东侧",22.660184,110.187661,22.639062,110.160008,1
"4509002007B00578","04b5ae85-3ad4-4417-9a33-e40ce31039b9","广西壮族","玉林市","玉州区","玉林市福绵管理区福西村西北侧地块18",22.590907,110.066155,22.600344,110.013112,1
"4509002007B00098","dafdad1d-df30-433c-a77f-cc9a9e27f1c2","广西壮族","玉林市","玉州区","玉林市江南区江南路西侧",22.621517,110.172120,0.000000,0.000000,1
"4509232018A00517","8b0fe157-d77a-4074-a58a-7f77964fa437","广西壮族","玉林市","博白县","博白县教育园区",22.278675,109.982553,22.276004,109.971992,1
"4509212017B00921","c5b87112-1aa3-4bef-9406-376a797a70c8","广西壮族","玉林市","容县","玉林市德善健康发展投资有限责任公司北侧地块二（碧桂园北侧）",22.838245,110.555993,22.668080,110.335280,1
"4509222017B00371","91730623-7b77-4d21-9d40-9d35a51899ef","广西壮族","玉林市","陆川县","陆川县城三峰东路以南回建区5栋",22.316296,110.277880,22.311818,110.266880,1
"4509232017B01476","3f7f1d47-b4e6-4d97-bad3-dde3e46dc6f5","广西壮族","玉林市","博白县","博白县亚山镇狗儿巷",22.183725,109.932113,22.198760,109.944848,1
"4509232017B01259","234013a3-75a7-41e7-b0f8-1307d228592e","广西壮族","玉林市","博白县","博白县旺茂镇旺茂村",22.116724,109.913857,22.113042,109.903040,1
"4509222010B00036","dfe6fb7f-f61f-488b-8b73-70b6d1313cebC","广西壮族","玉林市","陆川县","陆川县米场镇米场街",22.409517,110.265202,22.323966,110.259760,1
"4509002007B00528","c6ac8091-0f60-4368-b40f-4a8bfc49c0d4","广西壮族","玉林市","玉州区","玉林市福绵管理区福西村西北侧地块13",22.590907,110.066155,22.600344,110.013112,1
"4509242007A00016","1651bcbb-80db-4d49-91d6-3793de7155ab","广西壮族","玉林市","兴业县","石南镇环城小区牛麻垌",22.747625,109.882255,22.467066,110.487824,1
"4509812007B00785","a7da7d4b-b499-4f81-a67c-fb40b908051a","广西壮族","玉林市","玉州区","城区沿江南路一里4号宗地",22.625302,110.158811,22.622850,110.158520,1
"4509222013B00985-1","a4f95aa4-70aa-4057-87f5-d737521520cc","广西壮族","玉林市","陆川县","陆川县城检察院东侧",22.327222,110.270456,22.323966,110.259760,1
"4509002017B00066","b5f3d4ee-00e3-4006-a142-904a999adc71","广西壮族","玉林市","玉州区","玉林市富民路170-6、7号",22.625848,110.142787,22.639062,110.160008,1
"4509232011B00015","711e6d25-ec63-4d01-a2db-4eb812d90f03","广西壮族","玉林市","博白县","博白县玉公二级公路东面(县城东工业园区内25号地)",22.286290,110.009779,21.676960,109.724840,1
"4509812007B00800","0aec47bd-39c4-4f79-ab3a-cdc6e495081d","广西壮族","玉林市","北流市","城区城南一路(新芝小学对面)",22.706623,110.357719,22.710656,110.346240,1
"4509232010B00661","fa8d9524-fcbd-4aa3-b334-2828b30cbb0a","广西壮族","玉林市","博白县","博白镇朝阳西路052号",22.282993,109.981674,22.271128,109.986872,1
"4509812007B00727","97308ffc-3efc-43d1-b763-6e5ff27b373c","广西壮族","玉林市","北流市","城中路山根塘",22.706503,110.361087,22.703436,110.349976,1
"4509812008B00538","7ec54891-4e72-4974-998a-a8d58e728872","广西壮族","玉林市","北流市","西埌镇政府会堂东面",22.808120,110.298982,22.756174,110.279752,1
"4509212016B00027","c519a4f5-fe89-4a1e-b8c7-1863ba3c2af8","广西壮族","玉林市","容县","容县经济开发区方圆工艺厂东侧",22.863666,110.564530,22.624600,110.148912,1
"4509812007B00048","9902c5a8-5f24-4bb3-875a-ccbd634aeb10","广西壮族","玉林市","北流市","北流市原自行车零件厂14号",22.713958,110.360570,22.700510,110.341520,1
"4509232017B01358","8d9e5e6a-d96e-4d05-aa91-892712577b3f","广西壮族","玉林市","博白县","博白县龙潭镇白树村(龙潭产业园)",21.680139,109.735295,21.676960,109.724840,1
"4509002017B00049","f2b83b6f-8dec-4787-9cf3-ecdbe53be238","广西壮族","玉林市","玉州区","玉林市二环南路与中秀路交叉口西北侧",22.588268,110.157438,22.601138,110.159560,1
"4509232016B01168","ad3f7234-9fb1-4a11-bdf6-558efcb2303c","广西壮族","玉林市","博白县","博白县文地镇才苏村",21.919133,110.138560,21.915458,110.124288,1
"4509222017B00118","e8708801-c051-4735-b24b-18afb22d7a5e","广西壮族","玉林市","陆川县","陆川县沙湖镇新街村A2",22.365059,110.191530,22.359468,110.185688,1
"4509242014B00125","cd95e680-3c07-4b0a-b280-ac336f0de6f1","广西壮族","玉林市","兴业县","兴业县城西区（A-07-05地块）",22.742268,109.881552,22.739394,109.870960,1
"4509222017B00191","1e2e2f35-bc89-48d6-babe-95f61d2ea5a7","广西壮族","玉林市","陆川县","陆川县城南官田垌开发区",22.327222,110.270456,22.323966,110.259760,1
"4509232018B00709","e2702baa-870c-4110-86fd-6da6d515cd66","广西壮族","玉林市","博白县","博白县文地镇产业园",21.956974,110.157194,21.946002,110.201088,1
"4509002007B00388","6e3dffdb-a370-465d-add2-6e1136fef102","广西壮族","玉林市","玉州区","玉林市二环南路北侧、玉公公路东侧",22.588268,110.157438,22.614492,110.120496,1
"4509232011B00582","216ce51a-ecce-482a-87e2-dd9ed5a23565","广西壮族","玉林市","博白县","博白镇朝阳西路南面和博白镇朝阳西路056号",22.283239,109.981851,22.271128,109.986872,1
"4509002010A00138","2c072a18-6d47-4057-aed7-0caf20209d9f","广西壮族","玉林市","玉州区","玉林市玉公公路西侧",22.659831,110.188453,22.614492,110.120496,1
"4509232010B00125","fd92fab7-b2c8-46ec-87be-4374a6793b35","广西壮族","玉林市","博白县","博白县东平镇玉沙公路旁",22.027600,109.856194,22.004988,109.815504,1
"4509232009B00427","de18ece5-220e-4518-acb6-2d489e3fb9b1","广西壮族","玉林市","博白县","博白镇人民南路",22.235979,109.979111,22.221384,109.960720,1
"4509232015B00762","3b8b2d4b-7605-43c0-a3c5-8b17fb76daab","广西壮族","玉林市","博白县","博白县龙潭镇茅坡村(龙潭产业园)",21.680139,109.735295,21.676960,109.724840,1
"4509222009B00658","c969d861-d4e4-4611-9525-edd05c0c479b","广西壮族","玉林市","陆川县","陆川县温泉路四良桥头北面 ",22.353951,110.275584,22.321620,110.263704,1
"4509002011B00126","51c9b3a1-db7f-4708-8e3b-0db43fd20119","广西壮族","玉林市","玉州区","玉林市玉东新区，经济开发区东片、二环东路与横六路交叉口西北侧",22.637458,110.200533,22.634514,110.191944,1
"4509222012B00310","d34532d2-80d0-4d36-8347-935139ad7033","广西壮族","玉林市","陆川县","陆川县乌石镇乌石新街东路",22.201522,110.335519,22.165530,110.232464,1
"4509232008B00079","1667e146-6223-406c-8abe-fab0b73342d8","广西壮族","玉林市","博白县","江宁镇鸡尾街",22.125300,109.602998,22.159910,109.621224,1
"4509222010B00730","abb76819-7475-41d0-bb41-06cc3f13d09b","广西壮族","玉林市","陆川县","陆川县平乐镇府前路与平南路交汇处",22.534774,110.298667,22.543630,110.275280,1
"4509002012A00029","2181b761-1a25-49b5-bcf8-4958300aa334","广西壮族","玉林市","玉州区","玉林市福绵管理区福绵镇玉福路北侧，洋桥村东侧",22.609015,110.096343,22.592438,110.071376,1
"4509812013B00101","ea93e101-1caa-4881-928f-6fb1ca81dbcd","广西壮族","玉林市","玉州区","民乐会众宏邦食品厂用地西面",22.659831,110.188453,22.783808,110.324848,1
"4509812010A00102","32e41c29-59a4-421d-8f80-966cafc83134","广西壮族","玉林市","北流市","北流市甘村一期廉租住房西南面",22.242808,110.420629,22.239230,110.409560,1
"4509242014B00175","0e4ae2bf-f8c3-416b-8fd8-cb9db400a42c","广西壮族","玉林市","兴业县","兴业县大平山镇机械产业园（B03-09地块）",22.672239,109.975228,22.680030,109.951912,1
"4509212018B00080","52c3d45f-cc97-46af-883e-dda967dd1a40","广西壮族","玉林市","容县","容县景观大道西侧",22.863666,110.564530,22.639062,110.160008,1
"4509002018B01415","3abb8e25-5572-48d7-9747-562ed04a99a6","广西壮族","玉林市","玉州区","玉林市大南路2号",22.588493,110.148557,22.639062,110.160008,1
"4509002009A00313","a9bbc976-ab9b-46c8-9a2d-4db9c9fe9a23","广西壮族","玉林市","玉州区","玉州区仁厚镇上罗村玉石公路南侧",22.669213,110.053682,22.643796,110.106512,1
"4509812009B00598","b7bc4496-13bf-41a1-a09e-d965d179f099","广西壮族","玉林市","北流市","北流市陶瓷城高速公路引道东侧、二环北路北侧及城西二路",22.717408,110.344469,22.720730,110.337792,1
"4509002012B00461","87b97f5e-e25d-40c4-8c4a-dd67c858877e","广西壮族","玉林市","玉州区","玉林市二环北路南侧",22.666737,110.166545,22.639062,110.160008,1
"4509222010B00058","400ac183-dc5e-49a9-b5cc-788bbab86cbc","广西壮族","玉林市","陆川县","陆川县米场镇米场街",22.409517,110.265202,22.323966,110.259760,1
"4509222012B00399","649d6c29-6fce-4eb7-bcf4-d369876a5b29","广西壮族","玉林市","陆川县","陆川县大桥镇大桥街",22.255315,110.227230,22.246150,110.224600,1
"4509232009B00500","d2d38b1f-2d04-4a71-891d-4624190d4b12","广西壮族","玉林市","博白县","凤山镇南路",22.053604,109.998399,22.627250,110.146336,1
"4509222011B00250","f1afa404-f575-4861-ad28-7ef8fd644f0e","广西壮族","玉林市","陆川县","陆川县城北大道西侧",22.327222,110.270456,22.323966,110.259760,1
"4509232011B00246","4ea69f4b-ca5b-4089-b8cd-482e67c49d20","广西壮族","玉林市","博白县","博白县城规划40米人民南路的东面,规划60米玉山二级公司的北面(C地块)",22.235979,109.979111,22.266100,109.977784,1
"4509002010B00346","e792967d-d495-48b1-8c93-d6f524b3aedd","广西壮族","玉林市","玉州区","玉林市玉东新区人民东路（玉容路）茂林镇陂石村南片",22.662983,110.216160,22.682658,110.279832,1
"4509242012B00136","f6459f6a-57da-4359-95cd-54454c8376eb","广西壮族","玉林市","兴业县","兴业县城南区兴业大道南侧",22.739994,109.885752,22.738300,109.877536,1
"4509812010A00249","780ca79a-db80-4656-a1a3-b64aae93dc41","广西壮族","玉林市","玉州区","北流市城西原农科所用地范围内",22.648281,110.186836,22.702600,110.322856,1
"4509222010B00709","c21272ec-4d9d-4844-9f96-b349255216a1","广西壮族","玉林市","陆川县","陆川县城城东新区",22.327222,110.270456,22.323966,110.259760,1
"4509002008B00482","c6aa788c-2b43-47dd-a364-d1ffa9cead62","广西壮族","玉林市","玉州区","玉林市江滨路西北侧",22.628505,110.172153,22.639062,110.160008,1
"4509812011B00526","6fc8a02c-2355-44bb-a7b6-b2c428df3c69","广西壮族","玉林市","玉州区","城区一环北路0001号",22.654147,110.174047,22.642030,110.139200,1
"4509232008B00028","02a74203-0ef5-4c8d-8fc9-57b2c9e08f54","广西壮族","玉林市","博白县","江宁镇鸡尾街",22.125300,109.602998,22.159910,109.621224,1
"4509002017B01320","3b766a5b-cc45-46cd-98d5-d94aac0a64e3","广西壮族","玉林市","玉州区","玉林市玉公公路阳岗段西侧（地块A、地块B）",22.659831,110.188453,22.561252,110.128016,1
"4509812011B00067","772c2fc7-cbd8-45c3-9f93-0a15c163dab3","广西壮族","玉林市","玉州区","新圩镇教育东路东侧,高新技术产业园区用地内",22.682242,110.205979,22.639920,110.153608,1
"4509232011B00269","091f8a86-f82e-43c3-8f14-ab1edbbab6cf","广西壮族","玉林市","博白县","博白县博白镇城东玉沙二级公路东面(博白县城东工业园21号B地块)",22.284831,110.007993,22.281840,109.996784,1
"4509002012B00449","ae1dfbff-1763-4a83-8185-f72644061a72","广西壮族","玉林市","玉州区","玉林市玉公公路以西、二环南路以南，玉柴铸造中心用地西侧地块一",22.596711,110.162508,22.692212,110.349120,1
"4509242012B00110","2aa93d61-32e9-4517-a69f-4ad5eb6dbd8c","广西壮族","玉林市","兴业县","兴业县城区解放路与医院路转角处",22.750983,109.886370,22.739394,109.870960,1
"4509232012B00015","2666364a-4cdf-4f07-9e0b-40d8b07fa3d7","广西壮族","玉林市","博白县","博白县城东工业园",22.284831,110.007993,22.276004,109.971992,1
"4509002011A00691","322d71bb-5703-4a44-a33f-f3119d4f189c","广西壮族","玉林市","玉州区","玉林市玉东新区秀水路与九岭路交叉口南侧",22.662983,110.216160,22.665890,110.209560,1
"4509002014B00069","fac26784-2e41-4244-bc77-0c21b9e16c78","广西壮族","玉林市","玉州区","玉林市城西安居小区",22.631957,110.135216,22.639062,110.160008,1
"4509212015B00745","1dcba993-20b6-4af9-b06a-ba6da563d229","广西壮族","玉林市","容县","容县容黎二级公路东侧",22.863666,110.564530,22.867600,110.541368,1
"4509002010B00597","f82529d1-e662-46f1-800c-1e5909160825","广西壮族","玉林市","玉州区","玉林市玉东新区原城东新区，文体路南侧",22.668836,110.200828,22.650370,110.183760,1
"4509812010B00207","c5e8b81d-a0f0-4750-91bf-92c08b778873","广西壮族","玉林市","北流市","北流市富林塘客运中心北面",22.709623,110.340068,22.709714,110.326376,1
"4509002009A00237","1a730fc2-1639-4c58-8997-119db94996a8","广西壮族","玉林市","玉州区","玉林市城东新区，秀水路东北侧",22.659831,110.188453,22.639062,110.160008,1
"4509002009B00295","9dec14e1-48b6-44dc-8515-16a081d04f27","广西壮族","玉林市","玉州区","玉林市江南区，中山路南侧、金港路东侧",22.617153,110.174518,22.784610,108.269210,1
"4509242009B00057","3075d25b-1496-412c-8c8a-c7c98b5b4649C","广西壮族","玉林市","兴业县","兴业县城西区温氏公司北侧",22.742268,109.881552,22.739394,109.870960,1
"4509812009B00507","ebeb5827-b910-438c-a8f6-0ed1d044615a","广西壮族","玉林市","北流市","北流市北宝二级公路清湾平旦养护站南面",22.232572,110.598119,22.212478,110.593568,1
"4509002008B00223","d79cb8d9-0cdd-44b9-b9be-b329b95e1511","广西壮族","玉林市","玉州区","玉林市玉柴工业园，二环南路北侧、玉公公路东侧地块三",22.586531,110.133986,22.598070,110.143992,1
"4509812009B00162","7270418f-4189-437a-9c38-097d8d0c5045","广西壮族","玉林市","玉州区","北流市城区一环路尾转盘附近",22.635931,110.173147,22.703930,110.335920,1
"4509242012B00181","46bb9b79-6d42-4263-b622-5d6f0b2ed2b6","广西壮族","玉林市","兴业县","兴业县大平山镇",22.672239,109.975228,22.680030,109.951912,1
"4509222009B00626","00c51cbf-720a-4639-80a5-2fd3a90647a9","广西壮族","玉林市","陆川县","陆川县温泉镇万丈村万官路",22.307446,110.263499,22.311780,110.252224,1
"4509002013B00160","2a9e02e4-ab47-44e0-b297-6568c94c3bb7","广西壮族","玉林市","玉州区","玉林经济开发区，纵二路与胜利路交叉口东北侧地块八",22.638898,110.179976,22.643734,110.160160,1
"4509222012B00188","89a34a02-4ea7-4509-8175-048b33320770","广西壮族","玉林市","陆川县","陆川县珊罗镇六燕村",22.567473,110.186658,22.564110,110.175712,1
"4509002014B00343","6dca6fae-086a-401f-bee2-a261ede461ca","广西壮族","玉林市","玉州区","玉林市福绵区福绵镇车陂江万济桥北侧",22.580058,110.048930,22.576498,110.038040,1
"4509222012B00488","43ab1629-2cf4-4b72-a5d8-7a4eb88271f2","广西壮族","玉林市","陆川县","陆川县温泉镇陆兴路486号（原城南路216号）",22.327193,110.268877,22.325090,110.258080,1
"4509232010B00166","11815f33-71a8-490b-9a73-7b27f9e41671","广西壮族","玉林市","博白县","博白县文地工业园3号地",22.278675,109.982553,21.944270,110.197720,1
"4509232018B00064","87d87bee-913b-4961-8620-f1f6f39a6b1c","广西壮族","玉林市","博白县","博白县博白镇柯木村(现绿珠村)",22.240089,109.935290,22.234262,109.929472,1
"4509212013B00269","c881ea3a-f36b-4230-9554-d619377164bf","广西壮族","玉林市","容县","容县容州镇小平原边角地块",22.877733,110.515697,22.859620,110.551960,1
"4509232010B00789","c50c4d4b-6731-4bb3-8fe8-093194941459","广西壮族","玉林市","博白县","博白镇人民北路",22.283591,109.995185,22.280426,109.983640,1
"4509002008A00426","e4c0b3f2-bc07-4c1c-8a7a-4c7fc32ef004","广西壮族","玉林市","玉州区","玉林市城东新区，为民路南侧",22.660184,110.187661,22.657020,110.180328,1
"4509242008A00049","3c0e626c-459a-46bd-b9b2-8b6025cf6405","广西壮族","玉林市","兴业县","兴业县环城小区",22.742268,109.881552,22.739394,109.870960,1
"4509232016B00990","1421ec69-39fe-4712-b2a9-a30b27493ff6","广西壮族","玉林市","博白县","博白县凤山镇东路7号",22.053604,109.998399,22.046600,110.002608,1
"4509002015B00287","4e1080a6-dfa2-4183-a635-3f800be5d594","广西壮族","玉林市","玉州区","玉林市玉柴产业新城玉川路（暂名）两侧",22.596711,110.162508,22.281840,109.996784,1
"4509812010B00669","0cc2956b-e1bc-4bb2-bbce-6c24ae0ee30a","广西壮族","玉林市","玉州区","原自行车零件厂",22.659831,110.188453,22.626300,110.125240,1
"4509812010B00685","3eeaac48-29c0-41eb-8818-4c8bf6cc673f","广西壮族","玉林市","玉州区","原自行车零件厂",22.659831,110.188453,22.626300,110.125240,1
"4509812010B00695","49a301b8-1e81-46b5-af6d-357978f0ab61","广西壮族","玉林市","玉州区","原自行车零件厂",22.659831,110.188453,22.626300,110.125240,1
"4509002010B00805","bf96d287-1fd8-4826-bb46-d93d69701dff","广西壮族","玉林市","玉州区","玉林市福绵管理区福绵镇福西村委北面地块二",22.590907,110.066155,22.583980,110.042360,1
"4509812010A00110","e4f87172-44b5-4069-9481-918d03ad1c3c","广西壮族","玉林市","北流市","北流市原氮肥厂用地内",22.713958,110.360570,22.711180,110.349688,1
"4509002013B00248","c2071c17-6788-4fd4-b1bb-1e2bc6ad2182","广西壮族","玉林市","玉州区","玉林经济开发区，纵二路与胜利路交叉口东北侧地块九",22.638898,110.179976,22.643734,110.160160,1
"4509222010B00770","289fb3f7-2659-41a2-b903-f2eb00eecdb4","广西壮族","玉林市","陆川县","陆川县清湖镇清湖街",22.038913,110.352570,22.032336,110.343568,1
"4509222010B00496","dc6c7182-c3e6-4148-bceb-3deabb068ac7","广西壮族","玉林市","陆川县","陆川县城水厂开发区",22.327222,110.270456,22.323966,110.259760,1
"4509232013B00207","fc0b004c-dab1-4f04-9ae6-070b48349059","广西壮族","玉林市","博白县","博白县龙潭镇兴华村",21.737976,109.760928,21.726644,109.746728,1
"4509812013B00236","9b629e6e-59e4-4b10-9def-15670e266036","广西壮族","玉林市","玉州区","南广高速公路引道西面",22.659831,110.188453,22.249206,109.959608,1
"4509222015B00377","aa8b9583-68d7-4d1e-b8a9-7b943c2989b8","广西壮族","玉林市","陆川县","陆川县城区三峰东路以南、龙腾家园以西",22.315396,110.276641,22.311818,110.266880,1
"4509222010B00190","4044f932-03ba-4628-bdaa-2ddcae3b6edfC","广西壮族","玉林市","陆川县","陆川县马坡镇火车站",22.489226,110.252631,22.496280,110.216456,1
"4509222010B00357","b3aa70c5-b892-47bc-924b-3ced83ffb632","广西壮族","玉林市","陆川县","陆川县城温泉北路国税局对面",22.357418,110.276152,22.335330,110.267240,1
"4509002013B00372","673aca21-0a67-46ca-9c24-a7600cd18661","广西壮族","玉林市","玉州区","玉林市玉东新区玉东大道与秀水路交叉口东侧",22.675877,110.208280,22.650370,110.183760,1
"4509232018B00604","d1b0af88-ac3b-4500-9734-0aab7b4f0ed5","广西壮族","玉林市","博白县","博白县博白镇人民北路009号",22.275352,109.989636,22.271660,109.984672,1
"4509232018B00598","0c3eeee8-543e-4425-be50-e71b86ab6272","广西壮族","玉林市","博白县","博白县博白镇环东路054号",22.297754,110.004915,22.271660,109.984672,1
"4509222014B00171","7e552c74-6c38-4338-b841-e94cb823ca0a","广西壮族","玉林市","陆川县","陆川县城官田垌开发区",22.327222,110.270456,22.320634,110.285496,1
"4509002013B00122","1fcc9e7c-39e0-46e6-9c85-c50bcf14e11d","广西壮族","玉林市","玉州区","玉林高新技术产业开发区、教育东路西侧，清华科技园玉林分园规划用地范围内地块十",22.682242,110.205979,22.716372,110.220728,1
"4509812011B00031","d96e3156-9f65-4055-894b-2cf2698824fb","广西壮族","玉林市","玉州区","城区沿江南路0111号宗地东面",22.625222,110.159917,22.629880,110.165160,1
"4509812011B00017","3b637e1b-937c-42b3-ad50-901dd03c29ac","广西壮族","玉林市","北流市","城区新松路0116号",22.708270,110.350665,22.704606,110.338064,1
"4509812012B00277","2ab548e1-831f-49cb-a55d-50152fe8816d","广西壮族","玉林市","北流市","西埌镇田心村和北流镇凉水井村交汇处",22.729445,110.290416,22.713138,110.295112,1
"4509002011B00232","1fbf1376-e83d-4f74-b053-45256a6399f0","广西壮族","玉林市","玉州区","玉柴工业园区玉公公路玉二环南路交叉口南侧地块八",22.585521,110.131736,22.581724,110.120624,1
"4509002011B00256","bbce2a17-60bd-4761-acad-9611357da7cc","广西壮族","玉林市","玉州区"," 土地座落： 玉柴工业园区玉公公路玉二环南路交叉口南侧地块九",22.585521,110.131736,22.581724,110.120624,1
"4509002013B00263","1c8b8825-dc85-4b5e-9b45-13b6d7cda29e","广西壮族","玉林市","玉州区","玉林市民主中路412号",22.644782,110.156266,22.641350,110.145128,1
"4509232010B00340","4d7a3233-3335-48b2-af4f-1c4292735e30","广西壮族","玉林市","博白县","凤山镇南路44号",22.053604,109.998399,22.599190,110.139376,1
"4509242015B00010","34198f62-e2e3-44e2-86b5-dd69bcb8f065","广西壮族","玉林市","兴业县","兴业县城南区兴业大道南侧",22.739994,109.885752,22.738300,109.877536,1
"4509812018B00741","ab57b1a0-101e-4b4f-8166-777cf98e0cc6","广西壮族","玉林市","北流市","民安镇高车村深水组东面",22.783476,110.444841,22.778168,110.438776,1
"4509002013B00527","b5d09976-127d-4c38-a41f-6e48eb658b04","广西壮族","玉林市","玉州区","玉林市大南路东侧",22.599305,110.149666,22.639062,110.160008,1
"4509222017B00777","11e43414-7277-47ad-81fa-e13d817a64b7","广西壮族","玉林市","陆川县","陆川县温泉镇温泉官田垌开发区",22.330521,110.281446,22.321620,110.263704,1
"4509222012B00547","d8ec31cd-620a-44bf-a519-7a49c18eb864","广西壮族","玉林市","陆川县","陆川县城温泉北路（温泉之乡文化广场南边）",22.357418,110.276152,22.341104,110.265672,1
"4509002014B00255","464c6dd9-d88b-434e-9dff-8f26a8023c45","广西壮族","玉林市","玉州区","玉林市民主北路以西岭南都会西侧",22.658069,110.152438,22.651354,110.143832,1
"4509002012A00192","805dedc8-bb3e-4868-9e8a-75017a3b389b","广西壮族","玉林市","玉州区","玉林市玉柴工业园二环南路北侧、玉发大道西侧",22.586531,110.133986,22.639062,110.160008,1
"4509002010B00700","c3febb1c-488a-478f-b9f7-7299942a9d3d","广西壮族","玉林市","玉州区","玉林市玉东新区，玉东大道玉金榜路交叉口西侧",22.662983,110.216160,22.650370,110.183760,1
"4509232010B00026","69fffc1e-4ca2-416d-9b8e-e8a333e357a3","广西壮族","玉林市","博白县","博白镇博龙花园城",22.297754,110.004915,22.264420,109.975616,1
"4509232010B00048","dec847e0-f9a3-4aad-bc91-6e87375f6093","广西壮族","玉林市","博白县","锦绣东路南面",22.265563,109.996508,22.639062,110.160008,1
"4509812016B00278","ac7bb698-7f47-48ea-a1d7-5aa9003d53ae","广西壮族","玉林市","北流市","城北区二环北路北面（原虎威公司用地）",22.732667,110.362483,22.729200,110.350544,1
"4509222014B00531-1","d1626020-55ef-42e0-8fa8-8a57c24dd2a0","广西壮族","玉林市","陆川县","陆川县米场镇新民村",22.433580,110.252542,22.437418,110.246472,1
"4509222012B00499","3660ba63-257b-4b89-a595-442c1c05bcf6","广西壮族","玉林市","陆川县","陆川县温泉镇东山村",22.319089,110.286986,22.312420,110.281256,1
"4509222010B00238","9b381a8a-62da-400c-b343-f5b8f5db6fb7","广西壮族","玉林市","陆川县","乌石镇官地屋岭",22.201522,110.335519,22.165714,110.232624,1
"4509002011B00626","49368ce8-db00-4488-9476-de5738ff829f","广西壮族","玉林市","玉州区","福绵大道西北侧、商业步行街东北侧",22.625356,110.179599,22.620000,110.172144,1
"4509002018B01878","5aec4152-1497-472d-b051-745c1a5eae4b","广西壮族","玉林市","玉州区","玉林市福绵区樟木镇中村（地块十一）",22.524043,110.022703,22.539796,110.063192,1
"4509002009A00429","d9d791a8-4e48-4448-b38e-1ca508458d10","广西壮族","玉林市","玉州区","玉林市玉公公路东侧",22.659831,110.188453,22.614492,110.120496,1
"4509232015B00027","c0ebdbbe-77d7-4dec-8e0f-18ff1a6c497d","广西壮族","玉林市","博白县","博白县城锦绣东路与博沙二级公路交汇处",22.265563,109.996508,22.259188,109.997376,1
"4509242009A00047","056cd5e6-bad3-42c2-a95a-53987e1fa3d7","广西壮族","玉林市","兴业县","石南镇黎村东海垌开发区",22.751214,109.887839,21.981558,110.060464,1
"4509212016B00100","241e3b33-1f35-4f13-9194-88aa7b133d4c","广西壮族","玉林市","容县","石寨大华村大口塘西侧",22.825803,110.549462,22.829518,110.536720,1
"4509222008B00011","42e34982-343d-4078-843c-f017df3b54e5","广西壮族","玉林市","陆川县","陆川县米场镇南中村",22.403629,110.274909,22.400240,110.264088,1
"4509222008B00038","a44e4de3-2918-496c-a3a4-8bdd0907e2f2","广西壮族","玉林市","陆川县","陆川县沙湖乡新街村",22.365059,110.191530,22.348420,110.289704,1
"4509222011B00436","324c2dc3-cb67-4e79-ad4c-4fc65279285a","广西壮族","玉林市","陆川县","陆川县城林业大街",22.327222,110.270456,22.323966,110.259760,1
"4509232009B00111","5fe45a90-f992-4d5e-a2ba-25bd5ae30e02","广西壮族","玉林市","博白县","博白镇公园路",22.288494,109.990587,22.286780,109.979976,1
"4509812010B00177","33eed27c-d380-43fb-b84b-b803bb3ed77c","广西壮族","玉林市","北流市","北流城区花果山",22.712235,110.351452,22.832818,109.948216,1
"4509232012B00089","e56f204e-40e3-42a6-b576-1559caff2ce1","广西壮族","玉林市","博白县","博白镇兴隆西路(县法制文化广场西面)",22.277971,109.982356,22.275290,109.971368,1
"4509812017A00744","082cc3f7-0ca2-48bc-851c-8894e67a1972","广西壮族","玉林市","玉州区","北流市工业品综合商贸城西面",22.623509,110.147492,22.711180,110.349688,1
"4509232010B00585","e56fbba0-e1ed-40af-8146-fa8b914cd032","广西壮族","玉林市","博白县","旺茂镇南街",22.097480,109.923543,22.743900,109.872960,1
"4509242008B00091","173f3de2-cc76-4831-91d1-0fc597bf1f24","广西壮族","玉林市","兴业县","兴业县城区广场东侧",22.742268,109.881552,22.739394,109.870960,1
"4509212012B00185","13d5a7b7-e0f6-4498-aa2d-e669d0cb2e7b","广西壮族","玉林市","容县","容县容州镇五里桥南侧原松脂厂",22.877733,110.515697,22.648338,110.171568,1
"4509002012A00177","4e0479dd-b30a-4200-af38-d81ee6b2e5cb","广西壮族","玉林市","玉州区","玉林市玉东新区文体路与石棠路交叉口西南侧",22.668836,110.200828,22.650370,110.183760,1
"4509812008B00258","1bdc5c33-2b40-4e66-a27e-973b005a3a0bCC","广西壮族","玉林市","北流市","北流市玉容一级公路辅道旁边",22.713958,110.360570,22.711180,110.349688,1
"4509812008B00299","c29d099a-2f7f-4437-8126-409d6e319e4cC","广西壮族","玉林市","北流市","北流市玉容一级公路辅道旁边",22.713958,110.360570,22.711180,110.349688,1
"4509812008B00266","1ee921dc-9aed-4e6a-ae55-27004dd06149C","广西壮族","玉林市","北流市","北流市玉容一级公路辅道旁边",22.713958,110.360570,22.711180,110.349688,1
"4509222016B00240","49920d4d-3321-4a4b-9079-3fd986900143","广西壮族","玉林市","陆川县","陆川县珊罗镇六燕村C-03-01（C地块）",22.567473,110.186658,22.563496,110.185856,1
"4509002015B00679","c348ff1c-eb98-415b-aecb-763390310117","广西壮族","玉林市","玉州区","玉林市仁东镇玉石公路西南侧(地块四、地块五)",22.631607,110.127435,22.643796,110.106512,1
"4509002010B00372","4b54c1f3-c9ad-4851-9a7c-bba1e5a319d9","广西壮族","玉林市","玉州区","玉林市玉东新区原城东新区，文体路北侧",22.668836,110.200828,22.650370,110.183760,1
"4509812010B00010","e3598909-f4e0-491a-9224-dbebd9950488C","广西壮族","玉林市","北流市","北流市城区银塘花园东面",22.713958,110.360570,22.711180,110.349688,1
"4509222015B00854","3eded09e-b5aa-4055-a837-335bdf1434d3","广西壮族","玉林市","陆川县","陆川县城远辰大道以东A-19地块",22.327222,110.270456,22.323966,110.259760,1
"4509002009A00259","3eb48adb-0d73-47f8-9706-7ae6823d8f47","广西壮族","玉林市","玉州区","玉林市玉柴工业园内，玉公公路东侧、二环南路北面",22.586531,110.133986,22.692212,110.349120,1
"4509002011B00076","ab9840c5-9942-4da4-9186-051069a2aa96","广西壮族","玉林市","玉州区","玉林市江南区站前路地块一、地块二、地块三",22.615011,110.180972,0.000000,0.000000,1
"4509212016B00068","c4d56c9f-1c77-41ac-9eb9-2cfed5b5a32b","广西壮族","玉林市","容县","容县经济开发区",22.863666,110.564530,22.639062,110.160008,1
"4509232011B00374","b9d931ff-1bf2-4571-a35d-71169e33592b","广西壮族","玉林市","博白县","博白县博白镇城东玉沙二级公路东面(博白县城东工业园11号B地块)",22.284831,110.007993,22.281840,109.996784,1
"4509232011B00386","84fa6644-b10f-45c5-a874-ca421222e33f","广西壮族","玉林市","博白县","博白县博白镇城东玉沙二级公路东面(博白县城东工业园11号C地块)",22.284831,110.007993,22.281840,109.996784,1
"4509232013B00400","567ac930-9ef2-46a1-a976-2b7e04bce4b1","广西壮族","玉林市","博白县","博白县文地镇三江街",21.956974,110.157194,21.932012,110.130480,1
"4509812018B00378","602d1c9f-ae90-4200-a652-e4b4027e28b1","广西壮族","玉林市","北流市","清湾镇清湾村团结组",22.231574,110.615373,22.228474,110.604592,1
"4509222012B00296","5b62a718-14df-467d-8460-5565daf8a1f1","广西壮族","玉林市","陆川县","陆川县大桥镇大桥街桥旺路60号",22.250134,110.235499,22.246150,110.224600,1
"4509812016B00429","01a35a6a-7204-4257-beb0-3b99aa9a668b","广西壮族","玉林市","北流市","金旺旺商贸城南面",22.693651,110.366173,22.690970,110.357944,1
"4509222018B00924","11ffff1f-9e1c-41b7-9801-3e2cb7f3add7","广西壮族","玉林市","陆川县","陆川县三峰路12米街南、回建区15栋",22.316112,110.268668,22.312656,110.258648,1
"4509812014B00208","465db8fe-c728-4837-82b5-2d2352f79161","广西壮族","玉林市","北流市","城区荔枝公园东面",22.705664,110.352927,22.639062,110.160008,1
"4509812014B00152","74877c8c-bb62-4eff-ae0b-4a82c0ea4505","广西壮族","玉林市","北流市","城区荔枝公园东面",22.705664,110.352927,22.639062,110.160008,1
"4509242012B00106","90dcba07-513c-46a8-9fad-7bf8cb600f5d","广西壮族","玉林市","兴业县","兴业县城东区谭良村",22.747693,109.914094,22.741718,109.908312,1
"4509002012B00545","ab2252bd-b5f4-4fbc-af60-5ab9a897bac1","广西壮族","玉林市","玉州区","玉林市清宁路西侧",22.641726,110.148007,22.641530,110.133432,1
"4509232008B00136","a66f3b0d-ede9-4eaf-ba8b-e7e972d9e06c","广西壮族","玉林市","陆川县","径口社部",22.052175,110.264703,22.639062,110.160008,1
"4509232008B00208","5283da5b-4819-4511-834b-289d6a86df22","广西壮族","玉林市","玉州区","绿珠社部",22.659831,110.188453,22.254696,109.979480,1
"4509232008B00406","952bdf78-4f9c-48e4-8a3e-0cb9b727a767","广西壮族","玉林市","陆川县","大坝",22.183553,110.236507,21.665120,109.812360,1
"4509242014A00086","47f4a2b0-a9a8-4c07-809a-6c52101ed689","广西壮族","玉林市","兴业县","兴业县石南二中东侧",22.742268,109.881552,22.739394,109.870960,1
"4509242008B00061","0b2ee4a1-3a3f-4b08-9597-eb18c224d150","广西壮族","玉林市","兴业县","兴业县兴业大道南侧",22.739994,109.885752,22.739394,109.870960,1
"4509242013B00184","293c2d1e-10dd-4fe6-b4ee-78df2a6d0a14","广西壮族","玉林市","兴业县","兴业县城南区兴业大道南侧",22.739994,109.885752,22.738300,109.877536,1
"4509222012A00740","099f80f0-6132-4325-86e7-7f26133c9877","广西壮族","玉林市","陆川县","陆川县清湖镇塘榄村",22.040667,110.332906,22.034906,110.326376,1
"4509002014B00357","1918ad9e-2bcf-42b0-8c14-286a726b50c0","广西壮族","玉林市","玉州区","玉林市福绵管理区人民医院西侧",22.583513,110.052882,22.471250,110.078680,1
"4509002009A00195-1","bb5f8865-bcb6-4fce-b028-44391d95239cA","广西壮族","玉林市","玉州区","玉林市广场东路东侧",22.646896,110.180012,22.639062,110.160008,1
"4509812013B00075","28f9d873-bc21-4798-bdfa-555eea0e1864","广西壮族","玉林市","北流市","北流市城区城西一路",22.709363,110.347637,22.711180,110.349688,1
"4509232009B00341","77004773-d089-4cb1-9608-d12ff729e479","广西壮族","玉林市","博白县","博白镇公园路",22.288494,109.990587,22.286780,109.979976,1
"4509232008B00106","4b5a992e-54a8-4bda-8a43-453d3c46a791","广西壮族","玉林市","博白县","博白镇振兴东路",22.273734,109.992535,22.270806,109.979920,1
"4509232008B00258","8a98228c-3bcd-4edf-88ae-b99a750f91f7","广西壮族","玉林市","玉州区","黄凌社部",22.659831,110.188453,22.141930,110.091168,1
"4509232008B00241","f5eb280d-082d-43ae-864a-72bca6922a66","广西壮族","玉林市","玉州区","江宁社部",22.659831,110.188453,22.639062,110.160008,1
"4509232008B00296","b6351ae0-13f4-4a9e-ba33-20e7dd11e5e4","广西壮族","玉林市","博白县","东平镇",22.027600,109.856194,22.004988,109.815504,1
"4509232008B00346","57012cfd-e90d-42c2-bb92-e3c2f0943f64","广西壮族","玉林市","玉州区","宁潭",22.659831,110.188453,22.024510,110.127000,1
"4509232008B00179","ac12ba44-caee-4223-aec5-7997d804c640","广西壮族","玉林市","玉州区","三育社部",22.659831,110.188453,22.578104,110.217320,1
"4509232008B00189","45523f8c-61ff-444a-9979-33959b6f671f","广西壮族","玉林市","博白县","浪平乡",22.325933,109.938806,22.328160,109.920592,1
"4509232016B00986","2ce18c8b-bb1b-4d07-b13f-679ce493d94c","广西壮族","玉林市","博白县","博白县旺茂产业园",22.278675,109.982553,22.169150,109.868240,1
"4509222015B00626","6b5c3fe0-b4ec-4244-8829-167d7d897159","广西壮族","玉林市","陆川县","陆川县城北大道西侧（城北建材市场加油站）",22.348240,110.276430,22.341800,110.266240,1
