electr_supervise_no,id,province,city,district,location,bd_lat,bd_lon,tdt_lat,tdt_lon,flag
"1401002010B01746","b8298af9-d3f0-49d6-88ea-5f33da9095a2","山西省","太原市","晋源区","晋祠路三段17号，董茹村以西、冶峪河以南",37.793343,112.501204,37.784504,112.489592,1
"1401052013B00127","fa6fa733-f3a4-4142-a18f-be8bf20b5058","山西省","太原市","小店区","太原经济技术开发区",37.741459,112.592634,37.734620,112.583744,1
"1401222013B00097","aabf5cb4-776d-4735-8739-b30ac6c09ddf","山西省","太原市","阳曲县","黄寨镇黄寨村",38.072543,112.676898,38.066060,112.658088,1
"1401212015B00149","a166f7dc-29b2-454a-8d56-f4b9f3d47c98","山西省","太原市","清徐县","清徐县马峪乡安家沟村",37.762745,112.336568,37.755684,112.330360,1
"1401002013B05358","d3a93981-7c36-4659-b360-cd505a218744","山西省","太原市","小店区","位于长风大街以北，狄村排污渠以东、西四路以西、太航小区以南",37.827563,112.580380,37.876244,112.495408,1
"1401002015B00058","84c15586-f0a6-4e86-9fff-6586696d4dc6","山西省","太原市","杏花岭区","山西省勘察设计研究院用地以北、敦化南路以西",37.889045,112.597569,37.882580,112.584808,1
"1401002013B05542","c3225c51-3026-44fc-9656-20ca9d072e10","山西省","太原市","晋源区","位于晋源区，东至南瓦窑村，南至武家寨村，西至五府营村，北至鹅归店村，",37.707897,112.524584,37.701952,112.504384,1
"1401002009B01024","19351c31-289f-44c5-bcde-d0d7bff50769CCC","山西省","太原市","尖草坪区","新兰路56号，新兰路以东，山西东方化工机械厂以西",37.969686,112.553346,37.988984,112.506992,1
"1401072013B00037","d549a924-9cc4-4022-b1ac-4d6f220969d5","山西省","太原市","杏花岭区","五龙口街以北、东山热源厂以南、太行路及30米绿化带以东、龙兴和顺用地以西",37.871023,112.604450,37.864700,112.596896,1
"1401222010B00049","b2cda6f2-21ff-409f-a245-1d7a778aafc1","山西省","太原市","阳曲县","县城新安东街",38.067472,112.688223,37.870044,112.544344,1
"1401052008B00179","a5b0e0bc-3711-4a16-afe4-4c79495feac0","山西省","太原市","小店区","太原高新技术开发区",37.809639,112.566783,37.870044,112.544344,1
"1401002015B00367","48b9e98a-7a91-439e-8e11-2035b1f8f887","山西省","太原市","小店区","位于南客站片区，四至：太榆路以东、许坦东街以南、铁路线以西",37.807207,112.619417,37.855592,112.465120,1
"1401002009B00298","b0906cc4-20bd-445a-a3f4-5099059e4b09","山西省","太原市","尖草坪区","尖草坪区柴村希望西街15号尖草坪区畜牧办以南、尖草坪区房管所以西、本单位用地以北、以东",37.942438,112.491444,37.936540,112.481408,1
"1401002014B07181","5d6a62ff-26a6-4260-80eb-f0ac55646caa","山西省","太原市","杏花岭区","赵庄新村，滨河东路以东、龙康街以南",37.878884,112.546272,37.870720,112.533216,1
"1401002009B00379","3b8ca990-daba-4630-8d6a-2c3708615a49CCC","山西省","太原市","万柏林区","和平南路以东、义井北街以南、义井北一条以西太化公司、裕仙酒楼以北",37.822750,112.513607,37.824600,112.502112,1
"1401002013B06125","774282c7-4eb7-4eb4-b5c6-467c7556bf43","山西省","太原市","杏花岭区","位于太原新绿洲商贸有限公司以西、以南，五龙口街以北，太原市晋太房地产开发公司以东",37.879026,112.597408,37.864700,112.596896,1
"1401222014B00368","10d86ca7-9c5b-422e-a76f-da9c4ea57604","山西省","太原市","阳曲县","黄寨镇城晋驿村",38.097637,112.720280,38.091100,112.707240,1
"1401222014B00092","674443c8-10b4-4f82-9d60-780083f6b004","山西省","太原市","清徐县","县城大运路302公里处",37.521620,112.466493,37.759592,112.647464,1
"1401222012B00197","95bd32f6-90f7-424b-8139-c51a2a99ee47","山西省","太原市","阳曲县","大盂镇李家沟村",38.169494,112.747758,38.163216,112.734584,1
"1401002016B00757","f454486b-e0af-4aed-b252-ce052d9bbf09","山西省","太原市","小店区","位于学府街以南、太行路以西、规划路以东、以北",37.813958,112.574684,37.807188,112.561480,1
"1401002014B06961","33e911a4-1a33-4ad6-8e78-eec7b2905aa2","山西省","太原市","杏花岭区","位于北河湾以东、太铁宿舍以南、省肿瘤医院以西、太原市物资回收利用总公司享堂分公司以北",37.891863,112.606073,37.885708,112.593360,1
"1401812011B00079","e9e3d357-b726-4265-b7ae-b1a3deed9601","山西省","太原市","古交市","古交市滨河南路北侧、污水处理厂南侧、东曲街道办事处东侧",37.924366,112.209973,37.902500,112.173248,1
"1401002014B07370","8759334f-7f60-4db8-b39d-31668760531e","山西省","太原市","万柏林区","玉门河以南，前进路以西",37.872475,112.526918,37.929300,112.484592,1
"1401222008B00078","175ed0cb-8ac7-442a-bb05-5f4f77bcad24","山西省","太原市","阳曲县","高村乡马坡村",38.147247,112.718074,37.994664,112.555848,1
"1401212014B00057","4f8e8449-7df6-4df7-82dc-a31ff5dcc29d","山西省","太原市","清徐县","清徐县东湖街办南营留工贸公司",37.613067,112.364558,37.594348,112.339320,1
"1401082016B00052","1bacbfee-6267-414f-b777-6ed7ee14ef13","山西省","太原市","尖草坪区","横河北街以东，阳兴南街以西",37.991719,112.575383,37.870044,112.544344,1
"1401212011B00066","ab865f9c-a507-4d65-a3ae-6bc9dfc17ea5","山西省","太原市","清徐县","清徐县徐沟镇南宜武村",37.519614,112.483598,37.512980,112.470520,1
"1401212011B00056","5fd3b12c-8593-42a4-a2b0-57ea7403084d","山西省","太原市","清徐县","清徐县徐沟镇高花村",37.528407,112.472871,37.522664,112.466096,1
"1401002010B01437","39bd03ca-cea0-4b28-a9c3-b39ee682bb17","山西省","太原市","迎泽区","迎泽区马庄村规划路以东，储备地块一以北、以南、马庄村以西",37.836408,112.639099,37.830160,112.626216,1
"1401052014B00130","f6c2cd40-a4d3-46b4-b49f-c1ab0ab39ccd","山西省","太原市","小店区","太原经济区",37.743367,112.598178,37.870044,112.544344,1
"1401212015B00183","052434cc-d0d0-4e26-b1d4-0ea4ab0d6db6","山西省","太原市","清徐县","清徐县清源镇孔村",37.586854,112.376635,37.580892,112.364024,1
"1401002008B00706","5578db75-238f-4ac5-9a7a-9d68f5d19c4e","山西省","太原市","小店区","学府街铁十七局建筑工程处宿舍以北、汾西一坝东一支渠以西",37.813958,112.574684,37.807188,112.561480,1
"1401222013B00228","1fca9f63-0ed7-4b2a-8779-d2e31901f055","山西省","太原市","阳曲县","黄寨镇北塔地村",38.048650,112.671432,38.042036,112.665304,1
"1401052013B00443","4f2eb103-4643-478a-b98f-d2daa4830f54","山西省","太原市","小店区","太原经济区",37.743367,112.598178,37.870044,112.544344,1
"1401052010B00067-1","07a20d9f-9792-45c5-ad4e-056545ef6350","山西省","太原市","小店区","太原经济区",37.743367,112.598178,37.870044,112.544344,1
"1401052010B00051-1","9ec6c958-b4bb-474b-9d1d-adab1cb21e8c","山西省","太原市","小店区","太原经济区",37.743367,112.598178,37.870044,112.544344,1
"1401002015B00907","1a2714d5-e0b9-421d-906e-a2efec8b2617","山西省","太原市","小店区","小店区马练营东路以西、武洛路以南",37.761236,112.622268,37.754732,112.607784,1
"1401222010B00146","2fc3c09c-1320-433b-98d6-fd50210a4dcf","山西省","太原市","阳曲县","黄寨镇柏井村",38.108122,112.711780,38.101452,112.698824,1
"1401082012B00050","4c99f174-7d28-403e-babb-82221f41f6e5","山西省","太原市","东至县","东至20米规划路，西至拟建设用地，南至20米规划路，北至园区9号路",30.116535,117.034481,37.790120,112.546304,1
"1401812011B00108","47ab0417-e018-43b6-b3b7-b6c385b5b965","山西省","太原市","古交市","镇城底镇长足上村马脊疙梁",37.972709,112.044768,37.966120,112.039576,1
"1401222014B00277","1583429b-88e0-4362-a695-470658492200","山西省","太原市","阳曲县","东黄水镇故县村",38.089164,112.750646,38.082920,112.743128,1
"1401212013B00237","0cdac54f-1983-41d3-873e-ceb629de3c7e","山西省","太原市","清徐县","清徐县孟封镇西堡村",37.507533,112.387960,37.501028,112.374712,1
"1401002018B01017","a9c4e5b6-814b-4543-bab1-fa46b3cb5542","山西省","太原市","万柏林区","东、南至黄坡村，西至水峪沟街，北至黄坡村、北堰村",37.822532,112.492546,37.823928,112.473000,1
"1401002016B00989","c12e4935-9e3c-4d6e-ae32-3ad75e170d83","山西省","太原市","万柏林区","万柏林区千峰南路以东、规划路以西以南以北",37.843196,112.525281,37.836152,112.512152,1
"1401812018A00156","9844ce24-cca7-4f44-b2da-fa1fcc2efd53","山西省","太原市","古交市","古交市河口镇火山村",37.924296,112.198234,37.917272,112.185248,1
"1401002010B01733","e70871d0-7728-4603-a030-7c5c6de202f3","山西省","太原市","杏花岭区","敦化南路以东、沙河以南、山西省晋元茶叶公司、山西省供销社仓储运输公司以北",37.885974,112.598214,37.879520,112.585448,1
"1401002018B01009","be5f9850-bdee-4b5c-ab35-26a70faa23a6","山西省","太原市","万柏林区"," 东、北至黄坡村，南至水峪沟街，西至西环高速",37.822532,112.492546,37.823928,112.473000,1
"1401002018B00950","25cc3187-e4c8-4e57-b96a-a89d2d9d6ee3","山西省","太原市","万柏林区","东至西峪路，南至水峪沟街，西至黄坡村，北至黄坡村、北堰村",37.822532,112.492546,37.823928,112.473000,1
"1401222018B00218","72adff1c-c170-412a-b614-14f93c7e9f06","山西省","太原市","阳曲县","东黄水镇故县村",38.089164,112.750646,38.082920,112.743128,1
"1401222018B00176","049dfe2d-1326-4290-82eb-26a0493e9c4e","山西省","太原市","阳曲县","黄寨镇小屯庄村",38.079733,112.727551,38.074036,112.721736,1
"1401812012B00167","cfe8b085-82e9-453e-a649-db98b6d014ea","山西省","太原市","古交市","古交市西曲办永树曲村",37.934734,112.126606,37.927236,112.113480,1
"1401082012B00077","9c9b0613-b799-464d-9469-deb0b3a5878e","山西省","太原市","东至县","东至20米规划路，西至拟建设用地，南至20米规划路，北至园区9号路",30.116535,117.034481,37.790120,112.546304,1
"1401002013B05095","fcdf99ea-2277-493f-b04e-c935835bd619","山西省","太原市","尖草坪区","尖草坪街",37.922009,112.572488,37.920896,112.553344,1
"1401222013B00164","42b10ba4-b3d8-4b35-9569-ced9cc5d61a2","山西省","太原市","阳曲县","侯村乡桥沟村",38.034134,112.651635,38.027388,112.641296,1
"1401002016B01160","d38be73e-9986-4bdf-8911-3fa10f13a345","山西省","太原市","迎泽区","位于迎泽区王家峰村，东中环路以东，规划路以南，以西、王家峰村以北",37.848947,112.611584,37.835552,112.598752,1
"1401812011B00135","1ddfd7d4-692f-417e-b6a9-6916546a4d51","山西省","太原市","古交市","古交市屯兰河马兰镇马兰社区东北侧杜家塔、西山煤气化公司对面山坡上",37.866413,112.057218,37.903968,112.169720,1
"1401222009B00046","bbdb8398-93d3-454e-800e-6d1e7fb3d5f6","山西省","太原市","阳曲县","新阳东街",38.064540,112.683842,38.057672,112.671112,1
"1401072011B00057","f9ee5015-5dd7-4f88-a888-d808ffb6d58f","山西省","太原市","杏花岭区","太原民营经济开发区范围内：15米规划路以北、山西新和实业有限公司以东、西高速辅路以西",37.876989,112.556391,37.864472,112.609936,1
"1401222009B00100","3752af11-e2bb-4c12-aa0a-f78f66242bd4","山西省","太原市","阳曲县","阳曲县城大运路西",38.068663,112.679537,38.057748,112.666528,1
"1401002011B02865","bb975911-eabe-4d3b-8313-ac1df42c2438","山西省","太原市","杏花岭区","胜利街以南、兵工南马路以东、省邮电器材公司以北、机床厂职工医院以西",37.897383,112.570590,37.790088,112.575792,1
"1401002016B00633","6359f68d-df09-4358-9b95-bd313f85ab50","山西省","太原市","迎泽区","位于海边街以西、山西三晋建设开发有限责任公司用地以北、海边街小学以东、以南",37.872898,112.559468,37.866120,112.547024,1
"1401212012B00028","65e5b6f7-08e1-48d6-b3b9-7da2a5b9122b","山西省","太原市","清徐县","清徐县东湖街道办迎宪工贸公司",37.619782,112.366020,37.613100,112.352760,1
"1401002009B00868","3408dd44-1b49-413d-ae2f-41cee610c142CCC","山西省","太原市","杏花岭区","太原化学工业集团公司化学厂以东、胜利街以南、省机电设计研究所宿舍以西工具厂以北",37.899649,112.568438,37.791372,112.490184,1
"1401052013B00177","63224669-7777-4cf7-89b8-c14efb525687","山西省","太原市","小店区","太原高新技术开发区",37.809639,112.566783,37.870044,112.544344,1
"1401052011B00147-1","5e4b4a80-ea54-4297-ab22-e88798251707","山西省","太原市","小店区","太原经济技术开发区",37.741459,112.592634,37.734620,112.583744,1
"1401212018A00117","48562484-be64-40cc-85aa-ca825f050ce9","山西省","太原市","清徐县","清徐县清源镇西木庄村",37.606233,112.380894,37.595200,112.370576,1
"1401002009B00230","67f8680a-89e7-41c6-9083-8a3de0e601f9","山西省","太原市","晋源区","晋祠路以东、晋源苗圃以南、涤纶厂以北",37.802206,112.512345,37.797360,112.500144,1
"1401232012B00018","c4d3417c-9da9-4d86-935a-3fb8e328bd1a","山西省","太原市","娄烦县","娄烦县杜交曲镇策马村白马沟",38.004258,112.022205,37.999816,112.007784,1
"1401212010B00066","803feac8-009b-4db7-8551-529e7d36cd36","山西省","太原市","清徐县","清徐县育青路24号",37.605759,112.354049,37.606516,112.351960,1
"1401002018B00337","0f31b6e4-b122-4cc2-8e7f-4f4a257c3671","山西省","太原市","迎泽区","位于迎泽区东太堡村，山西龙鼎房地产开发股份有限公司以东、以南、以西、以北。",37.830924,112.604856,37.822876,112.601456,1
"1401052014B00278","23788f2c-57b0-4b00-a1df-59637d664ea0","山西省","太原市","小店区","太原经济区",37.743367,112.598178,37.870044,112.544344,1
"1401052014B00293","001a20ae-1fbb-43b8-8dd3-0844163fb90a","山西省","太原市","小店区","太原经济区",37.743367,112.598178,37.870044,112.544344,1
"1401052014B00039","cea7d5bd-725c-4f59-9c60-e0a29572c736","山西省","太原市","小店区","太原经济区",37.743367,112.598178,37.870044,112.544344,1
"1401052015B00208","50cf6973-58db-45de-9061-1334f7aadad7","山西省","太原市","小店区","太原高新技术开发区",37.809639,112.566783,37.870044,112.544344,1
"1401052010B00120","cf4af0ee-06f3-41fb-a96b-7c4ca4c08105","山西省","太原市","小店区","太原高新区",37.807288,112.565398,37.800400,112.552712,1
"1401222012B00216","8ad0bf59-2f8c-4f48-8638-a18bfcd34cb2","山西省","太原市","阳曲县","县城新阳东街",38.064540,112.683842,38.058200,112.673408,1
"1401222011B00157","4f37aa85-72c6-4b24-af1e-e2045383e2eb","山西省","太原市","阳曲县","阳曲县黄寨镇宋庄村",38.085986,112.665286,38.079332,112.652448,1
"1401052009B00219","e17ebb5e-ec82-4902-af5c-72133560c3f3","山西省","太原市","小店区","太原经济技术开发区",37.741459,112.592634,37.734620,112.583744,1
"1401072011B00018","5b728907-7324-471f-8a37-b6e17092c984","山西省","太原市","杏花岭区","太原民营经济开发区范围内：经园路以西、红沟中街以北、双明用地以南、20米规划路以东",37.875638,112.622181,37.864472,112.609936,1
"1401052009B00308","ccbb2ae8-d329-449f-8ce5-d0b4d53720c1","山西省","太原市","小店区","太原经济技术开发区",37.741459,112.592634,37.734620,112.583744,1
"1401052013B00426","7f13b4b3-b72f-488d-ac1f-1c92a60f6b04","山西省","太原市","小店区","太原经济区",37.743367,112.598178,37.870044,112.544344,1
"1401052013B00397","76b7636b-0459-4117-a10c-2975e092177c","山西省","太原市","小店区","太原经济区",37.743367,112.598178,37.870044,112.544344,1
"1401812012B00092","33240a00-a018-4653-9c28-4761cbc63718","山西省","太原市","古交市","古交市加乐泉乡加乐泉村",37.984289,112.090561,37.976184,112.076304,1
"1401052013B00083","094a2581-e1a3-4cf7-9590-5d1897873750","山西省","太原市","小店区","太原高新技术开发区",37.809639,112.566783,37.870044,112.544344,1
"1401052017B00149","9854d628-51c2-4ba0-96b3-e78bcd58952a","山西省","太原市","杏花岭区","示范区科创城",37.876989,112.556391,37.870044,112.544344,1
"1401002009B00157","50a68208-559c-40c9-b445-03e44acfc3ba","山西省","太原市","万柏林区","旧晋祠路以西、南上庄以北、以东",37.829044,112.521578,37.821388,112.510272,1
"1401052011B00197","c64996c9-d7d4-4d55-b0aa-33970551715c","山西省","太原市","小店区","太原高新区",37.807288,112.565398,37.800400,112.552712,1
"1401002018B00642","0fb64642-cc20-42ea-9fd4-9ae9071f6b34","山西省","太原市","晋源区","位于东至新晋祠路、西至吴家堡小区、南至南中环街、北至南中环西街。",37.801714,112.529467,37.793800,112.517752,1
"1401072012B00112","f881ea09-a5b4-4938-ac28-af2648e049b2","山西省","太原市","杏花岭区","五龙口街以北、东山热源厂以东，伞儿树村用地以西、以南",37.871023,112.604450,37.868044,112.599936,1
"1401052012B00168","61bbf9a1-b621-4594-805b-3445946dc9a4","山西省","太原市","小店区","太原高新技术开发区",37.809639,112.566783,37.870044,112.544344,1
"1401812016B00040","6e0aa20e-802b-4f3a-a532-38fb9a700e2c","山西省","太原市","古交市","古交市镇城底镇原铁厂旧址",37.913000,112.182453,37.916512,112.159464,1
"1401812011B00018","c8cd35ae-3656-46ba-8eb8-bc020573d79b","山西省","太原市","古交市","古交市滨河路南侧、第一小学北侧",37.918697,112.175877,37.907524,112.162896,1
"1401002018B00328","e3c2f167-3511-4235-bc1d-d25a22dbceb8","山西省","太原市","迎泽区","位于迎泽区东太堡村，规划路以东、以西，以北，山西龙鼎房地产开发股份有限公司以南",37.830924,112.604856,37.822876,112.601456,1
"1401002018B00282","1383bebc-0911-4bf7-b39a-6dbaf836edbe","山西省","太原市","晋源区","晋源区五府营村，四至：北至规划路、东至五府营村用地，南至五府营村用地",37.710826,112.498882,37.702612,112.491168,1
"1401212018B00059","22e2bf14-da11-481a-9392-9e785a2ec0b4","山西省","太原市","清徐县","清徐县徐沟镇北郜村",37.564515,112.491287,37.558292,112.477760,1
"1401212009B00037","596a0e89-2bad-4bcb-bf43-9567204d8f79","山西省","太原市","清徐县","清徐县徐沟镇北郜村",37.564515,112.491287,37.558292,112.477760,1
"1401002014B07506","4d17ea93-9508-4997-9f5e-acb92bb70c69","山西省","太原市","万柏林区","迎泽西大街以南、虎裕河以北、规划路以东、和平南路以西",37.845810,112.517492,37.856728,112.492376,1
"1401212014B00268","961830b7-0708-48a8-bb41-b019ed4bc2a7","山西省","太原市","清徐县","清徐县徐沟镇庄子村",37.565298,112.542723,37.558588,112.529920,1
"1401212014B00247","113abc53-928b-4c32-a327-063f2fdc3e04","山西省","太原市","清徐县","清徐县徐沟镇武家庄村",37.578848,112.508674,37.572232,112.495720,1
"1401002010B01913","ca0a63fb-0c22-451f-b1fd-6929bce872ef","山西省","太原市","迎泽区","建设南路以西、迎泽南街以南、桥东街以北",37.864708,112.587792,37.837740,112.580080,1
"1401222014B00443","3814b65d-7a0e-4a04-82b3-9ef0c324da44","山西省","太原市","阳曲县","侯村乡侯村村",38.001824,112.724646,38.024892,112.652296,1
"1401002018B00750","2a081c20-9352-49fa-b0de-2116ad2139b4","山西省","太原市","尖草坪区","尖草坪区大东流村，东至九丰路，南至、西至、北至规划路",37.898688,112.533887,37.891760,112.521080,1
"1401212014B00031","218bc208-1f94-4baf-929e-9a8fad3b7029","山西省","太原市","清徐县","清徐县东湖街办南营留工贸公司",37.613067,112.364558,37.594348,112.339320,1
"1401232014B00077","b2bb6351-96bb-4d66-8b4b-995ce931198c","山西省","太原市","古交市","滨河南路西延娄家庄村段",37.913392,112.190502,38.059660,111.791768,1
"1401232014B00056","5de87138-e915-455f-9070-2760bda712fd","山西省","太原市","古交市","滨河南路西延娄家庄村段",37.913392,112.190502,38.059660,111.791768,1
"1401222014B00038","e9613ca6-b167-41b8-b792-e0ece0885bc1","山西省","太原市","阳曲县","黄寨镇柏井村",38.108122,112.711780,38.101452,112.698824,1
"1401002014B07671","2d123c9c-48e1-4d25-880a-0a4875beb26b","山西省","太原市","小店区","范家堡社区用地以东、以西、以北，山西和泰房地产开发有限公司以南",37.779838,112.569179,37.772968,112.556520,1
"1401002011B00240","0d71ce83-fa74-4d7e-b8aa-bb1ffbe832a6","山西省","太原市","万柏林区","万柏林区规划西华苑街以南、西矿路以东、南内环西街以北、清光巷以西",37.857314,112.494570,37.853800,112.468104,1
"1401002011B03165","5fc12d71-5464-4eb5-9112-737af508ccc5","山西省","太原市","小店区","小店区范家堡村,东至范家堡村用地;南至范家堡村用地;北至太原航空运动学校用地",37.779078,112.569727,37.818800,112.576056,1
"1401002013B06481","27b83143-e24f-4192-acd6-d1c576dc57d7","山西省","太原市","杏花岭区","滨河东路以东、山西友联实业有限公司用地以南",37.878884,112.546272,37.648528,112.476696,1
"1401002009B01113","77d4f5fa-0cf7-49e7-966b-a02f4c51e1a3","山西省","太原市","万柏林区","万柏林区小王村，南内环西街以南、晋祠路以西、小王村集体土地以东",37.845482,112.530025,37.837440,112.514672,1
"1401212016B00047","8126703e-4746-433c-876f-03b70e78d5bd","山西省","太原市","清徐县","清徐县清源镇西木庄村",37.606233,112.380894,37.595200,112.370576,1
"1401212014B00109","befce84c-5de5-4fbf-bf1a-7f8aa91c66dd","山西省","太原市","清徐县","清徐县王答乡同戈站村",37.602253,112.528812,37.595740,112.515864,1
"1401212014B00126","50a21880-0aee-4885-b80c-a8fdc09126d1","山西省","太原市","清徐县","清徐县王答乡同戈站村",37.602253,112.528812,37.595740,112.515864,1
"1401812009B00090","2be3646b-b674-4efa-8570-940bf2ffbf1aC","山西省","太原市","古交市","河口镇河口村",37.929023,112.228717,37.922388,112.216640,1
"1401082015B00020","8e0651b3-cb31-4351-86b5-612272036020","山西省","太原市","尖草坪区","阳兴大道以东，横河北街以南。",38.013646,112.599207,37.870044,112.544344,1
"1401002012B04357","782a18aa-c4e7-47ba-be3a-baacdc617c01","山西省","太原市","万柏林区","千峰南路以西、纺织北街以南、众纺路以东",37.852472,112.521613,37.836152,112.512152,1
"1401002012B04680","b057b3b7-0c63-4a13-87a7-d949a18f0f72","山西省","太原市","晋源区","晋祠工人疗养院以南、原东大学校用地以西15米规划路西侧、晋祠村用地以东以北",37.708401,112.450754,37.706712,112.433968,1
"1401002012B04326","9ff9d263-cc30-4853-b6c3-6ca1f4c34c4d","山西省","太原市","迎泽区","龙堡街以北、省物资学校以东、千里集团用地以南",37.827828,112.626961,37.814220,112.588280,1
"1401222014B00209","9032c516-388c-4d22-aec7-7027b0887906","山西省","太原市","阳曲县","大盂镇李家沟村",38.169494,112.747758,38.163216,112.734584,1
"1401072011B00027","c0162d31-d67c-46b6-a882-e9ec15c37481","山西省","太原市","迎泽区","太原民营经济开发区范围内：吉祥斋用地以东、水厂路以北、吉祥斋用地以西、松庄用地以南",37.868379,112.627299,37.864472,112.609936,1
"1401052008B00023","4a4e065c-9543-4141-9352-2e499e9d0f5bC","山西省","太原市","小店区","太原经济技术开发区",37.741459,112.592634,37.734620,112.583744,1
"1401052008B00039","99b57639-2078-4bca-a967-541793b34508","山西省","太原市","小店区","太原经济技术开发区",37.741459,112.592634,37.734620,112.583744,1
"1401212011B00151","50807095-a8e8-48f0-8cb2-ff4bea086ccd","山西省","太原市","清徐县","清徐县孟封镇师家堡村",37.528324,112.377563,37.521108,112.366624,1
"1401052012B00249","792d93b1-cee8-4d14-b953-149600e6c0a2","山西省","太原市","小店区","太原经济技术开发区",37.741459,112.592634,37.734620,112.583744,1
"1401052012B00239","534c66fc-4046-4c18-b8b3-da5f5010a2b6","山西省","太原市","小店区","太原经济技术开发区",37.741459,112.592634,37.734620,112.583744,1
"1401212018B00153","15da7885-e9cf-4e7b-b51e-10e2fe85e841","山西省","太原市","清徐县"," 清徐县清源镇柴家寨村 ",37.587992,112.304392,37.581500,112.297296,1
"1401052008B00144","3e31260c-f66b-442e-a8f6-b330079da3ad","山西省","太原市","小店区","太原高新技术开发区",37.809639,112.566783,37.870044,112.544344,1
"1401002014B07699","de8074ae-bbe8-4d8d-9ea2-e6988c31b62b","山西省","太原市","尖草坪区","万柏林区晋峰城郊森林公园",37.915176,112.540135,37.822832,112.472848,1
"1401002015B00476","556f4529-593a-41ce-bf47-a69e3dc54f7d","山西省","太原市","小店区","小店区武洛街以南、西温庄西路以西、正阳街以北",37.735276,112.598099,37.728648,112.587712,1
"1401002015B00436","0538df1a-ca71-4ecb-93a3-735c0dd3c733","山西省","太原市","小店区","小店区正阳街以南，科技谷街以东，化章街以北",37.730562,112.587191,37.723884,112.574640,1
"1401002013B05580","d1680cb4-3461-4527-b1cf-597f3ef6d133","山西省","太原市","万柏林区","双拥路以西、建机巷以南、中国兵工物资华北公司以北",37.881171,112.521099,37.874804,112.508304,1
"1401002016B00821","51d14e07-bb83-4420-baad-646a5ce56799","山西省","太原市","小店区","位于小店区嘉节社区，规划路以北、长治路以东、首开项目用地以西",37.771714,112.560214,37.764800,112.547528,1
"1401002015B00066","67010fed-d839-47d3-8bbd-8c53e31da7db","山西省","太原市","杏花岭区","位于杏花岭区晋德印务有限公司以东、航天耐火纤维厂以西以南、新源里小学以北",37.884154,112.609226,37.877916,112.595936,1
"1401002015B00729","f2833903-063e-4ad0-a2ad-58de812fc18b","山西省","太原市","杏花岭区","位于杏花岭区杨家峪村太原东山煤矿有限公司周边",37.881459,112.644544,37.875420,112.625616,1
"1401222016B00148","1a4e2d65-789e-49ce-bb99-ca4ebbb32900","山西省","太原市","阳曲县","黄寨镇莎沟村",38.082370,112.708059,38.072652,112.684192,1
"1401002011B02777","be26020e-4958-4e81-9cc2-610f50bc8d81","山西省","太原市","小店区","规划路以西、太榆路规划绿地以北、武宿社区用地以南",37.779994,112.632939,37.877208,112.502576,1
"1401052009A00128","12d4b32a-a3ea-466f-a658-077df0af46adC","山西省","太原市","小店区","太原高新技术开发区",37.809639,112.566783,37.870044,112.544344,1
"1401002018B00357","e3c52c5f-2ca5-4379-8ae2-ea2ae6cc2954","山西省","太原市","迎泽区","位于迎泽区双塔南路以东，东至、南至山西千里实业集团有限公司，西至、北至规划路。",37.826251,112.600772,37.819240,112.587904,1
"1401812013B00169","9f522ad1-dfe8-4f22-951a-b5a6df7a2e2b","山西省","太原市","古交市","古交市火山村",37.924296,112.198234,37.917272,112.185248,1
"1401002016B00149","e7d7ebb0-6f7b-4441-b404-a3b6065f8fdd","山西省","太原市","晋源区","位于晋源区规划广播街以南、山西广播电视中心项目以北、环湖东路以东",37.783775,112.529442,37.725764,112.463672,1
"1401222014B00029","c941ef15-6270-4eeb-8fad-ce3e29b49905","山西省","太原市","清徐县","县城大运路西",37.521620,112.466493,37.870044,112.544344,1
"1401002012B04899","1a506e42-d634-4fea-98ac-c26898ded089","山西省","太原市","尖草坪区","尖草坪区南固碾村，大同路以西、南固碾村以北、以南、以西",37.937210,112.539671,37.959720,112.511128,1
"1401812013B00233-1","2f83c9cb-54fa-4635-812d-88be7aeedd0c","山西省","太原市","古交市","古交市火山村",37.924296,112.198234,37.917272,112.185248,1
"1401002016B00096","c276c706-4d0e-47f3-b995-f70afa9d2080","山西省","太原市","杏花岭区","胜利东街101号",37.900500,112.581696,37.873156,112.556400,1
"1401812009B00104","72358d47-d1b1-4dde-9f58-a77ee2e63c61","山西省","太原市","古交市","古交市青山路",37.904432,112.173540,37.896148,112.160728,1
"1401212011B00140","fe820142-bcc5-4005-b786-7b481ff6965d","山西省","太原市","清徐县","清徐县东于镇水屯营村",37.612092,112.291820,37.605580,112.279664,1
"1401052018B00140","60758651-c1d1-4bc4-afc7-964e050b8ff9","山西省","太原市","小店区","纬六街以南，使赵街以北，马练营路以东",37.708329,112.624509,37.754732,112.607784,1
"1401052008A00137","0bcceb24-0575-44e3-abe9-fef94f388110","山西省","太原市","小店区","太原高新技术开发区",37.809639,112.566783,37.870044,112.544344,1
"1401052015B00182","89042fe8-4565-41ad-b66c-df3f1e5177a3","山西省","太原市","小店区","太原经济区",37.743367,112.598178,37.870044,112.544344,1
"1401002013B05360","5bb20f06-95ad-4d5c-bc35-8e1e958d5cb3","山西省","太原市","万柏林区","万柏林区，东至千峰南路，北至九院沙河，西至规划路，南至规划大井峪街",37.841062,112.512130,37.858640,112.509100,1
"1401212009B00020-1","184c1444-d5e4-4d8f-a6ee-e82fcb76cef1","山西省","太原市","清徐县","清徐县城西关村",37.613067,112.364558,37.606516,112.351960,1
"1401052015B00109","51515cf8-ad03-49f8-86e6-efc419356d57","山西省","太原市","小店区","太原经济技术开发区",37.741459,112.592634,37.734620,112.583744,1
"1401082015B00033","8a703249-6b32-4380-a348-ae0b0170e5f4","山西省","太原市","尖草坪区","阳兴南街以西，横河北街以南",37.991719,112.575383,37.870044,112.544344,1
"1401222014B00454","baf6cc3c-321f-426e-9b39-543e132198ab","山西省","太原市","阳曲县","县城商贸新街",38.061241,112.676743,38.053812,112.661688,1
"1401052015B00057","8d3bf930-9aa5-4e27-ad48-d3a1f8394742","山西省","太原市","小店区","太原经济技术开发区",37.741459,112.592634,37.734620,112.583744,1
"1401002008B00136","13b867e2-c66d-4aff-b498-37f6057b6f3bC","山西省","太原市","小店区","长风街",37.823862,112.570085,37.822688,112.562520,1
"1401082014B00036","f96ad0c1-9c3a-4099-9578-3cfa84611e5b","山西省","太原市","尖草坪区","北至海源泵业有限公司，南至横河南街，西至40米规划路，东至指定位置。",37.988563,112.589306,37.838292,112.546896,1
"1401212010B00031","c69347a0-a197-4484-bd50-3d541707de64","山西省","太原市","清徐县","清徐县徐沟镇庄子村",37.565298,112.542723,37.558588,112.529920,1
"1401052018B00108","37477463-ec64-43fe-b70d-b1b62978bb70","山西省","太原市","清徐县","潇河产业园规划支路以南、张花街以北约299米、大运路以东、规划支路以西约25米",37.521620,112.466493,37.617872,112.562720,1
"1401002017B01702","e7273dd8-50c7-4fd2-8c1d-d363a57aeb0c","山西省","太原市","杏花岭区","太原市北晨综合开发有限公司以东、以西、以南",37.876989,112.556391,37.870928,112.555128,1
"1401052013B00029","f6187aa3-84dd-4fa8-85ce-e1d3adc42233","山西省","太原市","小店区","太原经济技术开发区",37.741459,112.592634,37.734620,112.583744,1
"1401812011B00385","60b9e6f4-df75-46df-8aa2-b0c8aeb7193d","山西省","太原市","古交市","古交市河口镇河口村北紫金沟应只沟内",37.929023,112.228717,37.937740,112.205576,1
"1401002018B00079","099a74c3-1a53-4441-859f-9dc641a7a1ca","山西省","太原市","万柏林区","西铭街办开城路西、路东和西山外环路西",37.868613,112.446365,37.546440,112.560392,1
"1401222009B00037","86b23587-e034-4fe6-b001-ad2483e83bac","山西省","太原市","阳曲县","新安东街",38.067472,112.688223,38.060740,112.674760,1
"1401232011A00094","5daa315b-a1ce-4d1a-81cb-aa5dab9b082d","山西省","太原市","娄烦县","娄烦县娄烦镇西果园村西南侧",38.094749,111.846337,38.089416,111.838008,1
"1401002011B00147","01619828-0623-4903-aa41-b8709b5b5ea7","山西省","太原市","杏花岭区","杏花岭区坡子街，坡子街以西、原龙湖易居用地以北",37.884808,112.564289,37.879912,112.552136,1
"1401232013B00089","cf08a654-1ff8-400d-bc15-2bb752b76453","山西省","太原市","娄烦县","娄烦县天池店乡上冶南村",37.924912,111.872928,37.918352,111.860080,1
"1401002011B00330","91b8f6c0-918c-4012-92c4-94bfa41ed11d","山西省","太原市","晋源区","晋源新城内新晋祠路以东、古城大街以南、规划路以西、龙山大街以北",37.722988,112.479581,37.713072,112.476664,1
"1401222018B00128","2810af79-ca56-4e46-80c7-4ce46a759b27","山西省","太原市","阳曲县","黄寨镇小屯庄村",38.079733,112.727551,38.074036,112.721736,1
"1401052009A00247","10181e52-ae6a-4dac-bfd3-059f35cc42e0C","山西省","太原市","杏花岭区","太原高新技术产业开发区",37.876989,112.556391,37.870044,112.544344,1
"1401002010B00073","3d58d47b-e535-416f-ac63-3bfeb0a41b6b","山西省","太原市","迎泽区","青年路以西，山西省水利机械厂以北，太原市业余游泳运动学校以南",37.860811,112.572838,37.852144,112.559784,1
"1401002013B06331","691d5fda-fb51-4235-bda9-9f4114beee53","山西省","太原市","万柏林区","万柏林区政府以北、公园路以东",37.865059,112.522178,37.860880,112.508280,1
"1401052009B00094","f111533e-88c0-4f0c-ab7f-0d8cfbe19a4e","山西省","太原市","小店区","太原高新技术开发区",37.809639,112.566783,37.870044,112.544344,1
"1401002013B05471","8e53cfb1-7c89-42a2-9671-4ba56f07867a","山西省","太原市","小店区","小店区张花营村，张花营村用地以西、以南、以北、以东",37.627975,112.556799,37.618092,112.544544,1
"1401002011B02365","08103ada-f596-417a-9a2d-7aceab6c2e8b","山西省","太原市","万柏林区","虎峪河以南、小井峪村以北、规划路以东以西",37.861461,112.519762,37.847712,112.492016,1
"1401002013B06340","0f79115d-5ad2-4174-812f-39420fd7cd2f","山西省","太原市","迎泽区","位于中鲁物流用地以南、新沟村用地以北、新沟村用地以东",37.836221,112.644805,37.831704,112.636016,1
"1401072013B00027","38ae809b-ba18-4cbe-8cc1-bbf171a6491a","山西省","太原市","杏花岭区","大东门街以南、太行路以东、红沟中街以北",37.877773,112.598390,37.869516,112.609224,1
"1401082014B00160","6d173bb9-6ac9-4815-836e-7539bc9b5e9a","山西省","太原市","杏花岭区","西至小返西路，南至阳兴南街",37.955202,112.623467,37.949800,112.609744,1
"1401002014B07569","bae600bd-b8af-4992-898e-05493588790d","山西省","太原市","晋源区","晋源区40米规划路以西",37.721169,112.484564,37.782580,112.483904,1
"1401812008B00117","64f659a8-8331-4e3f-9ea3-2d5d65c0b269","山西省","太原市","古交市","古交市腾飞路",37.921474,112.157422,37.915012,112.145136,1
"1401002009B00543","029dabb7-f8de-4c81-9d9f-b20afbf83879C","山西省","太原市","万柏林区","滨河西路以西、滨河体育中心以北、",37.881650,112.537782,37.875272,112.525832,1
"1401812010B00058","eb1aa08d-2aa7-4ea1-af27-44588b41dd31","山西省","太原市","古交市","古交市义学路12号",37.909214,112.181640,37.906380,112.169256,1
"1401072009B00028","4f777848-85c6-41eb-b970-ed498c2ee37c","山西省","太原市","迎泽区","太原民营经济开发区内：松庄路以西、东山过境高速辅路以东、规划路以北",37.865492,112.626274,38.027836,112.646240,1
"1401002012B03823","7d875d84-7bcd-4809-9580-787a16ad12e1","山西省","太原市","小店区","大吴村坞城路以东、龙城大街以北、荣军北街以南",37.789656,112.599302,37.783216,112.588384,1
"1401052014B00257","2695384e-2709-4019-b8b8-a6ae6e212a2f","山西省","太原市","小店区","太原经济技术开发区",37.741459,112.592634,37.734620,112.583744,1
"1401002018B00717","cba97339-ab99-4ce1-8d37-11fbd5c69626","山西省","太原市","杏花岭区","杏花岭区后沟村,四至:北至规划路、西至市环卫局用地、南至市永安殡仪馆用地、东至卧虎山路",37.894870,112.574569,37.955660,112.585480,1
"1401002010B01767","1b650500-78d4-408b-a241-12f6513d2151","山西省","太原市","小店区","太茅路以西、星河湾以北、以东",37.768200,112.554762,37.702088,112.540448,1
"1401232013B00149","20a6f336-a808-4e0e-800e-5c859a703902","山西省","太原市","娄烦县","娄烦镇河家庄村",38.078222,111.806785,38.071800,111.793672,1
"1401072012B00126","7db1581f-6b68-4696-b78b-f535925d07a0","山西省","太原市","杏花岭区","太原民营经济开发区范围内：太行路以东、绿景用地南、绿景用地以西、绿景用地以北",37.877564,112.606357,37.864472,112.609936,1
"1401002010B01687","1c235c7f-e945-48b3-a050-e89c9c98fc6e","山西省","太原市","小店区","长治路西巷以南，王村以北",37.834178,112.565916,37.827832,112.554416,1
"1401002016B01426","6d899837-089c-450f-96a0-a39cdd1faeb1","山西省","太原市","万柏林区","西峪煤矿以东、以北、万亩生态园以南",37.817232,112.495248,37.808448,112.482000,1
"1401002011B02249","f10a4fef-a723-48fb-9782-d248e7df9dae","山西省","太原市","迎泽区","郝家沟街以南、规划路以东",37.864538,112.611611,37.858224,112.596296,1
"1401812008B00029","6d1b6933-2a36-45a6-9ab4-62b07bab4bfb","山西省","太原市","清徐县","腾飞路南侧，公路段东侧",37.550226,112.373403,37.870044,112.544344,1
"1401002016B01389","023c6e8a-3799-486b-b9e6-6e1102d91f63","山西省","太原市","万柏林区","西峪煤矿以东、以北、万亩生态园以南、西北环高速公路以西",37.817232,112.495248,37.809380,112.433784,1
"1401002016B01430","73c30d8f-6d40-4ed0-8d1f-75a640d9e376","山西省","太原市","万柏林区","西峪煤矿以东、以北、万亩生态园以南",37.817232,112.495248,37.808448,112.482000,1
"1401002009B00704","2982f298-7d56-4580-b1b6-b8a0d200248a","山西省","太原市","迎泽区","朝阳街以南、规划经园路以西、南沙河以北",37.855352,112.603172,37.694756,112.559536,1
"1401222011B00019","99834b0e-2221-430d-9a8d-c2fda81a7e88","山西省","太原市","阳曲县","阳曲县泥屯镇松树村",38.089747,112.537787,38.083636,112.531120,1
"1401212012B00190","fff1d7ce-e331-4d6d-9f6f-d53cbe84c4eb","山西省","太原市","清徐县","清徐县清源镇省渔场",37.627526,112.369411,37.565480,112.322096,1
"1401212012B00208","633167a7-fa47-4ec4-9b75-0f250ee4651e","山西省","太原市","清徐县","清徐县东于镇东于、东高白村",37.591901,112.259704,37.589416,112.250240,1
"1401212012B00247","e58df14c-2af1-45bc-8bf0-2c9c4800d4e9","山西省","太原市","清徐县","清徐县孟封镇西堡村",37.507533,112.387960,37.501028,112.374712,1
"1401212012B00226","157351e2-7eaf-428f-accd-f43ffde40d29","山西省","太原市","清徐县","清徐县西谷乡西谷村",37.581297,112.412696,37.574488,112.399480,1
"1401002016B00177","e3e03205-99de-4202-88dc-05fa66e6664b","山西省","太原市","杏花岭区","位于山西省科技创新城核心区I-10单元10-07地块",37.876989,112.556391,37.716852,112.619360,1
"1401002010B01102","ed1ec033-1455-4baf-9052-7eeaa4a65c83","山西省","太原市","万柏林区","义井村以北、山西省化工研究所以南、化二建小学以西",37.824775,112.513276,37.854680,112.539720,1
"1401002012B03637","785a8a00-86c6-4137-8866-4b53d8ac026e","山西省","太原市","小店区","许坦西街以南、体育路以东",37.807324,112.581793,37.816016,112.563424,1
"1401052016B00064","f7e3202a-704d-401a-8dc2-93f91675f337","山西省","太原市","小店区","太原经济技术开发区",37.741459,112.592634,37.734620,112.583744,1
"1401212012B00185","85ddfccb-454f-4eb2-84db-f478dfc31166","山西省","太原市","清徐县","清徐县经济开发区",37.613067,112.364558,37.606516,112.351960,1
"1401002013B06651","3c91b956-1aba-4f32-849d-466c3472012e","山西省","太原市","尖草坪区","位于新城村以东、钢园路以西",37.987317,112.592063,37.954352,112.540312,1
"1401812011B00219","ea7a8da0-5da4-42d6-a4d9-8af909d14b4f","山西省","太原市","古交市","原古交市西客站、新王朝洒店南侧",37.913000,112.182453,37.914660,112.147904,1
"1401812013B00428","ea0483ab-c62e-4097-8f1a-4d008bae8483","山西省","太原市","古交市","古交市大川东路",37.912259,112.177193,37.908988,112.168344,1
"1401002012B03670","228005aa-5a8d-4631-be56-bb7f2447f910","山西省","太原市","迎泽区","迎泽区新沟村,四至:规划南内环东延以南、新沟村用地以北、以东.",37.845742,112.597301,37.831704,112.636016,1
"1401002015B00279","5b7487ad-03cf-46fc-9dc2-49f35d3004d3","山西省","太原市","晋源区","晋源区西寨村",37.770943,112.535918,37.764604,112.525656,1
"1401052009B00297","bb6cca86-3f92-4831-86c8-446721386937","山西省","太原市","小店区","太原经济区",37.743367,112.598178,37.870044,112.544344,1
"1401222009B00022","6c11a08d-4e37-48f8-a277-4775bc4b361f","山西省","太原市","阳曲县","高村乡马坡村",38.147247,112.718074,37.994664,112.555848,1
"1401812012B00215","b561fab7-698b-43cc-819d-eb37aaf1c398","山西省","太原市","古交市","古交市马兰镇营立村",37.854142,112.007492,37.847672,111.994400,1
"1401002015B00268","a8e7c6e0-78fd-4f19-bd73-15536920d05a","山西省","太原市","万柏林区","万柏林区西渠路以东、汾河外滩小区以西、彭西街以南、漪兴街以北",37.875249,112.533860,37.879532,112.526616,1
"1401002009B00517","cbeca8e9-cad1-4085-b142-cae6968d4d77C","山西省","太原市","杏花岭区","解放北路以西、北仓巷以南、省国防工办以北",37.912419,112.569475,37.879972,112.553816,1
"1401222015B00378","0fe4be87-055d-4246-9e17-3cb3319e0e3a","山西省","太原市","阳曲县","黄寨镇城晋驿村",38.097637,112.720280,38.091100,112.707240,1
"1401002009B00835","842259f1-3b48-43ad-a2ef-f4405e3ccf86","山西省","太原市","小店区","太原四十八中以南,大马村以北、太原正祥工贸有限公司以西",37.820132,112.566249,37.797700,112.544552,1
"1401002016B00455","f7a43bba-6e1c-4be2-a864-6c44a20a0ff6","山西省","太原市","万柏林区","晋源区义井城改用地以东、西中环以西、义井西街以南、义井城改用地以北",37.822750,112.513607,37.808812,112.503512,1
"1401052013B00151","c1b108ee-fdc6-414f-b4e8-2994eafe95db","山西省","太原市","小店区","太原高新技术开发区",37.809639,112.566783,37.870044,112.544344,1
"1401002012B05009","b3e8f3ab-1ad7-4560-8f66-f54e58fc7c80","山西省","太原市","尖草坪区","中北大学以南、上兰村用地以北",38.020321,112.456382,38.009120,112.436248,1
"1401812008B00061-2","fcbd137e-ca86-408f-b337-958a9b9e1f09","山西省","太原市","古交市","古交市腾飞路",37.921474,112.157422,37.915012,112.145136,1
"1401002009B00948","c1ba70e8-a73d-4966-9ea3-3e9b1bc52db2","山西省","太原市","晋源区","新晋祠路以东、规划的长风商务区S10、S11地块",37.807157,112.540289,37.783944,112.519664,1
"1401002011B00476","63211944-7922-4576-b74b-219462a28c39","山西省","太原市","迎泽区","迎泽区马庄村以南、以北、以西、储备地块一、二以东的储备地块",37.836408,112.639099,37.830160,112.626216,1
"1401002014B06949","d364819d-58e4-4c6c-af0d-59a7baec4a1d","山西省","太原市","尖草坪区","位于万柏林区晋峰城郊森林公园",37.915176,112.540135,37.822832,112.472848,1
"1401002011B02707","d558e708-1098-4110-9e09-343af82fe6ff","山西省","太原市","杏花岭区","大东关街以南、双塔北路以东、山西宇星客车有限公司以西、以北",37.877865,112.601770,37.871512,112.589016,1
"1401002014B07711","e8cfd3c6-bcb5-4455-8022-ff8d1926fa3e","山西省","太原市","尖草坪区","万柏林区晋峰城郊森林公园",37.915176,112.540135,37.822832,112.472848,1
"1401002014B07707","4d2dc5cc-e9d2-4b04-87c5-8fcf04c9d921","山西省","太原市","尖草坪区","万柏林区晋峰城郊森林公园",37.915176,112.540135,37.822832,112.472848,1
"1401002013B05212","f11a8884-f965-4024-9b0a-5e8505178c1a","山西省","太原市","尖草坪区","大同路229号，东干渠以西，太原市林场以东，杏花岭区宿舍以北",37.913374,112.549773,37.870044,112.544344,1
"1401072013B00075","b70dd1db-f5e2-477f-a13c-23fa9a0f0e3d","山西省","太原市","杏花岭区","五龙口街以北、松庄北路以东、红沟中街以南、松庄东路以西",37.875638,112.622181,37.864700,112.596896,1
"1401072013B00103","0fe7e22a-242d-4cfa-9818-31fedd18c5a6","山西省","太原市","杏花岭区","五龙口街以北、松庄北路以东、红沟中街以南、松庄东路以西",37.875638,112.622181,37.864700,112.596896,1
"1401072013B00080","71869f9f-433a-4d9e-a804-b98fd59b3028","山西省","太原市","杏花岭区","五龙口街以北、松庄北路以东、红沟中街以南、松庄东路以西",37.875638,112.622181,37.864700,112.596896,1
"1401002016B00729","e06a6665-ab98-4e6b-9678-1dd57e41b289","山西省","太原市","万柏林区","北起新庄北街、南至南上庄边界，西起新庄北路，东至千峰南路",37.829044,112.521578,37.836152,112.512152,1
"1401212013B00197","dc2b4294-1a0e-476d-9881-ba19a06698db","山西省","太原市","清徐县","清徐县王答乡马庄村",37.589552,112.465316,37.582540,112.452248,1
"1401002011B02429","e5f2466c-1e75-4f5d-8670-dc3cf5e7348f","山西省","太原市","尖草坪区","红沟北路以东、园丁小区以西、省人防实业公司用地以北",37.896395,112.537694,37.910080,112.165328,1
"1401002012B04875","df2c7b83-160b-47e2-8386-8828ceeea0ed","山西省","太原市","小店区","小店人民南路19号，人民南路以西、惠远西街以南、兴农路以东",37.738418,112.574865,37.732696,112.557848,1
"1401002012B05057","6a83051b-a904-4cdd-87b9-93910a3b5c29","山西省","太原市","小店区","位于小店区龙城大街，四至：龙城大街以北、坞城南路以东、规划路以西",37.780264,112.570221,37.773952,112.575424,1
"1401812013B00195-1","e764f7b3-2b35-4e67-b1a1-9a66fe894ad1","山西省","太原市","古交市","古交市火山村",37.924296,112.198234,37.917272,112.185248,1
"1401212015B00068","a81b5285-9fef-41bc-a462-36e7e9decd41","山西省","太原市","清徐县","清徐县王答乡大寨村",37.580051,112.481914,37.573364,112.468816,1
"1401052007B00127","7852f500-0312-4e59-86fd-dab8c22944ea","山西省","太原市","小店区","太原高新技术开发区",37.809639,112.566783,37.870044,112.544344,1
"1401222014B00263","50e10938-126d-4054-97b7-76e1dd534413","山西省","太原市","阳曲县","黄寨镇大屯庄村",38.069293,112.708512,38.060748,112.697816,1
"1401002016B05570","7e9b1822-4404-42ce-b35f-056db52448af","山西省","太原市","杏花岭区","太行路以西，红沟南街以北",37.875603,112.600122,37.869608,112.585912,1
"1401222014B00498","cccb1c9f-9e02-4be0-bfad-7b216d287c37","山西省","太原市","阳曲县","黄寨镇城晋驿村",38.097637,112.720280,38.091100,112.707240,1
"1401222015B00398","5dcb7afc-5b21-45c7-8324-0a7c980a509e","山西省","太原市","杏花岭区","太原工业新区企业大道以北、山西华腾燃气设备有限责任公司以东",37.876989,112.556391,37.875272,112.590368,1
"1401052016B00128","d1706faf-ed9f-4fd4-863a-5ff983982646","山西省","太原市","小店区","太原经济区",37.743367,112.598178,37.870044,112.544344,1
"1401002012B05037","ab911012-8e99-42ca-a69b-4cc9fc0ae218","山西省","太原市","杏花岭区","位于丈子头连接线，东涧河村用地以西、东涧河村用地以北、东涧河村用地以东",37.930659,112.615647,37.927160,112.607264,1
"1401812013B00323","62ed2656-b970-46d0-a485-749c6bf32457","山西省","太原市","古交市"," 古交市东曲街办小峪沟社区居委会 ",37.910179,112.191107,37.923400,112.226808,1
"1401212013B00124","172bd796-5131-4e66-8391-fd212b38a208","山西省","太原市","清徐县","清徐县清源镇北营村",37.641799,112.367758,37.635160,112.354584,1
"1401222015B00077","6ba19a9a-2b4b-4131-8e3e-a40e09e15f9a","山西省","太原市","阳曲县","凌井店乡凌井店村",38.056755,112.942825,38.050912,112.929368,1
"1401222015B00107","3dcca9d8-367d-4cec-b2d4-fc3dc030a782","山西省","太原市","阳曲县","黄寨镇北留村",38.076552,112.658856,38.072040,112.641520,1
"1401222015B00060","8101ea1f-73cd-4471-9f81-c11d2ad4edc0","山西省","太原市","阳曲县","高村乡高村村",38.195679,112.657484,38.164168,112.681896,1
"1401052012B00047","3081def0-8af6-4ca8-ae97-00084cdade4d","山西省","太原市","阳曲县","None",38.195679,112.657484,38.164168,112.681896,1
"1401052012B00077-1","e1b5ab3b-bf8c-4dd6-982d-b5857862a2e4","山西省","太原市","小店区","太原经济区",37.743367,112.598178,37.870044,112.544344,1
"1401222008B00088","1a9d5a61-caeb-424f-b1e4-8aade6a408cd","山西省","太原市","阳曲县","东黄水镇故县村",38.089164,112.750646,38.082920,112.743128,1
"1401002015B00645","0894aede-d1f2-40fe-a78e-686cf7dfd1d2","山西省","太原市","小店区","位于正阳街以南、化章北街以北",37.730562,112.587191,37.723884,112.574640,1
"1401002013B05161","feedc5d0-ae8d-4d37-acf8-358cec15eb4f","山西省","太原市","万柏林区","东至规划路，西至铁东路，南至规划路，北至迎泽西大街公园绿地",37.864840,112.487371,37.858580,112.474120,1
"1401002017B00237","2b51aa7e-409b-4ffb-acf4-68dd6002649c","山西省","太原市","小店区","位于平阳路136号，太原锦荣房地产开发有限公司以西、以北，规划路以东、以南。",37.803862,112.559062,37.864392,112.538064,1
"1401222013B00018","16ade124-4fd8-4f85-8969-d3707ae6da17","山西省","太原市","阳曲县","大盂镇大盂村",38.183190,112.730531,38.176812,112.717400,1
"1401812013B00024","28c9c5ae-d3aa-4425-b2b0-d80e30471b14","山西省","太原市","古交市","古交市河口镇磨石村",37.946872,112.201716,37.939828,112.188728,1
"1401222017B00097","b7fc3d78-7027-4a4a-96a4-ad2ce7ca0b10","山西省","太原市","阳曲县","侯村乡青龙镇村",38.031413,112.637643,38.023172,112.653296,1
"1401222014B00346","b351578e-b738-4bdc-9ae7-a58dc8c5e2da","山西省","太原市","阳曲县","东黄水镇故县村",38.089164,112.750646,38.082920,112.743128,1
"1401222016B00175","a76e224b-4c12-4142-a439-77200596a7d5","山西省","太原市","阳曲县","黄寨镇小屯庄村",38.079733,112.727551,38.074036,112.721736,1
"1401212015B00230","5a4f40e2-0870-41e2-8949-12756cd9a35a","山西省","太原市","清徐县","清徐县孟封镇西堡村",37.507533,112.387960,37.501028,112.374712,1
"1401052015B00157","33ac71ef-701e-4dcd-8140-ca5d75a5a83b","山西省","太原市","小店区","太原经济区",37.743367,112.598178,37.870044,112.544344,1
"1401222018A00279","c43f65cf-89ad-49bb-b621-a3836f00e7bd","山西省","太原市","阳曲县","黄寨镇城晋驿村",38.097637,112.720280,38.091100,112.707240,1
"1401212018A00135","48e954df-24d4-4d9d-bc45-512a1e720d4b","山西省","太原市","清徐县","徐沟镇北关村",37.570558,112.521953,37.564128,112.508960,1
"1401002017B01226","37058d22-2039-467a-ab4e-b64e99b50869","山西省","太原市","万柏林区","万柏林区中国网通义井测量站以北、规划路以南、千峰南路以东、南屯社区以西",37.823040,112.531329,37.836152,112.512152,1
"1401212018A00175","e049b73a-a187-4536-9864-f5714c7fab41","山西省","太原市","清徐县","清源镇西范庄村",37.577638,112.347389,37.570696,112.334352,1
"1401212014B00206","75c38cf0-f424-42aa-bd15-2d880373b18c","山西省","太原市","清徐县","清徐县清源镇柴家寨村",37.587992,112.304392,37.581500,112.297296,1
"1401212014B00198","2d59ceaf-27e5-45d4-b0e7-449ac4359ea4","山西省","太原市","清徐县","清徐县清源镇柴家寨村",37.587992,112.304392,37.581500,112.297296,1
"1401002011B00277","2329c435-c7d3-48c1-97d7-e5e902e9de3f","山西省","太原市","迎泽区","松庄路以东、朝阳街以北、松庄村用地范围内",37.865492,112.626274,37.854132,112.612376,1
"1401002012B04036","48494996-eba4-4bcd-9548-fc22e13065a8","山西省","太原市","小店区","晋阳街以北，四至为；,体育南路以东、军民路以西、北张退水渠以北、国际大都会用地以南",37.798906,112.580743,37.784500,112.582720,1
"1401002016B00777","e38512eb-acdb-48c1-ba3a-f6540eeed3db","山西省","太原市","榆次区","地位于西温庄乡寺庄村以东、寺庄村小路以北、山西大学商务学院以南",37.748839,112.668674,37.744000,112.658000,1
"1401002012B03239","7aba4d1f-6a49-410e-a16e-5ba8b9673d94","山西省","太原市","迎泽区","迎泽区马庄村，四至为规划南内环东街以北，马庄村用地以东、以西",37.845510,112.611466,37.830160,112.626216,1
"1401812010B00068","6b996bcd-ee54-4c47-9470-e52c870f5520","山西省","太原市","古交市","古交市西曲村矾石沟东侧南沟口",37.978915,112.165937,37.972308,112.152688,1
"1401052018B00367","1c148af6-a746-4394-bd74-6996e8624e9e","山西省","太原市","杏花岭区","山西转型综改示范区潇河园区",37.876989,112.556391,37.624628,112.433272,1
"1401052012B00417","cee1b7d6-7a8f-4fd1-baab-cc65ed71cc82","山西省","太原市","小店区","太原经济技术开发区",37.741459,112.592634,37.734620,112.583744,1
"1401222014B00469","6e3fa7ad-e3fc-489a-99b3-71510a2a65a3","山西省","太原市","阳曲县","黄寨镇城晋驿村",38.097637,112.720280,38.091100,112.707240,1
"1401812013B00297","618d6bc6-8c61-49da-8079-98f51b630ce3","山西省","太原市","古交市","古交市火山村",37.924296,112.198234,37.917272,112.185248,1
"1401002010B01705","88037f42-2fa9-4825-8fa2-dc9bc4ac9e9a","山西省","太原市","小店区","坞城东街63号,建设路以西、坞城东街以北",37.818385,112.595012,37.870044,112.544344,1
"1401222011B00038","6f02619d-9084-4091-a36a-353f8d346673","山西省","太原市","阳曲县","黄寨镇小牛站村",38.090990,112.709110,38.083120,112.680744,1
"1401212018A00129","1c1a6a80-cd47-46ab-a2a3-627a5a210766","山西省","太原市","清徐县","清源镇南营村、春光村",37.604662,112.347285,37.597708,112.334240,1
"1401232005B00028","8a3a16b5-2d10-4882-9162-609feb832bfe","山西省","太原市","娄烦县","娄烦县城南开发区",38.073195,111.803591,38.066656,111.790840,1
"1401212017B00029","53164a46-4654-4993-b8f0-f07c1d1b39a8","山西省","太原市","清徐县","清徐县集义乡中辽西村",37.592174,112.568509,37.586180,112.553008,1
"1401222017B00088","0c8ce964-59e6-43ea-9659-2a99eff70fd0","山西省","太原市","阳曲县","侯村乡青龙镇村、黄寨镇南留南村",38.059878,112.649812,38.053500,112.636936,1
"1401002018A00592","bbb255cf-8753-4532-b1df-8458fdb0c10d","山西省","太原市","小店区","西至人民南路和贾家寨、东至温家堡和贾家寨、北至十号线、南至贾家寨",37.735687,112.575009,37.697120,112.547016,1
"1401212017B00157","fe1cf385-3de9-4781-a8f4-312126d4979f","山西省","太原市","清徐县","清徐县东湖街办迎宪工贸公司",37.619782,112.366020,37.594348,112.339320,1
"1401812007B00013","046f42a8-9c2f-4bb1-96ed-bdef1aec1986","山西省","太原市","古交市","古交市太佳线滩上桥北侧",37.913000,112.182453,37.906380,112.169256,1
"1401052007A00157","343eb24b-d027-4fe9-af2b-8e019dfaf44d","山西省","太原市","小店区","太原高新技术开发区",37.809639,112.566783,37.870044,112.544344,1
"1401002017B01334","a5b78128-8422-47fc-ba5e-cda0f1973fc7","山西省","太原市","万柏林区","东至前北屯路，南至迎西大厦，西至太原理工大学，北至太原市城镇集体工业联合社",37.864612,112.532470,37.857392,112.566552,1
"1401002014B07417","43206486-fd79-4e55-bcea-27b6588de541","山西省","太原市","小店区","位于小店区红寺村、嘉节村、长治路以东、规划路以北、体育南路以西、南环北街以南",37.785601,112.575944,37.783208,112.563064,1
"1401002011B02200","27490476-a4e5-46ef-8586-73d1c60ef8ba","山西省","太原市","杏花岭区","大东关街以北、北同蒲铁路以东、太原瓷厂宿舍以西",37.883019,112.598755,37.875036,112.588280,1
"1401222018A00254","84e31e5a-b52e-4826-8a25-7aa008baead6","山西省","太原市","阳曲县","黄寨镇北留村,宋庄村",38.076552,112.658856,38.079332,112.652448,1
"1401222018A00306","e66ab055-587d-48db-a08e-f00069942639","山西省","太原市","阳曲县","黄寨镇北郑村、大屯庄村",38.070358,112.693953,38.060748,112.697816,1
"1401002017B00077","bdfbb47b-8d95-45cd-a185-51049d794de0","山西省","太原市","万柏林区","位于晋源区西中环以西、规划路以东、义井西街以南、北堰村城改用地以北.",37.840903,112.510178,37.806504,112.495040,1
"1401222017B00237","5d5007aa-81a8-4839-8aa9-ef93ec9790ab","山西省","太原市","阳曲县","阳曲产业园暖泉湾片区",38.045111,112.655992,38.038624,112.643152,1
"1401052007B00100","c0a9dc6a-549b-4a99-8293-a5e3979e47db","山西省","太原市","小店区","太原高新技术开发区",37.809639,112.566783,37.870044,112.544344,1
"1401002017B00127","70afeddb-141c-4800-b11e-4249d2e417da","山西省","太原市","万柏林区","万柏林区千峰南路以东、晋祠路以西、长风街以北",37.843196,112.525281,37.836152,112.512152,1
"1401232004B00022","a65a7312-ec54-44ad-93ff-c053c028db6b","山西省","太原市","娄烦县","娄烦县城南大街",38.069610,111.797115,38.068080,111.795064,1
"1401222007B00029","ecc7a738-8c9f-43b5-b447-5489ae5212af","山西省","太原市","阳曲县","西凌井乡西凌井村",38.140897,112.429449,38.133888,112.416296,1
"1401232005B00087","42fcff75-47c4-467b-949d-6fc06e819009","山西省","太原市","娄烦县","娄烦县城北大街",38.074304,111.804208,38.064172,111.782416,1
"1401222008B00020","7892c247-c5a0-45ad-9e3a-5553cef047e9","山西省","太原市","阳曲县","阳曲县高村乡马坡村",38.147247,112.718074,38.140704,112.711152,1
"1401052017B00016","90b97561-127b-42db-bfcb-c2661724cc4a","山西省","太原市","小店区","太原经济技术开发区",37.741459,112.592634,37.734620,112.583744,1
"1401002017B00487","6dbe0365-f369-4e85-91e5-d7c5674fd89f","山西省","太原市","晋源区","位于晋源区武家庄村，太原化学工业集团有限公司以东、规划路以南、南中环西街以北",37.821963,112.518209,37.812432,112.501760,1
"1401002010B01649","a26c6ca1-f5b8-4dc5-ac41-c5371b3191b0","山西省","太原市","杏花岭区","建设北路以西、北沙河西南、北大街面粉二厂铁路专用线用地北侧",37.896436,112.562949,37.875952,112.578440,1
"1401052010B00070-1","e309199f-7595-4447-aa32-ee704e5bb1b6","山西省","太原市","小店区","太原经济区",37.743367,112.598178,37.870044,112.544344,1
"1401222012B00176","5a83c519-cb2e-4293-9e2b-dc78dc464f1b","山西省","太原市","阳曲县","县城新阳东街",38.064540,112.683842,38.058200,112.673408,1
"1401052008B00182-1","da0010b3-4d19-4d10-848e-b2081a48aa2c","山西省","太原市","小店区","太原高新技术开发区",37.809639,112.566783,37.870044,112.544344,1
"1401212011B00077","98bd9e1a-70b0-4ae5-84a9-ec399a9eedff","山西省","太原市","清徐县","清徐县清源镇陈庄村",37.600353,112.368263,37.593712,112.355048,1
"1401002012B04937","51f8e82f-b03a-4155-a1f0-db39de923c31","山西省","太原市","迎泽区","位于东至水峪村用地，南至水峪村用地，西至松庄村用地，北至水峪村用地。",37.858911,112.637791,37.696160,112.281632,1
"1401082011B00027-1","96164f99-bd92-426c-87fc-83832eb046be","山西省","太原市","杏花岭区","东至钢园路，北至小返河，南至园区10号路，西至东方机械厂及园区1号路南段。",37.955202,112.623467,37.949800,112.609744,1
"1401812008B00045","0a928bcc-3afe-4a28-81e7-1eadd386e0bf","山西省","太原市","古交市","古交市郝家庄村郝家庄路",37.890479,112.174484,37.883036,112.171672,1
"1401002013B05267","80b6fd87-3865-49f4-b3d2-d23567b1446e","山西省","太原市","万柏林区","北寒村以西、以南、西山文化宫以东、西矿街以北",37.867353,112.487058,37.858232,112.451896,1
"1401812014B00050","eaaf3ee5-0ace-48fd-a6da-4a63bc77dccd","山西省","太原市","古交市","古交市屯兰办屯村社区口子里",37.906620,112.113285,37.904180,112.112840,1
"1401812010B00016","5d224c81-9929-4e88-a6e0-cd36c6f73dc2","山西省","太原市","古交市","古交市川东公园路北，水泉寨公园山脚处",37.912548,112.179324,37.905528,112.165872,1
"1401002009B00176","7dd00deb-69de-4b74-8a01-5502e4bd616d","山西省","太原市","万柏林区","西铭村以西、太原水泥厂以东",37.867935,112.444176,37.860756,112.411872,1
"1401052012B00201","0684b916-38de-43d9-bb94-a02130aef73d","山西省","太原市","小店区","太原经济技术开发区",37.741459,112.592634,37.734620,112.583744,1
"1401812010B00159","409027ac-cbed-4711-be3c-0d60ad800f10","山西省","太原市","古交市","古交市桃园街道办、原平河高升村委会滩地",37.865347,112.124558,37.915840,112.146216,1
"1401812014B00032","2349379c-1034-4db4-b6f5-4b324c8e11d2","山西省","太原市","古交市","古交市青山路",37.904432,112.173540,37.896148,112.160728,1
"1401082013B00022","c9bfad23-571d-448e-a604-23ebca57eaba","山西省","太原市","杏花岭区","东至3号路，南至15米规划路，西至小返东路，北至阳兴大道",37.955202,112.623467,37.970616,112.647560,1
"1401812012B00080","4f04e4bf-f3af-441f-8aaf-e7438ecd1526","山西省","太原市","古交市","古交市西曲办滩上汾河桥西",37.925668,112.178194,37.918508,112.130024,1
"1401072009B00068","d65e41ec-5627-4601-ab60-d911c01f6945","山西省","太原市","迎泽区","太原民营经济开发区：经园路以西、郝家沟街以北、汇隆花园以东、东风经济发展有限公司以南",37.865749,112.616690,37.864472,112.609936,1
"1401002012B03332","44103f43-a5d6-4532-bb37-ee2a184dfbe4","山西省","太原市","小店区","小店区城西村用地、南至城西村用地、北至规划道路用地、西至真武路",37.744253,112.582648,37.736484,112.569912,1
"1401232011A00020","0480d0be-3362-4d05-b2d9-7acd1c29e3d6","山西省","太原市","娄烦县","娄烦县盖家庄乡南峪村",38.093401,111.640726,38.082212,111.637400,1
"1401002012B03268","46651eec-25e8-4e63-824d-27a771c17bb1","山西省","太原市","小店区","小店村西吴村，东至省农科院用地、南至规划路、西至规划路",37.823440,112.593454,37.735444,112.565336,1
"1401002012B03152","c8a117f4-2ef6-4a51-b299-23e676c2b745","山西省","太原市","杏花岭区","太原市敦化北路23号，四至为敦化坊村用地以东，北中环以南，富力城一期以西",37.907699,112.601260,37.898940,112.540744,1
"1401812011B00066","a6577fca-74ea-4feb-af0f-262b15f284e1","山西省","太原市","古交市","古交市河口镇磨石村东、洞子沟、古曹公路东北侧",37.946872,112.201716,37.939828,112.188728,1
"1401002009B00368","0d4684f8-1264-4831-82fa-0cbfcf83f295CC","山西省","太原市","杏花岭区","五一路316号，北沙河以南、五一路以东",37.896073,112.562949,37.891612,112.544024,1
"1401212013B00168","df46ac23-a61e-4218-9d3e-c6c32f7006ed","山西省","太原市","清徐县","清徐县徐沟镇庄子营村",37.577605,112.553353,37.570768,112.540616,1
"1401002011B00040","3766114a-6394-4d52-b7fa-3e35c5a83a0b","山西省","太原市","迎泽区","枣园规划公园以北、迎泽区马庄、枣园村",37.834704,112.634034,37.817880,112.626952,1
"1401052010B00197","d505c71f-6311-4e99-84d7-954d91ba874c","山西省","太原市","小店区","太原经济技术开发区",37.741459,112.592634,37.734620,112.583744,1
"1401222018B00069","65a67681-7a57-43b1-8478-4adbaf19c9a1","山西省","太原市","阳曲县","黄寨镇柏井村",38.108122,112.711780,38.101452,112.698824,1
"1401222012B00057","19be5025-2932-442a-a0a6-0cdb64fea9c1","山西省","太原市","阳曲县","东黄水镇故县村",38.089164,112.750646,38.082920,112.743128,1
"1401222012B00049","3a5c6f3a-b28a-439f-901d-cd7af270d017","山西省","太原市","阳曲县","大盂镇大盂村",38.183190,112.730531,38.176812,112.717400,1
"1401002016B00166","144f230f-2a2b-4d3f-920d-bfdd433e34ba","山西省","太原市","杏花岭区","位于杏花岭区,四至：金刚里中巷以北、金刚里北一巷以西、金刚里北二巷以东",37.886619,112.549471,37.893520,112.564248,1
"1401002009B00160-1","5296ad2d-bd31-4505-b0b1-2e7812044267CC","山西省","太原市","迎泽区","长风东街与东山高速相交处、高速收费站南",37.823925,112.611786,37.817080,112.587408,1
"1401222011B00146","737132b8-8897-4143-b8a5-b02592315746","山西省","太原市","阳曲县","阳曲县城大运路西侧",38.068663,112.679537,38.057748,112.666528,1
"1401002018B00185","64682db0-b5b4-46eb-a015-1c8861243c94","山西省","太原市","万柏林区","万柏林区，西至纵三路、东至煤气化宿舍、南至规划路",37.864974,112.522577,37.858640,112.509100,1
"1401002018B00219","62b7055e-aa9b-434e-8f58-b0ffde5e8f73","山西省","太原市","尖草坪区","万柏林区和平北路西侧，西矿街以北",37.899438,112.516281,37.859976,112.469992,1
"1401222014B00374","4897986f-cc2e-4278-b79f-92825224760e","山西省","太原市","阳曲县","凌井店乡凌井店村",38.056755,112.942825,38.050912,112.929368,1
"1401052009B00017-1","a4c8e2a0-f89b-412d-9662-26f79b5f4374","山西省","太原市","小店区","太原经济技术开发区",37.741459,112.592634,37.734620,112.583744,1
"1401052009B00027-1","41d1d250-a4f0-425c-b76d-b2e65356cb02","山西省","太原市","小店区","太原经济技术开发区",37.741459,112.592634,37.734620,112.583744,1
"1401812013B00277","e5b88ada-90a5-4705-8613-2650cd180d54","山西省","太原市","古交市","古交市马兰镇武家庄水峪沟口",37.858331,112.034328,37.848100,112.032096,1
"1401222014B00248","3a5ec1e6-7924-4032-8ab7-85e89b430057","山西省","太原市","阳曲县","大盂镇李家沟村",38.169494,112.747758,38.163216,112.734584,1
"1401002009B01165","dcc973e7-0422-4390-81f2-42e9a090398e","山西省","太原市","小店区","桃园路以西、太原市房地产开发公司用地以南、以北、以东",37.740773,112.575374,37.882172,112.541768,1
"1401052018B00044","c63c3770-93b1-4b29-b5fe-f7883388a6c1","山西省","太原市","小店区","潇河产业园北格街以南，规划小牛线以北，大运东路以东，太太路以西",37.635423,112.540169,37.576280,112.553744,1
"1401222018B00098","ec8f04e4-b633-498e-82b4-26b7b466f4be","山西省","太原市","阳曲县","黄寨镇北郑村、大屯庄村",38.070358,112.693953,38.060748,112.697816,1
"1401002009B00125","4ea10037-f472-4f5a-a913-31d4273a9b31","山西省","太原市","万柏林区","新晋祠路东",37.829205,112.536044,37.870044,112.544344,1
"1401002009B00428-1","217423bc-d4f6-4d19-b0ab-2472eaea4885CC","山西省","太原市","万柏林区","小井峪乡阎家沟村、迎泽西大街绿化带以北、规划路以东",37.863062,112.481673,37.856728,112.492376,1
"1401002014B07550","59c04c75-42e7-4c45-accf-d3d3d84aa42c","山西省","太原市","杏花岭区","敦化北路以西，规划路以北以南以东",37.901836,112.595214,37.895532,112.582488,1
"1401002010B02045","10687652-fbea-4788-af91-77c1454865f7","山西省","太原市","小店区","小店区西吴村、范家堡村、龙城大街以北，体育路与大运路之间",37.780264,112.570221,37.773952,112.575424,1
"1401002011B02870","f4b96faf-76f1-4139-b3e9-cb8952e58cf2","山西省","太原市","万柏林区","迎泽西大街绿化带以北、太原市市政公司加工厂以南",37.863062,112.481673,37.856728,112.492376,1
"1401002010B00065","c91efbb8-3d6a-41d3-90bb-5913a181cf34","山西省","太原市","晋源区","化工路11、13号，化工路以北、太原富力城以南、山西省五建以东",37.800215,112.503436,37.791568,112.490320,1
"1401222014B00289","76fec945-2e5e-4d2e-80e0-2f2b849effe9","山西省","太原市","阳曲县","黄寨镇北郁利村",38.093563,112.651342,38.087176,112.638472,1
"1401002012B04957","c9ab3837-6f31-4240-ac7e-bc701377b8e9","山西省","太原市","迎泽区","位于迎泽区新沟村，规划南内环东延以南、新沟村用地以北、新沟村用地以东。",37.836221,112.644805,37.831704,112.636016,1
"1401002012B04966","01fde2ab-5682-43ce-a387-80a7aa46902f","山西省","太原市","迎泽区","位于迎泽区新沟村，规划南内环东延以南、新沟村用地以北、新沟村用地以东。",37.836221,112.644805,37.831704,112.636016,1
"1401212012B00170","9b1b905e-f417-4330-ae1a-9b5a22df92d2","山西省","太原市","清徐县","清徐县经济开发区",37.613067,112.364558,37.606516,112.351960,1
"1401212012B00067","1b336804-619e-4a83-a6c1-4b4641f3af63","山西省","太原市","清徐县","清徐县东湖街道办南营留村",37.609798,112.351113,37.603100,112.335024,1
"1401002015B00166","e75f861f-68c1-4a55-8f3c-3aaf2d47ea94","山西省","太原市","万柏林区","西矿街以南，迎西高速收费站周边",37.867353,112.487058,37.859976,112.469992,1
"1401002015B00395","7f3d5b0b-6e75-41b7-ba3a-79bbde6d9c0f","山西省","太原市","小店区","位于小店区科技谷路以西、武洛街以南、正阳街以北",37.735276,112.598099,37.728648,112.587712,1
"1401812011B00023","2ed796f5-2594-4f20-a791-f40df9f7b4ce","山西省","太原市","古交市","古交市滩上汾河桥东端北侧、白金龙酒店西侧",37.922240,112.151814,37.912868,112.165856,1
"1401212013B00028","80a824c6-9b0d-44ab-9c0a-3a29fe2c3265","山西省","太原市","清徐县","清徐县徐沟镇西楚王村",37.531472,112.530059,37.526720,112.523976,1
"1401002010B00059","d2f65647-12e4-493a-b8eb-b5aa6ff384f9","山西省","太原市","杏花岭区","马道坡街以南、太原市东山煤矿用地以北、以西",37.886586,112.610037,37.880264,112.598840,1
"1401002017B01787","2bd44034-eb51-4bc5-bb26-e614c847cdaf","山西省","太原市","迎泽区","迎泽区郝庄镇王家峰村，东中环路以东",37.848947,112.611584,37.835552,112.598752,1
"1401002013B05138","7aac85cd-0954-4a3e-9b13-341f58ac79cf","山西省","太原市","杏花岭区","山西盛海房地产开发有限公司以西、规划路以东",37.876989,112.556391,37.908020,112.165000,1
"1401002011B02327","1d6f70a7-7dc8-4385-bc3f-758e78ee1450","山西省","太原市","小店区","国营太原农牧场以东、以西，经济区4号线以北、经济区2号线以南",37.715476,112.620432,37.711008,112.591704,1
"1401212011B00083","3d6854c3-2c9d-4a74-bd08-6bb6c20be648","山西省","太原市","清徐县","清徐县孟封镇西堡村",37.507533,112.387960,37.501028,112.374712,1
"1401052018B00129","df7c94e0-c770-4573-bb16-ad74f7a4a273","山西省","太原市","杏花岭区","唐槐园区",37.876989,112.556391,37.870044,112.544344,1
"1401232011A00040","a159febc-4d63-43ed-b50d-24948b30007f","山西省","太原市","娄烦县","娄烦县娄烦镇大夫庄村",38.067647,111.776486,38.061308,111.763288,1
"1401002015B00980","cfde6689-df12-4087-a55f-940cc3512f3a","山西省","太原市","小店区","小店区马练营东路以东、规划路以西、规划路以北",37.761236,112.622268,37.754732,112.607784,1
"1401212013B00182","d2c5abb7-b48a-4a07-8d6d-064f16d9f715","山西省","太原市","清徐县","清徐县徐沟镇庄子村",37.565298,112.542723,37.558588,112.529920,1
"1401002014B07598","967cb26f-511b-42f4-b082-e514762fbdfe","山西省","太原市","迎泽区","南内环东街以北、太行路以东",37.845510,112.611466,37.870044,112.544344,1
"1401002013B05325","609b24e0-86b5-406a-8deb-64f9cf84344a","山西省","太原市","万柏林区","万柏林区，西至和平南路，北至九院沙河，东至九院沙河，南至省地质工程勘察院",37.841296,112.517084,37.858640,112.509100,1
"1401212010B00139","6c90fc34-d516-4455-b440-2b7e59020bc0","山西省","太原市","清徐县","清徐县徐沟镇南尹村",37.554778,112.457515,37.547600,112.444504,1
"1401812012B00188","58573428-0200-45c6-b2ed-455417c65fc9","山西省","太原市","古交市","古交市桃园办梁庄村",37.891045,112.140449,37.887180,112.133944,1
"1401002015B00482","78a73f17-eced-4356-b9b3-12b775e2ea10","山西省","太原市","小店区","小店区科技谷路以东、武洛街以南、正阳街以北",37.735276,112.598099,37.723884,112.574640,1
"1401052014B00150","6a80312a-8f13-413a-8057-e0df3478b8c7","山西省","太原市","小店区","太原经济区",37.743367,112.598178,37.870044,112.544344,1
"1401222014B00544","47114888-c038-4d7f-afe0-5c238dc3dce7","山西省","太原市","阳曲县","黄寨镇城晋驿村",38.097637,112.720280,38.091100,112.707240,1
"1401002013B05318","de7e4603-cbed-4ab5-91d9-7bf754245577","山西省","太原市","尖草坪区","森林公园以南，北至森林公园，西至太原市林业职业学校，南至胜利街，东至北涧河",37.915176,112.540135,37.911268,112.482952,1
"1401002013B06350","d31ac2a8-d3b0-46b4-95c2-1a86b232649b","山西省","太原市","万柏林区","太原市晋源区义井东街",37.823516,112.517942,37.712760,112.467392,1
"1401072012B00037","732bb078-4c33-418d-a6fc-da84c8e071d9","山西省","太原市","杏花岭区","太原民营经济开发区范围内：新建一路以西、新建二路以北、新建三路以南、尚锦公寓以东",37.876989,112.556391,37.864472,112.609936,1
"1401002016B00899","a26264f8-b11c-46cc-8bf5-560dd67d28fc","山西省","太原市","小店区","位于小店区许东社区许坦东街以北，规划路以东、以西、以南",37.807312,112.613987,37.800780,112.565080,1
"1401222013B00086","de9dfa01-7858-4491-bb47-9df2cbc3d720","山西省","太原市","阳曲县","黄寨镇小牛站村",38.090990,112.709110,38.083120,112.680744,1
"1401002011B00036","c0a649e0-479e-4732-8d88-0823f0446c50","山西省","太原市","万柏林区","小井峪街32号，小井峪村以南、以东、大众机械厂以北、以西",37.856419,112.510720,37.847712,112.492016,1
"1401812013B00042","fff7ab15-0479-4b72-a70a-ae7d23c65554","山西省","太原市","古交市","古交市原相乡白岸村",37.809129,112.094329,37.801896,112.079088,1
"1401232009A00010","c17a48f8-c492-4301-ba82-8af06b1321ed","山西省","太原市","娄烦县","山西省娄烦县天池店乡河北村",37.940880,111.888070,37.936384,111.881912,1
"1401002009B00668","236ecb86-c2af-419a-9022-f85697ded1da","山西省","太原市","晋源区","晋源新区，康培房地产公司以南、龙山大道以北、新晋祠路以西",37.797120,112.533827,37.783944,112.519664,1
"1401052009B00185","c9879333-e424-43b1-a893-14f21c7fb184","山西省","太原市","小店区","太原经济技术开发区",37.741459,112.592634,37.734620,112.583744,1
"1401222010B00157","dd429539-3a8f-4e9c-86c1-8949f8d737b7","山西省","太原市","阳曲县","阳曲县黄寨镇柏井村",38.108122,112.711780,38.101452,112.698824,1
"1401052013B00010","ffed4ff0-114a-44d3-93ca-5858209700a5","山西省","太原市","小店区","太原经济技术开发区",37.741459,112.592634,37.734620,112.583744,1
"1401052013B00066","aa2bf77a-bfa2-4f80-aada-eaba9ff6bf7a","山西省","太原市","小店区","太原高新技术开发区",37.809639,112.566783,37.870044,112.544344,1
"1401002013B05523","17f43abd-9882-48fe-9945-27b401565aea","山西省","太原市","晋源区","位于晋源区，东至南瓦窑村，南至武家寨村，西至五府营村，北至鹅归店村，",37.707897,112.524584,37.701952,112.504384,1
"1401222013B00037","97c11831-7ed8-48fa-8078-f41565087455","山西省","太原市","阳曲县","黄寨镇小屯庄村",38.079733,112.727551,38.074036,112.721736,1
"1401052012B00346","c19177be-9887-4330-86e8-daea003e5e9e","山西省","太原市","小店区","太原经济技术开发区",37.741459,112.592634,37.734620,112.583744,1
"1401222015B00309","c22802ce-3963-4125-bce7-357fe7e47047","山西省","太原市","杏花岭区","太原工业新区企业大道以南、经二路以西",37.876989,112.556391,37.956428,112.533096,1
"1401082018B00029","29d9bcf6-b263-4b5c-8c6e-6bd887292f3d","山西省","太原市","兴安区","荣兴伟业用地以西，兴安南二巷以南",47.258716,130.245546,37.974220,112.535848,1
"1401052018B00252","5fae19f5-1283-4e5d-bcf0-ea7d187bd32e","山西省","太原市","杏花岭区","山西转型综合改革示范区潇河园区",37.876989,112.556391,37.876492,112.559352,1
"1401812013B00339","71ba8e2e-1e4f-485a-8942-3b041aa12726","山西省","太原市","古交市","古交市东曲街办小峪沟社区居委会 ",37.910179,112.191107,37.923400,112.226808,1
"1401072010B00077","0021243e-c028-4665-ba02-237dc1f44f10C","山西省","太原市","杏花岭区","太行路以东、五龙口街以北、东山热源厂以南",37.877564,112.606402,37.864700,112.596896,1
"1401002014B07171","b30187c0-3316-47d1-9337-caac0b033fc7","山西省","太原市","杏花岭区","赵庄新村，滨河东路以东、龙康街以南",37.878884,112.546272,37.870720,112.533216,1
"1401002014B07209","db107840-5780-4f49-98a7-4f49f52b999f","山西省","太原市","杏花岭区","赵庄新村，滨河东路以东、龙康街以南",37.878884,112.546272,37.870720,112.533216,1
"1401002014B07190","4a9e83f2-3271-486e-a3a5-7f6d6d703264","山西省","太原市","杏花岭区","赵庄新村，滨河东路以东、龙康街以南",37.878884,112.546272,37.870720,112.533216,1
"1401002014B06916","9ea31c19-edad-48ab-b07a-d6d086819925","山西省","太原市","晋源区","长风西街以南、国投公司用地以北",37.828153,112.503770,37.820192,112.502728,1
"1401222014B00308","d7cf069b-e668-40f9-904b-8ee1a0b6119c","山西省","太原市","阳曲县","西凌井乡西凌井村",38.140897,112.429449,38.133888,112.416296,1
"1401222015B00150","4b754736-f1ef-4a14-bbdd-2e60760d7702","山西省","太原市","阳曲县","大盂镇大盂村",38.183190,112.730531,38.176812,112.717400,1
"1401222014B00562","7eddf2ad-2575-4d21-b598-898a9fd23bcc","山西省","太原市","阳曲县","黄寨镇城晋驿村",38.097637,112.720280,38.091100,112.707240,1
"1401002013B06410","569254ee-a34b-44b6-9f8a-d9e33fe26e5f","山西省","太原市","杏花岭区","杏花岭区委党校以东、山西机械施工公司以西、太原中元玻璃厂宿舍以北、247厂宿舍以南",37.903267,112.584787,37.896580,112.572088,1
"1401222014B00168","df36fabc-2b7b-49ae-85fc-7a583def5e45","山西省","太原市","杏花岭区","太原工业新区范围内：规划十五路以东、规划十路以北",37.876989,112.556391,37.957852,112.532000,1
"1401812010B00027","50ecbf0a-931c-41a1-89ef-0d55ec585558","山西省","太原市","古交市","古交市义学路、电业局南侧",37.908490,112.189542,37.901320,112.173720,1
"1401002013B06430","d6e832c4-d5d9-4dd6-8b53-153740b2672b","山西省","太原市","杏花岭区","位于北中环以北、享堂村用地以南，涧河路以东",37.911617,112.581939,37.905324,112.567464,1
"1401222010B00051","33ec4923-8195-4cb4-9fec-8e461ba9850c","山西省","太原市","阳曲县","阳曲县良种场",38.114854,112.742013,38.057748,112.666528,1
"1401002016B00990","be94c8f6-05b1-49e1-b6ee-cea65a0e1537","山西省","太原市","万柏林区","万柏林区小井峪街以南、西南铁路以西、煤气化焦化厂以东、南内环西街以北",37.857004,112.511179,37.850736,112.498288,1
"1401222015B00365","a70e2bb7-be2e-49ed-b14c-5d6c7ebacb3f","山西省","太原市","阳曲县","黄寨镇城晋驿村",38.097637,112.720280,38.091100,112.707240,1
"1401002011B02187","9a127aa5-dac3-48a3-a048-a05322878af2","山西省","太原市","万柏林区","晋祠路西一巷以南、大王路以东、该厂宿舍以北、省棉麻公司用地以西",37.859091,112.535641,37.845148,112.520824,1
"1401812011B00129","f23f0ce8-096a-4f5e-a10d-e1daa5471834","山西省","太原市","古交市","古交市兴园路科技开发园区内",37.913000,112.182453,37.906380,112.169248,1
"1401002018B00293","01753c35-55b9-48f4-bfb0-312dfd634d21","山西省","太原市","万柏林区","万柏林区枣尖梁村,四至均为枣尖梁村",37.903058,112.464747,37.896480,112.451672,1
"1401002013B05117","65506539-47b8-4a6d-9937-bfc0b729f0ca","山西省","太原市","尖草坪区","大同路、迎新街南二巷",37.961968,112.542324,37.883348,112.596112,1
"1401082012B00017","f894c4bc-0c18-4ab0-af30-cd85ba42e746","山西省","太原市","尖草坪区","东至山西广立钢铁公司、西至园区6号路、南至11号路、北至40米规划路",37.982373,112.586345,37.918528,112.531736,1
"1401052013B00049","b63feee6-8a4c-4b69-bca2-99995953d411","山西省","太原市","小店区","太原经济技术开发区",37.741459,112.592634,37.734620,112.583744,1
"1401002010B01036","e559d1f7-dcbf-44aa-98b0-be2540d08e0aCCCC","山西省","太原市","小店区","亲贤街以南、太原锦地企业管理有限责任公司以东、以西、以北",37.829361,112.576154,37.823980,112.573968,1
"1401002009B00659","99ff71bd-e125-4d84-8064-bff36322fbfa","山西省","太原市","小店区","小店区北张村，体育南路以东、军民南路以西、西吴南路以北",37.785601,112.575944,37.797016,112.580696,1
"1401002012B03457","ed31641b-de07-4a8e-8864-cf5a87ce847a","山西省","太原市","杏花岭区","滨河东路以东、涧河以南",37.921773,112.580612,37.917128,112.584864,1
"1401002015B00537","da550913-45f9-40be-b648-811d32fa64fe","山西省","太原市","万柏林区","位于晋祠路以西，四至：北至省中医学院用地、南至山西经济管理干部学院、西至大王路",37.845661,112.535944,37.797360,112.500144,1
"1401002008B00908","d1cd345b-87c8-4074-a457-4f8602a8c1b2","山西省","太原市","小店区","亲贤北街以北、体育路以西、永康街以南",37.826254,112.571285,37.822872,112.559744,1
"1401812015B00109","6c16bb8d-5f7a-47e6-abef-4eb5c9010784","山西省","太原市","古交市","古交市桃园办石家河",37.913000,112.182453,37.905492,112.140432,1
"1401052010B00147-1","52b4d911-a68e-42f4-852e-d6c8dd6b9eb1","山西省","太原市","小店区","太原经济区",37.743367,112.598178,37.870044,112.544344,1
"1401002009B00756","ede2b82c-05d7-4ef3-8482-990fd7384c86","山西省","太原市","小店区","西吴村以南、军民南路以东、荣军北街以北、坞城中路以西、原山西大学使用的土地中",37.806776,112.594323,37.783216,112.588384,1
"1401212014B00237","32716083-8838-4632-9bf6-b15d2178f71e","山西省","太原市","清徐县","清徐县徐沟镇北关村",37.570558,112.521953,37.564128,112.508960,1
"1401002013B06649","877c5977-eeb0-41ca-b26b-01765fa1a7a6","山西省","太原市","万柏林区","位于滨河西路以西，后王街以南，晋祠路以东，纺织街以北",37.856924,112.521659,37.844148,112.506640,1
"1401002010B01330","d3112454-289c-4f70-b884-bfe6b173def6","山西省","太原市","小店区","寇庄北街32号，寇庄北街以南、30米规划路以西、省轻工建设公司以北",37.842910,112.569547,37.835260,112.560000,1
"1401002012B04116","809e0499-9f7c-4f9e-81bd-3c32cf2ef061","山西省","太原市","迎泽区","太堡街以南，双塔南路以西，规划路以北。",37.826407,112.594163,37.819240,112.587904,1
"1401002010B01297","0a015070-11b5-4ea6-9af6-ab87ac697419","山西省","太原市","杏花岭区","东山过境高速公路东侧、黑驮沟南侧绿化带以南",37.876989,112.556391,37.870044,112.544344,1
"1401052014B00310-3","fb0f60b6-34a4-409f-856f-b499414aeabb","山西省","太原市","小店区","太原经济区",37.743367,112.598178,37.870044,112.544344,1
"1401222018B00132","857ec453-b2bc-4e65-b96d-76cca98c0e6a","山西省","太原市","阳曲县","东黄水镇故县村",38.089164,112.750646,38.082920,112.743128,1
"1401212011B00168","1e2246a2-5722-4c80-b1ca-07d3bd798d7e","山西省","太原市","清徐县","清徐县东于镇水屯营村",37.612092,112.291820,37.605580,112.279664,1
"1401052008B00108","9ebaaba6-cec4-4331-beef-329956640794","山西省","太原市","小店区","太原经济技术开发区",37.741459,112.592634,37.734620,112.583744,1
"1401002016B01106","37baf516-a523-4421-968c-afa426a3dba9","山西省","太原市","杏花岭区","杏花岭区敦化坊周边，敦化坊村以西、以北",37.900819,112.589815,37.893904,112.571872,1
"1401002013B05555","93c69ce2-f9b0-4e5a-87da-1d9141d8c97b","山西省","太原市","晋源区","晋源新城东区，纬三路以北",37.722988,112.479581,37.703612,112.488320,1
"1401002013B05447","635cfe0c-61b5-4c81-a1e0-46b229fc17f7","山西省","太原市","小店区","小店区嘉节村，嘉节村用地以西、以北、以东、太原首开用地以南",37.766967,112.561620,37.759072,112.552624,1
"1401052013B00270","90550893-30b8-4df4-a7cc-0378098ed4f5","山西省","太原市","小店区","太原经济技术开发区",37.741459,112.592634,37.734620,112.583744,1
"1401232012B00062","b237b9f0-1e84-4d87-8ef6-e3b281340ee5","山西省","太原市","娄烦县","娄烦县娄烦镇南大街三元村段南侧",38.074651,111.808078,38.079536,111.813976,1
"1401052010A00027","dc111976-2adf-4f6b-87bd-f30bc9285746","山西省","太原市","小店区","太原高新技术开发区",37.809639,112.566783,37.870044,112.544344,1
"1401002011B02069","1f247a4d-5bf8-42c3-96fa-15bd2f308050","山西省","太原市","小店区","山西晋府综合开发公司以西、山西昆明烟草责任有限公司以北",37.747169,112.573685,37.850740,112.569680,1
"1401222015B00180","bbf90b9e-9942-4c45-9755-796416fd4bc0","山西省","太原市","阳曲县","黄寨镇大屯庄村",38.069293,112.708512,38.060748,112.697816,1
"1401812013B00254","ed50e83a-5a3b-4fd4-91bb-537f8bc2e272","山西省","太原市","古交市","古交市火山村",37.924296,112.198234,37.917272,112.185248,1
"1401002011B00023","57a6ec1f-a0be-4401-a18d-f712be470a50","山西省","太原市","万柏林区","小井峪街17-23号，小井峪街以北、省工业设备安装公司以西、煤气化、大众机械厂以南",37.857400,112.511922,37.850736,112.498288,1
"1401002012B04386","8823b736-2b0b-4ecb-b193-dc55234aaec7","山西省","太原市","杏花岭区","胜利街以南，太原市供电局以北、以西，太原铁路局以东",37.884931,112.589931,37.878340,112.577848,1
"1401082012B00089","7a2311c8-87b3-4e29-b7e2-ed02aa6852fa","山西省","太原市","尖草坪区","东至山西广立钢铁公司，西至园区6号路，南至11号路，北至40米规划路",37.982373,112.586345,37.820420,112.580552,1
"1401002010B00082","7a0e56f2-0991-4b49-a519-44c1c7b7b684C","山西省","太原市","杏花岭区","迎泽大街以北、解放路以西",37.882411,112.568093,37.859300,112.555840,1
"1401002010B01385","b33ebbdc-7961-4347-95b2-a065c5d1e411","山西省","太原市","小店区","太茅路以东、规划的体育路以西、龙城大街南侧",37.824401,112.575906,37.773952,112.575424,1
"1401222012B00030","dcf343b6-1792-4f14-b910-0478f156f21a","山西省","太原市","阳曲县","黄寨镇黄寨村",38.072543,112.676898,38.066060,112.658088,1
"1401002018B00910","19d55ace-ab56-4e9b-b93a-3857337c8b28","山西省","太原市","小店区","位于小店区，东至、南至狄村用地，西至山西省工业设备安装公司，北至规划路。",37.843001,112.579239,37.828048,112.578800,1
"1401222018B00150","3acb150f-23cf-425a-a868-688421557bc3","山西省","太原市","阳曲县","东黄水镇故县村",38.089164,112.750646,38.082920,112.743128,1
"1401002018B00343","d3a47b66-effd-493d-9ed3-6d51a6dae017","山西省","太原市","小店区","小店区刘家堡乡监军庄村，四至均为监军庄村用地",37.678505,112.484237,37.671872,112.471144,1
"1401052015B00170","416a6d91-216f-4315-928e-8e78dff264af","山西省","太原市","小店区","太原经济区",37.743367,112.598178,37.870044,112.544344,1
"1401002018B00660","ee53a7ea-6f88-4799-a605-3674d624c9f9","山西省","太原市","万柏林区","晋源区旧晋祠路以西，国电太原第一热电厂原用地范围内，四至：南、北、东、西至规划路。",37.842947,112.531676,37.778200,112.483128,1
"1401052015B00067","fc628bbf-0228-40b5-ac1c-5d5e8800b0dd","山西省","太原市","小店区","太原经济技术开发区",37.741459,112.592634,37.734620,112.583744,1
"1401222013B00048","e8832c83-51e9-47e5-bd0a-35e46e236841","山西省","太原市","阳曲县","阳曲县城安镇街",38.064621,112.679409,38.057748,112.666528,1
"1401002009B00115-1","1dd61aa7-4322-4ad7-833e-b2d8a2a22d25CCC","山西省","太原市","迎泽区","柳南小区北片国际商城2021号，东校尉营以北，三圣庵以南",37.872910,112.574966,37.864964,112.561552,1
"1401222015B00179","a4337754-bbcd-42be-8033-168fc0f0de17","山西省","太原市","阳曲县","黄寨镇大屯庄村",38.069293,112.708512,38.060748,112.697816,1
"1401232013B00106","2297befa-7e88-46fa-89f2-7e2e852f1eae","山西省","太原市","娄烦县","娄烦县静游镇东六度村",38.197059,111.868734,38.191552,111.862664,1
"1401002016B01409","c14e0966-d6f3-4c36-8ab3-412bab99c1ae","山西省","太原市","万柏林区","西峪煤矿以东、以北、万亩生态园以南、西北环高速公路以西",37.817232,112.495248,37.809380,112.433784,1
"1401052018B00079","3df04e72-6106-4d0e-9650-8b4e758b275c","山西省","太原市","杏花岭区","唐槐园区",37.876989,112.556391,37.870044,112.544344,1
"1401002014B07450","9e3c3f26-107f-4b4c-8f52-6bdbac861094","山西省","太原市","小店区","范家堡社区用地以东、以南、以西、以北",37.779838,112.569179,37.772968,112.556520,1
"1401222015B00257","0c272cd9-ce14-49cf-918f-2bd1d1a2c527","山西省","太原市","万柏林区","太原工业新区经一路以东、企业大道以北、纬三路以南",37.862548,112.444960,37.703612,112.488320,1
"1401052017A00107","1a06a619-3a87-4428-9e0a-8bba4d8fd3dd","山西省","太原市","杏花岭区","唐槐产业园区",37.876989,112.556391,37.708860,112.434856,1
"1401222015B00236","abd2cf62-cf69-411a-9361-098a1204fde4","山西省","太原市","阳曲县","黄寨镇大屯庄村",38.069293,112.708512,38.060748,112.697816,1
"1401002012B03246","51a3880d-e23e-42d3-8c56-6272419df774","山西省","太原市","迎泽区","迎泽区马庄村，四至为规划道路以北以东,太原礼花厂以西",37.836408,112.639099,37.830160,112.626216,1
"1401002016B00187","a7358d77-7121-44af-bf7e-2f64fadebc67","山西省","太原市","小店区","小店区并州路以西，二营盘街以北",37.837097,112.579521,37.830380,112.566152,1
"1401002010B01975","f84e393e-655f-458e-a7f0-48608f6d04d6","山西省","太原市","小店区","太原市师范街152号，学府街以南、体育南路以东",37.811113,112.579457,37.783208,112.563064,1
"1401232012B00037","080ad017-3e27-4f7a-afd9-615661e9d161","山西省","太原市","娄烦县","娄烦县娄烦镇南大街三元村段北侧",38.074651,111.808078,38.079536,111.813976,1
"1401232012B00048","80be6252-ed00-4e77-b820-5ab9b5c726fd","山西省","太原市","娄烦县","娄烦县娄烦镇南大街三元村段北侧",38.074651,111.808078,38.079536,111.813976,1
"1401052012A00196","4843a597-fc03-43f4-a203-36e666238cbf","山西省","太原市","小店区","太原高新技术开发区",37.809639,112.566783,37.870044,112.544344,1
"1401212012B00057","f7b6bc33-d9ad-47ae-9eb2-68458cbf2903","山西省","太原市","清徐县","清徐县徐沟镇南宜武村",37.519614,112.483598,37.512980,112.470520,1
"1401002016B01049","c86f1f43-5c82-4e7e-8407-481949474e5f","山西省","太原市","万柏林区","位于大井峪村以东，市府南街北侧20米城市道路以南，西中环路以西，南中环街以北",37.853478,112.497031,37.836276,112.486528,1
"1401052018B00319","4c5a42d3-8103-4683-ad79-5b540f6e147a","山西省","太原市","杏花岭区","山西转型综合改革示范区潇河园区",37.876989,112.556391,37.876492,112.559352,1
"1401052013B00209","1a524052-2fbb-46de-aab9-dcee0dade2c1","山西省","太原市","小店区","太原经济技术开发区",37.741459,112.592634,37.734620,112.583744,1
"1401002013B06369","b2b3faf0-19a8-47df-8ddc-adb459975b44","山西省","太原市","小店区","位于小店区龙城大街以南，东至南至三七公路，西至大运路，北至小吴、庄儿上社区用地",37.780264,112.570221,37.773952,112.575424,1
"1401002012B05180","a109d529-cd70-4d9f-a978-91543fb7dfad","山西省","太原市","迎泽区","劲松路以东、铁三局宿舍用地以北、煤化所用地以西、桃园西巷以南",37.861768,112.548692,37.807820,112.584776,1
"1401052010B00111","a8922f45-642a-4e45-afe9-781afb8738fb","山西省","太原市","小店区","太原高新区",37.807288,112.565398,37.800400,112.552712,1
"1401002013B06507","11bd0982-1258-4e3e-8e99-58cb6704dd73","山西省","太原市","迎泽区","青年路以东，青年东街、省信托投资公司、水利机械厂宿舍以北，铁路宿舍以西；",37.859869,112.575117,37.851680,112.559536,1
"1401812011B00369","60f813e1-a7e0-43a5-985a-3fb7f681c3d3","山西省","太原市","古交市","古交市马兰镇营立村西,日升沟 ",37.854142,112.007492,37.848308,112.003144,1
"1401812008B00090","d685e492-f116-4346-a7c9-7656221eb36d","山西省","太原市","古交市","古交市腾飞路",37.921474,112.157422,37.915012,112.145136,1
"1401002017B01718","29ee9cca-1587-425f-bfc7-96f296877338","山西省","太原市","小店区","小店区小马村西，四至：南至道路；北至小马村用地；东至规划路；西至规划路",37.789396,112.554184,37.780120,112.549552,1
"1401812012B00013","dea2d988-64dc-4c37-b8c6-3f44e9cfa603","山西省","太原市","古交市","大川西路南端",37.908504,112.174716,37.901536,112.161600,1
"1401222012B00283","0b589ca4-9f14-4901-a8ee-4920b34c2aa7","山西省","太原市","阳曲县","侯村乡西万寿村",38.027857,112.712380,38.021192,112.699440,1
"1401002013B06312","84f3e5c4-8753-496d-a4ed-c3d1a02eae9c","山西省","太原市","小店区","位于小店区小吴社区，东至小吴社区用地、南至小吴社区用地、西至大运路",37.784298,112.607332,37.777880,112.594624,1
"1401212014B00159","93ef8246-3f0a-45d8-88b0-a3d861a0c68f","山西省","太原市","清徐县","清徐县孟封镇齐南安村",37.521363,112.358921,37.513828,112.353368,1
"1401002011B02830","250ea9c4-e2fd-4742-8459-c6d66cad77ee","山西省","太原市","迎泽区","双塔北路以东、朝阳街以南",37.860909,112.597813,37.850520,112.584880,1
"1401002014B07160","392a0698-c270-4a80-aee2-2ff4e29c431d","山西省","太原市","迎泽区","迎泽区东太堡街车管所周边",37.826778,112.595803,37.822528,112.599880,1
"1401002011B00289","79cfdf9d-706b-4e10-9080-bcd7aeae7159","山西省","太原市","杏花岭区","红沟南街以北、府东街以南、太行路以西、30米规划路以东",37.875603,112.600122,37.871960,112.571856,1
"1401002010B00015","0ad1e2ee-a479-491b-ba3f-18cb14e0b0c0","山西省","太原市","杏花岭区","北中环以北、山西予配添加剂饲料厂宿舍以南、山西大钧房地产开发有限公司以东",37.876989,112.556391,37.799880,112.583648,1
"1401812013B00437","22d95df6-964f-4abf-a82b-c0cdc476fb0b","山西省","太原市","古交市","古交市梭峪乡梭峪村",37.951338,112.093673,37.944192,112.080496,1
"1401002016B01077","a082092e-ffca-420a-a48e-403270b6eb04","山西省","太原市","万柏林区","万柏林区千峰南路以东、晋祠路以西、长风街以北",37.843196,112.525281,37.836152,112.512152,1
"1401222016B00166","b62289a3-32b6-4205-8bfb-0be1031f1e2a","山西省","太原市","阳曲县","大盂镇大泉沟村",38.155099,112.746034,38.149648,112.738832,1
"1401232011A00119","01670f5e-4eba-42d1-a84a-49fd117ee753","山西省","太原市","娄烦县","娄烦县娄烦镇三元村",38.086260,111.826927,38.079536,111.813976,1
"1401002016B01332-1","e02912b3-ae54-4522-aa3c-c1ca1383dde7","山西省","太原市","晋源区","位于晋源区，五府营村、南街村、小站营村",37.710826,112.498882,37.702612,112.491168,1
"1401052014B00217","cc13303b-5d07-4153-9df0-023d3d263447","山西省","太原市","小店区","太原武宿综合保税区",37.749405,112.616840,37.742432,112.603680,1
"1401212016B00058","b6317424-a822-4e03-960f-aec48399b5c9","山西省","太原市","清徐县","清徐县徐沟镇高花村",37.528407,112.472871,37.522664,112.466096,1
"1401812008B00016-1","48bf7f4a-53e1-4aab-9466-a7471224e7f6","山西省","太原市","古交市","古交市青山路铁炉沟内",37.904432,112.173540,37.896648,112.160736,1
"1401002015B00850","8e1005bd-94aa-4dd2-8a32-7a8ee59d6a46","山西省","太原市","万柏林区","位于迎泽西大街以北、山西医科大学第三医院以西、山西融恩房地产开发有限公司以东、以南",37.863171,112.481693,37.856728,112.492376,1
"1401002014B07540","991067fe-9882-4a5a-808f-79e5bd8af6f8","山西省","太原市","杏花岭区","位于尖草坪区南渣线",37.876989,112.556391,37.939644,112.480432,1
"1401052018B00262","40c7b486-5766-4bf0-b364-f632f0319094","山西省","太原市","杏花岭区","山西转型综合改革示范区唐槐园区",37.876989,112.556391,37.876492,112.559352,1
"1401052018B00235","090b203c-40d8-4866-a4da-8d1ae4abb6c3","山西省","太原市","阳曲县","阳曲产业园五龙口南巷以南，太原电力发展有限公司以北，经园路以东，新和路以西",38.064621,112.679409,37.860320,112.607456,1
"1401212018B00167","87eee826-c2b7-40b9-90ed-aecb8ea3058f","山西省","太原市","清徐县","清徐县清源镇柴家寨村",37.587992,112.304392,37.581500,112.297296,1
"1401002010B01118","7d167a23-18e7-42a2-9051-730faf49281f","山西省","太原市","小店区","狄村北街以南、山西省电力公司送变电工程公司以东、山西省水工机械厂以北",37.839135,112.583015,37.832388,112.570296,1
"1401222014B00509","89be9e94-5987-4a6a-babc-8524f762f746","山西省","太原市","阳曲县","大盂镇大盂村",38.183190,112.730531,38.176812,112.717400,1
"1401002014B07606","d834deb4-d714-4899-8922-f3ba64053695","山西省","太原市","迎泽区","南内环东街以北、太行路以东",37.845510,112.611466,37.870044,112.544344,1
"1401212013B00097","7a4cfb9d-3f62-435c-87c1-196bd22d8fd1","山西省","太原市","清徐县","清徐县东于镇中高白村",37.588242,112.258450,37.584148,112.240472,1
"1401222013B00147","93dd0aed-55f0-4278-8dfd-82077358397e","山西省","太原市","阳曲县","大盂镇南高庄村",38.199611,112.733838,38.193272,112.720688,1
"1401052013B00190","3152565f-bf2e-4d6b-bd3f-edd2908f3d2a","山西省","太原市","小店区","太原经济技术开发区",37.741459,112.592634,37.734620,112.583744,1
"1401052013B00189","e02fbce1-4011-4e3b-af73-14ffc3ca2a90","山西省","太原市","小店区","太原经济技术开发区",37.741459,112.592634,37.734620,112.583744,1
"1401002015B00296","5ce13349-90de-492d-b874-6e99797ef7c1","山西省","太原市","万柏林区","万柏林区和平南路以东、大井峪街以北",37.841062,112.512130,37.832736,112.491240,1
"1401002012B03745","65eb798f-7fc6-4c1c-89fe-96663f05dbfb","山西省","太原市","杏花岭区","龙堡街以南、山西省棉麻公司太原采购供应站以西",37.892764,112.591022,37.810440,112.592824,1
"1401002013B05303","c250184d-44b0-42f8-ac93-ccab9c71d2a5","山西省","太原市","万柏林区","千峰北路以西、彭西二巷以北",37.887848,112.519876,37.881624,112.507584,1
"1401212015B00169","254d0365-a70d-406c-a67d-ef5bfa9188d3","山西省","太原市","清徐县","清徐县徐沟镇丰润村",37.553066,112.474185,37.546236,112.461144,1
"1401222014B00217","2ae2bf56-7841-41d5-9fd3-370861f84736","山西省","太原市","阳曲县","大盂镇大泉沟村",38.155099,112.746034,38.149648,112.738832,1
"1401222015B00027","eca4533f-4e25-42f2-a374-1b560e4cef77","山西省","太原市","阳曲县","县城东北街",38.068474,112.686083,38.061620,112.673536,1
"1401222015B00017","da22b8c7-60cb-4b41-a29c-c41b7579b4d7","山西省","太原市","阳曲县","县城新安东街28号",38.067202,112.688443,37.870044,112.544344,1
"1401002009B00059","b2afe580-d578-4190-a856-e694792fdb1f","山西省","太原市","万柏林区","太原市长风西大街",37.831520,112.522665,37.820900,112.514920,1
"1401812008B00038","a51cbbfd-cc08-4419-9804-e164c21a1c68","山西省","太原市","古交市","古交市桃园办郝家庄村",37.890479,112.174484,37.906380,112.169256,1
"1401222014B00083","2424aff5-c178-40d1-a656-229e584d4be8","山西省","太原市","阳曲县","县城安镇街",38.060386,112.670008,38.053572,112.656240,1
"1401052013B00357","3a84b569-17e3-43a5-91d2-76d28e3a4186","山西省","太原市","小店区","太原高新技术开发区",37.809639,112.566783,37.870044,112.544344,1
"1401052013B00368","5705dfd7-3089-4493-a358-73cf12b6114d","山西省","太原市","小店区","太原高新技术开发区",37.809639,112.566783,37.870044,112.544344,1
"1401002010B01328","10770d16-572c-4d5f-be70-257458ccc3ba","山西省","太原市","迎泽区","迎泽区店坡村以南、以东，东山过境高速路以西，长风东街绿化带以北",37.823925,112.611786,37.817684,112.600032,1
"1401812010B00145","485bf140-4c3e-43a6-9d82-92bdcbdfd30f","山西省","太原市","古交市","古交市金牛西大街人行东北侧",37.917857,112.176876,37.908760,112.164528,1
"1401052012B00147","339e7649-03bf-427c-a916-ef78fb319285","山西省","太原市","小店区","太原经济技术开发区",37.741459,112.592634,37.734620,112.583744,1
"1401052012B00385","e96f5c47-071e-4716-9eef-c812cba9f7bd","山西省","太原市","小店区","太原经济区",37.743367,112.598178,37.870044,112.544344,1
"1401812011B00308","722fb481-cf4a-44f2-8e6c-0851c594a259","山西省","太原市","古交市","古交市邢家社乡新华村北石沟",37.815015,112.317637,37.808848,112.290224,1
"1401002016B00506","721e76b0-c491-44f9-b46b-5449b9456066","山西省","太原市","万柏林区","万柏林区滨河体育中心以西、漪汾街以北、文兴路以东",37.881650,112.537782,37.875272,112.525832,1
"1401002016B00079","b6684796-10b0-4f7f-946a-ae5a34159aba","山西省","太原市","小店区","小店区马练营路以东、规划路以南、规划路以西",37.708329,112.624509,37.754732,112.607784,1
"1401002012B04010","73bc1795-e615-4276-aeea-9008cdf290ce","山西省","太原市","杏花岭区","胜利街6号，太原皮革厂以东、太铁宿舍以北、太原三飞不锈钢器皿有限公司以西",37.898631,112.589852,37.870044,112.544344,1
"1401002012B03448","f6d6ee05-78fd-44a1-aba6-9611560c9072","山西省","太原市","迎泽区","南内环街217号",37.845417,112.571836,37.838900,112.574512,1
"1401222014B00338","918bf532-6f6c-44bc-ae2c-4e5b64d94239","山西省","太原市","阳曲县","东黄水镇蒲子村",38.083102,112.737990,38.076780,112.724840,1
"1401002013B05046","899091f6-dc80-4077-90fd-09fbb0624bff","山西省","太原市","小店区","小店区人民南路以西、山西鼎晨房地产公司用地以北、公安小店分局用地以南、李家庄村以东",37.735687,112.575009,37.726080,112.555152,1
"1401212013B00214","52efdb3f-b33a-497d-ae15-93084af28e99","山西省","太原市","清徐县","清徐县东于镇中高白村",37.588242,112.258450,37.584148,112.240472,1
"1401222010B00011","99b1f238-e4e2-4584-9b44-8caf6bb24966C","山西省","太原市","阳曲县","阳曲县县城东北街",38.068474,112.686083,38.061620,112.673536,1
"1401002013B06720","e6be33c5-7331-4930-ac01-852592c1d7aa","山西省","太原市","小店区","并州南路132号，并州南路以东、山西新华印刷厂以北",37.834291,112.586969,37.827592,112.571792,1
"1401052009B00076","16792922-01fe-490f-9d6e-0b0b131231c9","山西省","太原市","小店区","太原高新区",37.807288,112.565398,37.800400,112.552712,1
"1401002016B01171","68f16364-be2f-4a92-8b54-3418f769944b","山西省","太原市","迎泽区","位于迎泽区王家峰村，东中环路以东，规划路以南、以西，王家峰村以北",37.848947,112.611584,37.837920,112.600024,1
"1401812018A00141","84acb59a-9052-4c99-bfe0-67f1c5fda747","山西省","太原市","古交市","古交市河口镇火山村",37.924296,112.198234,37.917272,112.185248,1
"1401002012B04187","0ba85cac-0130-4ba0-af5e-5fce2cce3f1c","山西省","太原市","小店区","东至太茅路，南至十号线,西至东岸公园路，北至规划路",37.701961,112.548955,37.702088,112.540448,1
"1401002016B01190","763fc95c-d50e-4eb3-8cd2-6f8e89d0f566","山西省","太原市","迎泽区","位于迎泽区王家峰村，东中环路以东，规划路以南、以西，王家峰村以北",37.848947,112.611584,37.837920,112.600024,1
"1401812013B00311","ae1c0b9a-b3e4-4145-a636-a9808cd939bb","山西省","太原市","古交市","古交市东曲街办小峪沟社区",37.910179,112.191107,37.923400,112.226808,1
"1401212016B00145","fd3687ee-01c0-4990-9885-fbf8ee6df5b1","山西省","太原市","清徐县","清徐县王答乡大寨村、徐沟镇北郜村",37.580051,112.481914,37.558292,112.477760,1
"1401002012B04928","fe952827-7166-40dc-8348-212b52eab0ea","山西省","太原市","万柏林区","万柏林区西矿街以北、窊流路以西、滨西工业园用地以南、以东",37.864327,112.496890,37.859976,112.469992,1
"1401812013B00185-1","3a335dc2-6954-4bcb-8f8c-5c5823f69aa9","山西省","太原市","古交市","古交市火山村",37.924296,112.198234,37.917272,112.185248,1
"1401222017B00206","51d1c820-d62d-43c6-9c3b-8495e6bb70ad","山西省","太原市","阳曲县","阳曲产业园暖泉湾片区",38.045111,112.655992,38.038624,112.643152,1
"1401002016B00587","9048e8b8-137e-4756-8325-2a605e3177b3","山西省","太原市","万柏林区","位于万柏林区南社村龙腾南小区以西、南社城中村改造规划地块9以北",37.877012,112.497120,37.873956,112.471448,1
"1401002008B00479","044b19de-cc66-4651-a1d8-d35bf8718841","山西省","太原市","尖草坪区","滨河西路西侧",37.914048,112.528526,37.704280,112.466640,1
"1401222011B00057","6bfe230a-ddf0-473a-9f41-4a828b3fcc6e","山西省","太原市","阳曲县","县城新阳东街",38.064540,112.683842,38.058200,112.673408,1
"1401002010B01059","a7b738bb-3079-4f08-aaff-93999f7fbbf4C","山西省","太原市","小店区","小店区西温庄杨庄、后所营村，规划大昌路以东、规划化章路以北",37.732685,112.636312,37.735932,112.596672,1
"1401052008B00045","a62ca9c4-e1d1-45d2-84df-a344891f2b78","山西省","太原市","小店区","太原经济技术开发区",37.741459,112.592634,37.734620,112.583744,1
"1401222018B00160","400b1109-8edb-4811-9252-d7bf4e5e36d0","山西省","太原市","阳曲县","东黄水镇故县村",38.089164,112.750646,38.082920,112.743128,1
"1401002018B01178","c0c384ef-4055-4404-958c-114a126f63bc","山西省","太原市","尖草坪区","尖草坪区柴村、芮城村、杨家村。",37.943243,112.496316,37.946840,112.477344,1
"1401052018B00325","ad7a06d9-9bc1-4cf0-8890-f742fdf751eb","山西省","太原市","杏花岭区","山西转型综改示范区学府园区",37.876989,112.556391,37.799720,112.579616,1
"1401052018B00353","3d04c86b-119f-49cc-b5e0-6f24386e8a93","山西省","太原市","杏花岭区","山西转型综改示范区唐槐园区",37.876989,112.556391,37.862600,112.580280,1
"1401002015B00109","7780409a-a42e-4504-9b7b-03f6276a9718","山西省","太原市","万柏林区","窊流路以西，西线北街以南",37.864327,112.496890,37.583328,112.453536,1
"1401002015B00088","d45113dd-fd6a-40e1-a139-f67407019e07","山西省","太原市","万柏林区","窊流路以西，西线北街以南",37.864327,112.496890,37.583328,112.453536,1
"1401002016B00966","1e40fc91-6782-4f18-afc4-a4dd6547db17","山西省","太原市","万柏林区","万柏林区省妇干校西侧规划路以西，规划路以东以南以北",37.864974,112.522577,37.858624,112.509080,1
"1401002013B05538","d7d436cb-6b18-4584-a450-7ca0d91dff46","山西省","太原市","晋源区","位于晋源区，四至：东至南瓦窑村，南至武家寨村，西至五府营村，北至鹅归店村",37.707897,112.524584,37.701952,112.504384,1
"1401052011B00088","7b23be3b-470a-4e16-93a2-9ec35e0e2edb","山西省","太原市","小店区","太原经济技术开发区",37.741459,112.592634,37.734620,112.583744,1
"1401222010B00036","72341653-855f-4eda-9778-391474a34d0a","山西省","太原市","阳曲县","黄寨镇大屯庄村",38.069293,112.708512,38.060748,112.697816,1
"1401002018B00999","97237da6-d729-46f9-a108-cda144f5422a","山西省","太原市","晋源区","东至贾家庄西路、南至蒙山大街、西至城北村地块二、北至贾家庄街。 ",37.756406,112.524778,38.007452,112.988920,1
"1401052011B00047","fb927116-5ac7-43a5-9353-48f236e9bdf7","山西省","太原市","小店区","太原经济技术开发区",37.741459,112.592634,37.734620,112.583744,1
"1401002016B01394","9796b076-5581-48e6-b09c-c97ae10c645b","山西省","太原市","万柏林区","西峪煤矿以东、以北、万亩生态园以南、西北环高速公路以西",37.817232,112.495248,37.809380,112.433784,1
"1401002012B04375","60ac8a6c-037c-4e91-8039-bb940773a86b","山西省","太原市","小店区","建设南路以东，南同蒲铁路以西，狄村集体土地以南、以北",37.844075,112.593107,37.837740,112.580080,1
"1401052012B00317","405416df-9e93-4017-901d-24b883aaeac6","山西省","太原市","小店区","太原经济区",37.743367,112.598178,37.870044,112.544344,1
"1401002016B01370","093ad498-de1e-491a-b59d-0fd065f54113","山西省","太原市","迎泽区","位于迎泽区王家峰村，东中环路以东，规划路以南、以西，王家峰村以北",37.848947,112.611584,37.837920,112.600024,1
"1401052013A00289","8f7b5bd9-b1f0-4fc6-9729-e73b5c787bdd","山西省","太原市","小店区","太原高新技术开发区",37.809639,112.566783,37.870044,112.544344,1
"1401002009B00215","a24a9142-d62b-4108-a51c-4c86e8835fa3C","山西省","太原市","小店区","平阳路以西、国瑞公司用地以北、杨家堡村住宅以东",37.821607,112.558938,37.820348,112.549872,1
"1401002008B01225","d1e997fb-a6ed-4f5d-8fe4-28f40aa1fb10","山西省","太原市","小店区","长治路",37.814689,112.568115,37.833200,112.555656,1
"1401082014B00107","91ec65de-7c99-4387-b83c-47e81275e292","山西省","太原市","杏花岭区","阳兴大道以南、小返河西路以西",37.955202,112.623467,37.949800,112.609744,1
"1401002009B00075","41213275-2968-46fc-a76e-f7e01f302bd4","山西省","太原市","杏花岭区","胜利街541号",37.899722,112.555469,37.892920,112.541800,1
"1401052014B00236","b29830f9-3b1e-4c56-a4c1-e812bef0bc64","山西省","太原市","小店区","太原经济技术开发区",37.741459,112.592634,37.734620,112.583744,1
"1401052013B00113","137ca218-3716-4fc2-a59f-329d01169a1e","山西省","太原市","小店区","太原高新技术开发区",37.809639,112.566783,37.870044,112.544344,1
"1401052007B00116","4c60b518-130a-4f5d-ad9b-dc309feb7881","山西省","太原市","小店区","太原高新技术开发区",37.809639,112.566783,37.870044,112.544344,1
"1401222018B00028","43ba8076-c63d-435f-95e8-a8d076766fc2","山西省","太原市","阳曲县","黄寨镇柏井村",38.108122,112.711780,38.101452,112.698824,1
"1401232004B00036","626c6dd9-6103-434f-b99a-46060df2e73c","山西省","太原市","娄烦县","娄烦县城法院巷和北大街交叉口",38.074164,111.803551,38.066652,111.790832,1
"1401002017B00118","447edb30-7b5a-4059-8671-62ccc73e8990","山西省","太原市","万柏林区","万柏林区千峰南路以东、晋祠路以西、长风街以北",37.843196,112.525281,37.836152,112.512152,1
"1401232004B00046","03fe2d35-e12c-4209-9416-b75308966431","山西省","太原市","娄烦县","娄烦县城北大街",38.074304,111.804208,38.064172,111.782416,1
"1401002016B00717","667d1c81-1a42-48ce-8a9b-68ce0f74f8ad","山西省","太原市","万柏林区","万柏林区千峰南路以西、新庄北街以南、新庄北路以东",37.833873,112.519588,37.826624,112.510440,1
"1401052013B00134","0fa7f41f-7f18-4b28-8762-d37aa4a3ebdb","山西省","太原市","小店区","太原高新技术开发区",37.809639,112.566783,37.870044,112.544344,1
"1401212014B00178","228afcb3-ae1a-4366-97fd-0c632791aede","山西省","太原市","清徐县","清徐县马峪乡仁义村",37.632428,112.338664,37.625388,112.325688,1
"1401052009B00036","398ab90c-a7e0-474b-b031-0335c1b6ab13","山西省","太原市","小店区","太原经济技术开发区",37.741459,112.592634,37.734620,112.583744,1
"1401052017B00127","8a101306-bcb3-44fd-aa03-1beb8f7a3e65","山西省","太原市","杏花岭区","示范区 唐槐园区",37.876989,112.556391,37.870044,112.544344,1
"1401222015B00433","60af21e6-d4cc-4afc-89e7-35293e94fe25","山西省","太原市","万柏林区","太原工业新区企业大道以北、经二路以西、纬三路以南",37.862548,112.444960,37.703612,112.488320,1
"1401002012B03226","454b6cad-97c9-4ca0-8e0f-bbccc2e3ca7f","山西省","太原市","迎泽区","东至松庄路，南至五龙口街，西至高速路",37.865492,112.626274,37.864700,112.596896,1
"1401212016B00016","0451ac1a-a722-4b1d-a086-34f1ca501d67","山西省","太原市","清徐县","清徐县清源镇贾兆村",37.627526,112.369411,37.574132,112.266824,1
"1401222018A00295","b71e6db0-a69b-4c7d-8d85-9a75474d34e5","山西省","太原市","阳曲县","黄寨镇大屯庄村、小屯庄村",38.069293,112.708512,38.074036,112.721736,1
"1401002008B00896","0a4e41d7-1d2d-4ce7-ad2f-8d4d3eaa6427","山西省","太原市","晋源区","晋源镇乱石滩路以南",37.744529,112.477739,37.870044,112.544344,1
"1401002011B00150","f3d90846-cf62-483d-bba9-52f85389a108","山西省","太原市","小店区","新晋祠路以东、南中环街以南",37.800008,112.563899,37.783944,112.519664,1
"1401002008B00949","0540A751EA2842CE98C4AA8BB0FD80A4","山西省","太原市","迎泽区","并州东街以北、市汽运公司以西、山西省机电设备总公司以南、太原银建开发公司以东",37.857830,112.587155,37.851024,112.572616,1
"1401002012B03436","3d23e331-87db-49ea-bcbe-bc19c42b2118","山西省","太原市","杏花岭区","解放北路以西、山西晋安化工厂以北",37.912419,112.569475,37.899296,112.580528,1
"1401052012B00407","a26b55ce-b454-459e-afd9-a944add58921","山西省","太原市","小店区","太原经济技术开发区",37.741459,112.592634,37.734620,112.583744,1
"1401002009B00301","225ced4b-178d-4c15-b867-c41feeacbe41C","山西省","太原市","杏花岭区","红沟南街9号，红沟路以北、市经济适用房发展中心以东、汽运集团以南",37.875548,112.601181,37.866220,112.522984,1
"1401222014B00158","e76c8475-9b2d-4506-8302-64bff52a4667","山西省","太原市","杏花岭区","太原工业新区范围内：规划十五路以西、规划十路以北",37.876989,112.556391,37.957852,112.532000,1
"1401002018B00878","594b8b8b-83d7-4f54-818f-0f16b56cb1b9","山西省","太原市","万柏林区","尖草坪区大东流村，东至千峰北路，南至、西至、北至规划路",37.883239,112.524721,37.895712,112.512480,1
"1401812007B00034","b2d02dc4-9a5e-4b6d-a20c-0daceaeaf829","山西省","太原市","古交市","古交市腾飞路",37.921474,112.157422,37.915012,112.145136,1
"1401212017B00175","aadebd02-ed82-43ec-82d6-c8ca9a079bce","山西省","太原市","清徐县","清徐县清源镇柴家寨村",37.587992,112.304392,37.581500,112.297296,1
"1401222008B00065","9571cd40-a06c-40cf-ac6a-e5940483f2fd","山西省","太原市","阳曲县","黄寨镇小屯庄村",38.079733,112.727551,38.074036,112.721736,1
"1401002017B00097","0cb57d90-7290-4205-bb67-a17a2cfd1a9c","山西省","太原市","晋源区","位于晋源区西干渠以东、晋祠西路以西、冶峪北街以北、吴家堡路以南。",37.711578,112.458604,37.782692,112.519384,1
"1401002017B00200","bbd323cc-ecf3-4c3e-a662-196b672e7501","山西省","太原市","晋源区","位于晋源区长兴南街以北、西中环以东、和平南路以西",37.809660,112.538144,37.800820,112.528496,1
"1401212017B00117-1","0dc8d07f-ba25-42ee-98d9-20fda21e4efe","山西省","太原市","清徐县","清徐县清源镇柴家寨村",37.587992,112.304392,37.581500,112.297296,1
"1401812017B00032","ef47f626-2216-4f77-a3e3-15d12b615c72","山西省","太原市","古交市","古交市青山路",37.904432,112.173540,37.896148,112.160728,1
"1401222008B00017","d4c4f230-2a86-4633-a794-6c031a2e1560","山西省","太原市","阳曲县","黄寨镇北郑村",38.070358,112.693953,38.064400,112.684160,1
"1401002017B01318","a7e1a02c-30ae-453c-82c4-3970cb2adb54","山西省","太原市","迎泽区","东峰路以西、南内环东街以北、规划绿化带以东、规划30米路以南",37.845510,112.611466,37.848864,112.613600,1
"1401002017B01295","5b285d57-4424-4c2c-b9e5-ae0930fe2f1a","山西省","太原市","迎泽区","位于赵北峰储备用地西北、规划20米路以东",37.848483,112.623302,37.858400,112.518472,1
"1401812017B00109","574d698a-86e5-4c53-9cff-dcc84784d991","山西省","太原市","古交市","古交市常安乡常安村",37.810897,112.051673,37.804200,112.038480,1
"1401222017B00227","70a65e0a-6857-40da-b281-706c3a3dc448","山西省","太原市","阳曲县","阳曲产业园暖泉湾片区",38.045111,112.655992,38.038624,112.643152,1
"1401072016B00016","9bd9274f-9b61-4c6f-a001-566729b467e5","山西省","太原市","杏花岭区","新建二路以北、府东六栋以西、经园北路以东、新建三路以南",37.873108,112.622065,37.866240,112.608496,1
"1401052018B00497","d942b166-162a-47dc-a987-ff94f940cf12","山西省","太原市","杏花岭区","山西转型综合改革示范区唐槐园区",37.876989,112.556391,37.876492,112.559352,1
"1401002017B01564","56a739c0-2c86-4483-a2dd-8678c292ecf5","山西省","太原市","尖草坪区","尖草坪区黄花园村，四至：西至北至南至高速公路服务区、东至黄花园村",37.976950,112.598380,37.971624,112.586384,1
"1401232005B00067","a32b1a1d-80de-4374-97bc-16b1365b44aa","山西省","太原市","娄烦县","娄烦县城南区广场前地下",38.073195,111.803591,38.066656,111.790840,1
"1401222017B00143","9bdb166f-cb6f-43e6-9c87-32ad820279fa","山西省","太原市","阳曲县","侯村乡青龙镇村、黄寨镇南留南村",38.059878,112.649812,38.053500,112.636936,1
"1401222017B00159","b631db89-4ffb-42f0-a351-da457618c707","山西省","太原市","阳曲县","大盂镇大泉沟村",38.155099,112.746034,38.149648,112.738832,1
"1401212015B00054","4a3d8101-11b5-490a-ad2a-939adf291178","山西省","太原市","清徐县","清徐县东湖街办西关工贸公司",37.625992,112.350121,37.594348,112.339320,1
"1401002017B01303","90b3de32-3d49-4635-89a1-756adb9e2393","山西省","太原市","迎泽区","东峰路以东，南内环东街以北、规划20米路以南",37.845510,112.611466,37.848864,112.613600,1
"1401232005B00038","1fa547d8-e3ea-4321-aa96-4ee085011031","山西省","太原市","娄烦县","娄烦县城南开发区",38.073195,111.803591,38.066656,111.790840,1
"1401232009B00039","62caef6b-b530-4c9c-a262-139fdd56d5d4","山西省","太原市","娄烦县","娄烦县县城南区",38.073195,111.803591,38.066656,111.790840,1
"1401082014B00132","72b6297d-67b4-4393-8116-99d46eda7f95","山西省","太原市","杏花岭区","阳兴大道以南、小返河西路以东",37.955202,112.623467,37.949800,112.609744,1
"1401222013B00150","9cea3590-2cbb-400d-94ef-e06ae0e230e4","山西省","太原市","阳曲县","侯村乡桥沟村",38.034134,112.651635,38.027388,112.641296,1
"1401212012B00257","34544d27-579d-4589-8939-45bf15feebc6","山西省","太原市","清徐县","清徐县东湖街道办南营留工贸公司",37.613067,112.364558,37.613100,112.352760,1
"1401002018A00020","c8a44b1d-8ac6-448d-947c-500395a98143","山西省","太原市","晋源区","晋源区健康北街",37.766301,112.535181,37.712760,112.467392,1
"1401002013B05280","e8818e7a-4cb0-48b2-ac91-6e818d65b2f3","山西省","太原市","小店区","龙城大街以南、龙城南街以北、规划路以西",37.777691,112.548961,37.773952,112.575424,1
"1401002013B05188","317ce7f0-9f74-4da3-9291-a18f8e93e306","山西省","太原市","小店区","平阳路以东、中国物资储运太原公司以北",37.821607,112.558938,37.815744,112.546048,1
"1401002016B00888","92346df0-d1f4-4322-b792-f19bdae3f732","山西省","太原市","万柏林区","和平北路，四至：东至和平北路、南至彭西一巷、西至汾机用地",37.890380,112.521134,37.883948,112.507496,1
"1401052014B00027","c09cbe97-99e9-4c42-af2c-789197069e1f","山西省","太原市","小店区","太原经济区",37.743367,112.598178,37.870044,112.544344,1
"1401222012B00076","ac3f9bd6-768b-442c-afbc-1377220ac86e","山西省","太原市","清徐县","县城大运路北侧",37.521620,112.466493,37.870044,112.544344,1
"1401002013B06132","c3431241-0029-4d32-aca2-5b02743e4e32","山西省","太原市","万柏林区","万柏林区众纺路以西、和平南路以东、规划纺织北街以南、纺织街以北",37.852472,112.521613,37.844148,112.506640,1
"1401002013B06511","a9c53dfa-9438-4e7c-872e-dd3fa826544d","山西省","太原市","万柏林区","太原市国有投资控股有限公司以东、以南、规划路以西、义井街办以北",37.829519,112.511957,37.812660,112.499192,1
"1401212013B00019","23aa6b1f-dfcc-4fe8-a16e-ad24e32d5338","山西省","太原市","清徐县","清徐县徐沟镇西楚王村",37.531472,112.530059,37.526720,112.523976,1
"1401002013B06639","d009763c-906f-4bd5-8776-17ba21a59436","山西省","太原市","杏花岭区","东至规划路，南至市府西街，西至西干渠，北至规划路",37.880172,112.556778,37.603168,112.376824,1
"1401222015B00127","bb24becc-9967-42b4-86c7-20e0f256a6e8","山西省","太原市","阳曲县","大盂镇李家沟村",38.169494,112.747758,38.163216,112.734584,1
"1401222018B00360","b683b1ca-ab23-4d36-8391-4fabdb2125a9","山西省","太原市","阳曲县","大盂镇大泉沟村",38.155099,112.746034,38.149648,112.738832,1
"1401052008B00056","735d7fbd-2be7-48f3-beee-0e8eb649766e","山西省","太原市","小店区","太原经济技术开发区",37.741459,112.592634,37.734620,112.583744,1
"1401002013B06469","9090fe52-0f46-4c4f-99c6-f6b4fd1d28d1","山西省","太原市","万柏林区","山西省农业干部学校以东、以北、以南",37.840889,112.540674,37.834212,112.527760,1
"1401002009B00576","d9db433f-5d1d-4eb3-8f1b-b8b99652e01c","山西省","太原市","小店区","许坦西街以南、体育路以东、东干一支渠以北",37.807324,112.581793,37.816016,112.563424,1
"1401002015B00817","c1429370-40a7-4e96-9228-667b0654ca55","山西省","太原市","万柏林区","万柏林区倒渣路以西、排洪沟以东、兴华西街以南、东社城中村改造规划地块13以北",37.892541,112.495758,37.885884,112.483648,1
"1401812016B00026","34f4e0b8-a49a-498c-9208-9fc67ffaf4b3","山西省","太原市","古交市","桃园街道郝家庄村",37.890479,112.174484,37.904916,112.161976,1
"1401002016B00785","dc27f59d-052d-4042-b778-6a1ffb2f6d30","山西省","太原市","尖草坪区","位于尖草坪区迎新街百姓综合市场以西、迎新街南二巷以北、西南环铁路拆迁安置用地以南",37.961968,112.542324,37.950588,112.527152,1
"1401002018B00815","711d57b7-7133-4181-9ae6-927ec9b51759","山西省","太原市","晋源区","东至南屯路，南、西至太原化学工业集团有限公司，北至长兴南街",37.821963,112.518209,37.803484,112.522368,1
"1401002018B00550","cf1f604e-3dad-4f0f-a4e0-615c85b9d7d7","山西省","太原市","万柏林区","东至南社城中村改造地块四、南至漪汾街、西至规划路、北至太原钢铁（集团）有限公司",37.879369,112.527957,37.712940,112.468976,1
"1401002018B00045","c7039105-8dd5-408a-a29b-cff01922af16","山西省","太原市","晋源区","晋源区冶峪村",37.801306,112.476063,37.794332,112.464360,1
"1401002014B07351","544abb16-db49-469e-a4f4-5ee1f5e6cb2f","山西省","太原市","杏花岭区","位于杏花岭区，新村路以东，凯旋街以南，太行路以西，规划路以北",37.895221,112.607673,37.893040,112.599320,1
"1401232014B00037","dcdac9f6-5019-4f02-b461-37485dc66761","山西省","太原市","娄烦县","杜交曲镇杜交曲村",38.043259,111.952442,38.036528,111.939656,1
"1401052012B00277","5bbc3426-fcf0-44d6-b7a7-aa7c68303dba","山西省","太原市","小店区","太原高新技术开发区",37.809639,112.566783,37.870044,112.544344,1
"1401812011B00405","8282072b-b867-4ce2-8ac8-04937516f856","山西省","太原市","古交市","古交市青年路北侧、农行办公楼西侧",37.912529,112.181776,37.906384,112.169248,1
"1401052018B00033","74c7369d-86b5-4c77-a7be-80631593e4a6","山西省","太原市","杏花岭区","唐槐园区",37.876989,112.556391,37.870044,112.544344,1
"1401002011B00059","4df793cd-c2d5-4070-863b-45e09c44f029","山西省","太原市","杏花岭区","太原铁路局以南、中国十三冶金建设有限公司以北",37.884931,112.589931,37.878340,112.577848,1
"1401002010B01125","9eace183-00c3-4e76-8ce9-55492f172dd6","山西省","太原市","迎泽区","长风东街以北、双塔南路以西、山西省医药公司、物产集团以南",37.826251,112.600772,37.817680,112.586488,1
"1401052013B00100","458c9f8d-abd0-4ffe-8266-e258265e2e80","山西省","太原市","小店区","太原高新技术开发区",37.809639,112.566783,37.870044,112.544344,1
"1401222014B00485","5fc4aa16-6220-4d77-a6fc-af8220b527cc","山西省","太原市","阳曲县","黄寨镇城晋驿村",38.097637,112.720280,38.091100,112.707240,1
"1401052013B00314","a1b4a7d5-2673-4c74-b40b-de0bc2bda1fb","山西省","太原市","杏花岭区","太原武宿综保区",37.876989,112.556391,37.742432,112.603680,1
"1401002010B01362","7821a608-8083-46f1-8e7f-7c1bea970fbe","山西省","太原市","尖草坪区","迎新南巷9号，迎新南街以北",37.961304,112.538851,37.954616,112.524664,1
"1401002015B00465","31b3151f-1bcd-4e79-ae62-c59dde02796b","山西省","太原市","小店区","位于小店区正阳街以南，科技谷路以东，化章街以北",37.730562,112.587191,37.723884,112.574640,1
"1401002015B00452","aaae816f-7d1e-4d1d-b3b2-922cc87b01b6","山西省","太原市","小店区","小店区科技谷路以东、西温庄西路以西、正阳街以北",37.730562,112.587191,37.723884,112.574640,1
"1401002015B00448","bd9cd941-6147-422f-94c9-c338bc315ce8","山西省","太原市","小店区","小店区武洛街以南、西温庄西路以西、正阳街以北",37.735276,112.598099,37.728648,112.587712,1
"1401222013B00277","e5262a2e-5c69-48f6-a1f8-865f25ecdd49","山西省","太原市","阳曲县","高村乡北白村",38.194813,112.673779,38.185408,112.662000,1
"1401002011B00193","06a81256-0709-4b18-b863-a3f592916348","山西省","太原市","小店区","新晋祠路以东、南中环街以南",37.800008,112.563899,37.783944,112.519664,1
"1401222016B00113","8313c3cb-5cbf-41b7-9a0e-5ff0575a74ef","山西省","太原市","阳曲县","黄寨镇城晋驿村",38.097637,112.720280,38.091100,112.707240,1
"1401002009B00936","939b47ab-3f8b-483b-b881-447500d0300eC","山西省","太原市","尖草坪区","规划的北中环与滨河西路匝道西南侧、",37.914048,112.528526,37.704280,112.466640,1
"1401212014B00273","4cda89a1-b92c-436d-ba9c-5d84239a562e","山西省","太原市","清徐县","清徐县清源镇上阎村",37.627526,112.369411,37.565480,112.322096,1
"1401002013B06243","e90758e3-2c24-4fce-9d39-fb7744c0862c","山西省","太原市","万柏林区","南寒村用地以西、虎峪河以北",37.861461,112.519762,37.855704,112.465624,1
"1401052013B00263","03a5ca5a-fe06-48af-98bf-bead15843354","山西省","太原市","小店区","太原经济技术开发区",37.741459,112.592634,37.734620,112.583744,1
"1401052018B00018","ca254cb0-51ee-4975-930b-fba62c9f0d7f","山西省","太原市","杏花岭区","山西转型综合改革示范区(唐槐园区)",37.876989,112.556391,37.876492,112.559352,1
"1401002018B00688","09f6cc96-7ee3-4b81-96c0-1e4863e7b978","山西省","太原市","万柏林区","晋源区旧晋祠路以西，国电太原第一热电厂原用地范围内，四至：南、北、东、西至规划路。",37.842947,112.531676,37.778200,112.483128,1
"1401002013B05235","0a195316-bccd-4a75-9ab2-bf0ecb61235d","山西省","太原市","万柏林区","奥林东路以东，虎峪河规划路以北，居然之家建材馆以南。",37.861856,112.487365,37.856312,112.474224,1
"1401072013B00013","db7e9913-a431-47c4-8d80-d0031add2117","山西省","太原市","杏花岭区","大东门街以南、红沟中街以北、20米规划路以西",37.877773,112.598390,37.869516,112.609224,1
"1401002018B00190","bd54a21a-3a56-462c-ac49-da2a5f08912a","山西省","太原市","杏花岭区","东山煤矿铁路专用线以北、307国道以南、杨家峪村以东",37.881459,112.644544,37.875420,112.625616,1
"1401812014B00028","b5131847-da6e-4f7e-9483-177d05869ff9","山西省","太原市","古交市","古交市马兰镇武家庄村",37.861307,112.011468,37.851820,112.025720,1
"1401002013B05226","17619500-0613-43a4-a5af-dbb8b9f3b317","山西省","太原市","清徐县","龙城新区大运路以西，山西工商职业学校以北、红寺村以东",37.521620,112.466493,37.767200,112.574520,1
"1401222016B00017","c01ab8fa-e0f4-4615-b832-4458e50f0e16","山西省","太原市","杏花岭区","太原工业新区变电站以东、工业东路以北",37.876989,112.556391,37.957180,112.536928,1
"1401002018B00730","4049e379-e6a5-41ea-802a-ba9a024f5ddb","山西省","太原市","尖草坪区"," 尖草坪区西流村,东、西、北至山西融创现代置业有限公司，南至西流南巷",37.894722,112.518743,37.891040,112.511432,1
"1401002009B01099","1dbd4631-6a53-4617-8c90-11e82ef9e517C","山西省","太原市","小店区","小店区南内环街62号，南内环街以南、南环三巷以西、市卫生学校以北",37.845032,112.584315,37.834844,112.540672,1
"1401222014B00428","549ce0e1-dee8-4795-989c-d7b719ead2c3","山西省","太原市","阳曲县","凌井店乡东郭湫村",38.074758,113.025954,38.070548,113.018928,1
"1401082012B00027","a6ece282-2f49-4fa6-b429-f119a44c01fa","山西省","太原市","东至县","东至20米规划路，西至园区3号路（30米），南至20米规划路，北至拟建用地",30.116535,117.034481,37.790120,112.546304,1
"1401812013B00018","6596a578-123f-4d6d-8ee2-690cae326d11","山西省","太原市","古交市","古交市屯兰办木瓜会村",37.906620,112.113285,37.898096,112.105488,1
"1401052016B00107","e93e7241-592b-46b4-97e9-9f6a205220ed","山西省","太原市","小店区","太原经济区",37.743367,112.598178,37.870044,112.544344,1
"1401812013B00039","2fa4149d-815b-41b6-8093-94a65615dc80","山西省","太原市","古交市","古交市邢家社乡康家社村",37.812573,112.194439,37.796512,112.182152,1
"1401002014B07681","ae8c6ab6-8319-44e1-9038-0518f381c462","山西省","太原市","小店区","范家堡社区用地以西、以南、以北，山西和泰房地产开发有限公司以东",37.779838,112.569179,37.772968,112.556520,1
"1401002014B07610","0c093440-45d0-4b4f-87c6-0534886ee414","山西省","太原市","迎泽区","南内环东街以北、太行路以东",37.845510,112.611466,37.870044,112.544344,1
"1401232013A00155","29006150-30f4-4a62-8b22-9bb5673f853e","山西省","太原市","娄烦县","娄烦县静游镇",38.168919,111.838667,38.159780,111.828008,1
"1401002010B01193","cc3dc709-00e6-40c0-8dfb-d7f82c5692df","山西省","太原市","小店区","平阳路321号，平阳路以西、帝景房地产以南、杨家堡南巷以北",37.819241,112.558396,37.815744,112.546048,1
"1401002011B02054","ae0d1487-c7cd-4d02-9c12-87a1a46cb51f","山西省","太原市","迎泽区","马庄垃圾焚烧发电厂以西、以北",37.834704,112.634034,37.828972,112.617504,1
"1401002014B07527","36c96111-7046-44b2-964e-c8237fba4119","山西省","太原市","晋源区","位于长风商务区，山西顺德房地产开发有限公司用地以南、市河西农产品有限公司用地以西",37.817289,112.524461,37.915308,112.563016,1
"1401222012B00259","f9871b15-7fc1-4343-9e96-01372927c61d","山西省","太原市","阳曲县","侯村乡西万寿村",38.027857,112.712380,38.021192,112.699440,1
"1401052009B00082","bc1c9609-487f-4548-9d2f-36c0e0339c18C","山西省","太原市","小店区","太原高新技术开发区",37.809639,112.566783,37.870044,112.544344,1
"1401072013B00052","eff07109-e45b-40ac-80fc-4d3b8060e80b","山西省","太原市","杏花岭区","五龙口街以北、红沟中街以南、松庄北路以东、汇大用地以西",37.875638,112.622181,37.864700,112.596896,1
"1401072013B00065","ef6b27ac-3092-4138-b34a-e7f8ae35ffe2","山西省","太原市","杏花岭区","五龙口街以北、松庄北路以东、红沟中街以南、松庄东路以西",37.875638,112.622181,37.864700,112.596896,1
"1401222015B00049","875311d2-b6d8-42e1-9d29-93dcc3043cf7","山西省","太原市","阳曲县","县城新安西街",38.067125,112.682015,38.060256,112.669280,1
"1401222015B00051","1b441910-eb09-43f5-8ea3-6d6c08c0af11","山西省","太原市","阳曲县","侯村乡侯村村",38.001824,112.724646,38.024892,112.652296,1
"1401002012B04616","2433d711-7630-4790-9312-7023bdf4f1fe","山西省","太原市","万柏林区","万柏林区义井街59号，义井东街以北、义井电影院以东、太化公司以南",37.822719,112.514706,37.816360,112.501576,1
"1401052011B00169","6a768ad2-9bc0-4f08-868b-1bd5da52efb5","山西省","太原市","小店区","太原经济技术开发区",37.741459,112.592634,37.734620,112.583744,1
"1401052011B00154","36f7a523-1c07-4d8c-9a59-53a8815eb99a","山西省","太原市","小店区","太原经济技术开发区",37.741459,112.592634,37.734620,112.583744,1
"1401002012B04046","cd6b4f69-ab61-4ca3-8600-932a280f9251","山西省","太原市","小店区","小店人民北路9号",37.754170,112.572164,37.939644,112.480432,1
"1401002012B04476","f47bccb7-2b8f-4300-a918-2567b359284e","山西省","太原市","万柏林区","中铁十二局集团有限公司以东、西线街以北",37.864917,112.506233,37.860060,112.493800,1
"1401052018B00082","ac0fe0b9-daee-49a2-a525-09faf269e83f","山西省","太原市","清徐县","潇河产业园紫林路以南、辽西街以北、大运路以东、太太路以西",37.622106,112.360849,37.615268,112.348320,1
"1401002009B00282","72e810c5-6530-4752-a8d1-95b466cef51fCCC","山西省","太原市","小店区","龙城大街南侧、滨河东路以东、平阳路以西",37.780264,112.570221,37.773952,112.575424,1
"1401002012B04709","29675c9f-7091-492d-a77e-3cb73895876c","山西省","太原市","万柏林区","东至西峪煤矿，南至西峪煤矿，西至西峪煤矿，北至西峪煤矿。",37.817232,112.495248,37.808448,112.482000,1
"1401002012B04696","af455d14-5428-4b35-915c-0726c4cd07b2","山西省","太原市","万柏林区","东至西峪煤矿，南至西峪煤矿，西至西峪煤矿，北至西峪煤矿",37.817232,112.495248,37.808448,112.482000,1
"1401222015B00240","a1150d2e-1839-41d3-9852-87fafdd1b2fd","山西省","太原市","阳曲县","侯村乡侯村村",38.001824,112.724646,38.024892,112.652296,1
"1401052018A00021","0d590c26-27fb-42a4-a84f-e0ec2cc846c7","山西省","太原市","杏花岭区","唐槐产业园区",37.876989,112.556391,37.708860,112.434856,1
"1401052016B00138","d12fc097-b1db-46d3-8921-13c6b614030a","山西省","太原市","小店区","太原经济区",37.743367,112.598178,37.870044,112.544344,1
"1401002009B00348","d7038f93-5b92-413e-9776-87a730f17979CCC","山西省","太原市","万柏林区","西矿街北四条，西矿街以北、窊流村以南",37.867353,112.487058,37.859976,112.469992,1
"1401002012B04652","84cbdbb4-e277-405c-924e-b6fc0638c1a0","山西省","太原市","迎泽区","柳巷南路以东工贸大厦东侧，三圣庵以北，省塑料工业公司用地以西",37.873038,112.574297,37.865944,112.561992,1
"1401002011B02975","16f9e7f7-658b-4c76-ba35-235b60322539","山西省","太原市","小店区"," 太榆路与中心街交叉口的西南角,黄陵村用地以北,自然路以东",37.779994,112.632939,37.779064,112.560528,1
