electr_supervise_no,id,province,city,district,location,bd_lat,bd_lon,tdt_lat,tdt_lon,flag
"4310212010B01180","af98188b-99c0-47da-b88e-5a0b0083c879","湖南省","郴州市","桂阳县","桂阳县城关镇环城西路培才岭",25.756627,112.737488,25.740432,112.724168,1
"4310002018B01366","d0387684-58d3-4faf-887f-84e91f58920b","湖南省","郴州市","北湖区","郴州市开发区涌泉小区22栋801房",25.771802,113.017194,25.769478,113.004216,1
"4310222013B00147","c1be2a86-7391-41a7-8d76-f2d2f575d870","湖南省","郴州市","宜章县","岩泉镇居民组",25.187055,112.912188,25.183820,112.900576,1
"4310232016B00427","e7c7c6e4-8ab9-4086-b488-6227e3775d47","湖南省","郴州市","永兴县","永兴县柏林工业园",26.132968,113.122533,26.132706,113.109784,1
"4310222014B03017","4064c74d-b19a-4f0c-84ca-b7e1cc921b6b","湖南省","郴州市","宜章县","玉溪镇文明南路（环保局内）",25.386999,112.948970,25.776210,113.034288,1
"4310212015B02006","0abe2172-53de-4fbd-81f5-e0130095b3d8","湖南省","郴州市","桂阳县","桂阳县鹿峰街道金叶路百花村",25.715637,112.739792,25.731860,112.726624,1
"4310222013B00109","abff8f79-4d20-4244-9e01-2b16e415c739","湖南省","郴州市","宜章县","城关镇文明南路万仁店（社保站）",25.386999,112.948970,25.386746,112.938352,1
"4310812009B01525","86d9cf34-7138-4212-8d12-d4b6a8175393","湖南省","郴州市","资兴市","资兴市三都镇周源山煤矿",26.020719,113.341314,26.034740,113.268088,1
"4310812009B01501","b0224e78-d579-41b6-bf13-363fe14f23c9","湖南省","郴州市","资兴市","资兴市三都镇周源山煤矿",26.020719,113.341314,26.034740,113.268088,1
"4310812016B02186","c2653996-8717-4166-9545-60014a670986","湖南省","郴州市","资兴市","资兴市晋宁路市第一人民医院11栋",25.981643,113.243344,25.978300,113.237480,1
"4310222016B00297","d5b6e0a8-85ad-4793-9f41-931af6c596b9","湖南省","郴州市","宜章县","城关镇文明南路267号",25.391647,112.952080,25.403910,112.946760,1
"4310232016B00266","8dd19279-62e8-494b-8a88-dc6ed280578e","湖南省","郴州市","永兴县","永兴县便江镇人民路",26.127221,113.118476,26.120430,113.116896,1
"4310222016B00619","03fb8339-c58f-4d20-80d0-164d90ecbe13","湖南省","郴州市","宜章县","玉溪镇曹排村地段、地税局后面",25.397817,112.967229,25.397076,112.952264,1
"4310262012B00146","d120945d-6c1f-4a0d-ba7e-730f59cd39c7","湖南省","郴州市","汝城县","汝城县濠头圩",25.556057,113.691545,25.718660,113.810808,1
"4310262012B00181","37007a31-f2e1-47cd-bcb8-4a53381ebdd0","湖南省","郴州市","北湖区","濠头圩",25.776683,113.021460,25.718660,113.810808,1
"4310212013B01888","a6cf4c52-4e2f-45c5-9c6d-e71014564b60","湖南省","郴州市","桂阳县","桂阳县鹿峰街道向阳路34号",25.740918,112.740895,25.731860,112.726624,1
"4310222013B00827","ee309385-ba95-4293-be00-99c282a34506","湖南省","郴州市","宜章县","城关镇文明南路",25.386999,112.948970,25.384170,112.937768,1
"4310262014B00296","4ea31fcc-5cf9-48cb-a648-f8cc421b390a","湖南省","郴州市","汝城县","汝城县三星工业园工业大道以南、隆韵五金饰品有限公司以西",25.479404,113.683416,25.476470,113.671560,1
"4310232012B01336","42a1823d-36ca-4952-89cd-a9fc917e078d","湖南省","郴州市","永兴县","永兴县城关镇康绪村麻冲组（永安大道侧）",26.136172,113.092669,26.125320,113.090280,1
"4310222010B01415","791e4030-ae79-4b69-9a13-ddfbc54b74a5","湖南省","郴州市","桂阳县","城关镇城西街",25.756627,112.737488,25.774572,113.011104,1
"4310252012B00049","a36cbdef-6006-492d-8a08-bd479c7553dc","湖南省","郴州市","临武县","临武县香花岭镇粮站大米车间",25.470374,112.577805,25.467110,112.566200,1
"4310812009B01705","395a6366-8571-41ca-bd89-e44daa939866","湖南省","郴州市","资兴市","资兴经济开发区罗围安置区",25.933635,113.241014,25.975690,113.221008,1
"4310212009B00876","97af356e-78b4-488b-8ce4-3e07e494f6c2","湖南省","郴州市","桂阳县","桂阳县城关镇蓉峰街40号",25.859544,112.596366,25.773200,112.736864,1
"4310222009B01683","e3ed6900-1868-4cf9-abc8-f5004cfe121a","湖南省","郴州市","宜章县","城关镇文明南路",25.386999,112.948970,25.384170,112.937768,1
"4310262011B00208","7fcd1710-2ac9-4806-95eb-ca5b67196580","湖南省","郴州市","汝城县","汝城县新区（九龙大道以东、神农路以南、颜家路以北）",25.538666,113.703391,25.531678,113.697264,1
"4310812014B04198","cfc202e6-2cac-4cdf-bba3-497967feb620","湖南省","郴州市","资兴市","资兴市建材大市场宏福新村F6栋",25.967923,113.243824,25.965580,113.231584,1
"4310212014B04500","df6bd82f-f085-400f-b397-2f5b885e892a","湖南省","郴州市","桂阳县","桂阳县方元村桂嘉高等级公路南侧",25.664618,112.672515,25.736270,112.736056,1
"4310002013B00732","e5ec2035-2a86-48d5-aade-35aa2d037ae9","湖南省","郴州市","苏仙区","郴州市曹家坪",25.796992,113.049691,25.429722,112.900808,1
"4310212014B03437","3d8a1ecc-4bd3-4e1c-93b4-32d903e001ee","湖南省","郴州市","桂阳县","桂阳县鹿峰街道宝山路16号",25.731281,112.730966,25.731860,112.726624,1
"4310272013B00089","7db96793-256a-40a2-905f-27bf3b6832c6","湖南省","郴州市","桂东县","桂东县沤江镇桂东大道",26.081483,113.957135,26.073732,113.940544,1
"4310212009B00208","10a0301d-41d6-4e6b-870f-f6514bec9bbb","湖南省","郴州市","桂阳县","桂阳县城关镇高仰亭（党校后）",25.756627,112.737488,25.753898,112.725624,1
"4310002011B04226","f4b9863b-4777-42d8-9f85-3a4c65183e01","湖南省","郴州市","北湖区","郴州市骆仙西路6号",25.790110,113.015919,25.787000,113.003360,1
"4310002017B01781","24900e86-c782-46c9-a87f-749a28747d18","湖南省","郴州市","北湖区","北湖区燕泉北路",25.794668,113.033169,25.790774,113.020016,1
"4310222008B01181","ed901a3a-0bff-4dac-a25d-3d71ec1c934d","湖南省","郴州市","宜章县","城关镇文明南路1巷3号",25.405831,112.959053,25.403150,112.947456,1
"4310222008B01208","6d3118a6-08fa-463e-bb6e-851b843ff76f","湖南省","郴州市","宜章县","城关镇文明南路",25.386999,112.948970,25.384170,112.937768,1
"4310272008B00129","21b660a5-81a4-49ba-8882-d41ee7914ae7","湖南省","郴州市","桂东县","桂东县桥头乡桥头墟",26.146897,114.111332,26.149300,114.130312,1
"4310812014B04809","3a13a4f4-22bd-45f3-b8c1-e4a6ffbea108","湖南省","郴州市","资兴市","资兴市东江镇S322线旁自来水公司集资楼",25.956404,113.265165,25.969632,113.224448,1
"4310002013B01489","069a069c-ab6f-4f7b-a046-baee03ec1bb3","湖南省","郴州市","北湖区","郴州大道北侧",25.751559,112.977322,25.774572,113.011104,1
"4310252013B00251","b7953fb8-919a-4770-aa42-a96c946dcafb","湖南省","郴州市","临武县","临武县舜峰镇东云路交通局院内",25.286785,112.574323,25.282754,112.559464,1
"4310812016B02579","eb0051e5-b5d0-4a87-8e4b-d7bd48216fed","湖南省","郴州市","资兴市","资兴市三都镇局本部7村3栋",26.020719,113.341314,26.034740,113.268088,1
"4310282015B00489","bf0b5374-7ccf-4c7b-a33f-cdf203f884fc","湖南省","郴州市","安仁县","安仁县永乐江镇清溪村",26.702697,113.268935,26.693670,113.240800,1
"4310252013B00303","14579cfb-d329-40dc-9286-b1de1f33ef54","湖南省","郴州市","临武县","临武县舜峰镇东云路财政局院内",25.286785,112.574323,25.282754,112.559464,1
"4310232010B00416","12f954a9-d802-4af7-931a-dae2e36ca2bc","湖南省","郴州市","永兴县","城关镇车站路县检察院内",26.136291,113.128487,25.556360,113.682920,1
"4310002013B00645","62214a63-6fa1-4d94-8c7d-ff89e8421181","湖南省","郴州市","苏仙区","苏仙区五里牌镇",25.983449,113.091593,25.952178,113.048704,1
"4310002015B01005","8c272608-6105-4034-827e-2c868af46357","湖南省","郴州市","苏仙区","苏仙区白露塘镇坪田村",25.836794,113.141031,25.828200,113.127592,1
"4310262014B00426","a9bc7592-e859-4805-b494-892bd5458ca2","湖南省","郴州市","汝城县","热水镇滨河路以东热水镇政府对面",25.533575,113.919894,25.530690,113.908304,1
"4310002008B00108","1f1212c1-42a4-48a0-8df9-4338d20aeee5","湖南省","郴州市","北湖区","郴州大道杨家坪段东侧",25.751559,112.977322,25.746898,113.535272,1
"4310232008B00109","130fac00-2317-4787-aa82-4dc8a86de9d5CC","湖南省","郴州市","永兴县","永兴县塘门口镇工业园",26.183642,113.059875,26.180510,113.047760,1
"4310222008B01580","4d3032d2-2e34-42fa-9825-49af992216af","湖南省","郴州市","宜章县","城关镇玉溪街",25.407323,112.953271,25.403578,112.941424,1
"4310812011B04101","cd859681-aaba-451e-909b-3821c833249d","湖南省","郴州市","资兴市","资兴市三都镇解放路（三都粮站院内）",26.020719,113.341314,26.034740,113.268088,1
"4310002008B00488","24da0b24-5a6c-4698-9349-ae0261dee59d","湖南省","郴州市","北湖区","郴州市万华大道",25.760180,112.999419,25.774572,113.011104,1
"4310222014B03320","51dce468-7324-483c-a451-a1d4fdb158cf","湖南省","郴州市","嘉禾县","梅田镇建设路67号402房（电信局）",25.594003,112.372004,25.315334,112.812368,1
"4310812014B00129","0330e9ec-2623-400d-b084-25edcc12472b","湖南省","郴州市","资兴市","资兴市新区汉宁路畜牧水产局院内",25.973416,113.242470,25.970818,113.230264,1
"4310812013B01014","4c545c38-cc01-4811-8356-68dc3441a8c7","湖南省","郴州市","北湖区","资五产业园江背路东、环城北路北",25.776683,113.021460,25.808840,113.134304,1
"4310812018B00458","a8621d81-787d-454a-a43e-3bab3d6088ce","湖南省","郴州市","资兴市","资兴市高码大道以东、杉杉科技公司以北",25.981874,113.242556,26.023124,113.211984,1
"4310212011B00884","cd84d6da-4530-4758-957b-760aefd386e5","湖南省","郴州市","桂阳县","城关镇北关街3号",25.756627,112.737488,25.774572,113.011104,1
"4310222008B00146","68c460b7-b5ab-4f30-a8d5-c8f86a7f45b1","湖南省","郴州市","桂阳县","城关镇北门岭后山",25.756627,112.737488,25.606304,113.820488,1
"4310272009B00112","43eb79e8-2e68-4e05-9119-923660d6c62d","湖南省","郴州市","桂东县","桂东县城关镇沤江路",26.076372,113.951036,26.074196,113.939320,1
"4310002009B00055","c3de9ce7-6427-4515-aa9d-013b9ef60bcaC","湖南省","郴州市","北湖区","郴州市八一路与西街交汇处",25.776683,113.021460,25.774572,113.011104,1
"4310812013B02846","e32f5d11-603d-4b28-8be8-1e61b7f808e1","湖南省","郴州市","资兴市","资兴市东江街道办事处东江水电路社区竹园路（原滨江路）",25.944345,113.273176,25.947810,113.211712,1
"4310252014B00029","0ed49017-43ff-46ea-a1e2-5251a29fc9c0","湖南省","郴州市","临武县","临武县舜峰镇解放南路",25.282362,112.570104,25.276462,112.549744,1
"4310002011B04552","36a266bc-88b8-42c6-ad21-63e531c677f0","湖南省","郴州市","北湖区","郴州市骆仙西路6号",25.790110,113.015919,25.787000,113.003360,1
"4310262011B00350","73229109-b414-4ca7-87f9-1f1725f848d0","湖南省","郴州市","汝城县","耒水路以南、环城西路以西、城南住宅小区地块北以东",25.559746,113.690957,25.543872,113.675976,1
"4310002011B04581","c124a3d1-8a5e-421d-a506-67c3a5ab2432","湖南省","郴州市","北湖区","郴州市骆仙西路6号",25.790110,113.015919,25.787000,113.003360,1
"4310002012B03856","cef89968-027d-4961-8f6e-aca8933c3c05","湖南省","郴州市","苏仙区","郴州大道上白水段",25.788535,113.090105,25.785588,113.077896,1
"4310812011B01956","cbff4d45-5db5-49bd-8128-bc7365eb26d1","湖南省","郴州市","资兴市","资兴市鲤鱼江镇大兴路（原建筑公司院内)",25.949852,113.239196,25.948520,113.227824,1
"4310002015B00629","4fd27208-2ebb-476a-870f-6b87f5a5407b","湖南省","郴州市","苏仙区","苏仙区桥口镇石河村",25.887016,113.194806,25.887198,113.181792,1
"4310812011B03396","b44d2d75-b0e7-47d5-a9c1-56d0a046b15f","湖南省","郴州市","资兴市","资兴市鲤鱼江镇大市场",25.948961,113.236745,26.078170,113.272680,1
"4310212013B02212","630927d5-6a27-4034-a5ad-3290c8a8617b","湖南省","郴州市","桂阳县","桂阳县鹿峰街道金叶路（县东风中学院内）",25.733486,112.748308,25.731860,112.726624,1
"4310212013B02170","06dbc297-1418-4d6c-9f93-62bf8af938fb","湖南省","郴州市","桂阳县","桂阳龙潭街道高仰亭党校后",25.758948,112.711756,25.750460,112.721424,1
"4310222015B00636","4e40e36f-2339-497b-ad75-d5d9961920f4","湖南省","郴州市","宜章县","玉溪镇府右街（中国工商银行宜章县支行）",25.406810,112.956252,25.395840,112.943152,1
"4310212009B00461","40a3ee76-cadf-43e1-9e7a-393978993ba2","湖南省","郴州市","桂阳县","桂阳县城关镇芙蓉路与宝蓝路交汇处",25.762108,112.742191,25.753898,112.725624,1
"4310242008B00095","27128298-1955-4820-9544-fd02b8878482","湖南省","郴州市","嘉禾县","城关镇金田东路",25.598122,112.383545,25.595196,112.371048,1
"4310232012B01350","f789ab3b-5f59-4127-a18f-19996de10388","湖南省","郴州市","永兴县","永兴县城关镇城郊村新路下组",26.139535,113.121477,26.149620,113.108584,1
"4310222018B00151","f6f26e39-474b-4c08-9658-d7c8efa6f179","湖南省","郴州市","宜章县","玉溪镇文明南路134-094栋102",25.389048,112.949929,25.408738,112.909496,1
"4310812010B00629","53808b2d-fbef-4d1c-be8f-df35e619942d","湖南省","郴州市","资兴市","资兴市晋宁路(市第一人民医院院内)",25.981643,113.243344,25.978300,113.237480,1
"4310272010B00275-1","1d64f620-9360-4cdd-a916-313b351e583c","湖南省","郴州市","桂东县","桂东县城关镇湘赣路",26.081431,113.956092,26.082590,113.942496,1
"4310812018B01225","a61a479e-72ae-484c-8e20-2fbc0556e1f3","湖南省","郴州市","资兴市","资兴市兴宁镇兴隆街",25.987952,113.443162,25.970444,113.402120,1
"4310252018B00117","aa18098f-7b5f-45b9-9185-03a1bda28670","湖南省","郴州市","临武县","临武县舜峰镇解放北路",25.290124,112.561858,25.285630,112.550400,1
"4310252018B00186","bae73710-05b5-4fc3-b1a0-dad027ed2136","湖南省","郴州市","临武县","临武县武水镇祥丰加油站南面",25.289715,112.586990,25.281400,112.573960,1
"4310812010B00276","3f5a0840-5eae-4667-aa0f-a7e24d196314","湖南省","郴州市","资兴市","资兴市大全北路住宅小区",25.981874,113.242556,25.948050,113.225696,1
"4310812010B00314","723e2d1c-9dcd-4d89-9176-2da2bf61bbc1","湖南省","郴州市","资兴市","鲤鱼江镇邮电路(服务公司三栋)",25.946216,113.236105,25.943792,113.223856,1
"4310812010B00307","74141f67-0d8d-40d7-8121-c375d53ead32","湖南省","郴州市","资兴市","东江镇沿江路东江基地院内",25.944345,113.273176,25.806440,113.016760,1
"4310002012B04681","d3006ee3-c381-42e3-9fb8-3adc56c5bcf4","湖南省","郴州市","北湖区","郴州市开发区冲口路南侧",25.763839,113.019422,25.774572,113.011104,1
"4310812012B05648","483d3234-fdcc-4fd8-94d8-a924e767ad6e","湖南省","郴州市","资兴市","资兴市晋宁路林业局院内4栋",25.981643,113.243344,25.978696,113.222448,1
"4310272015A00439","0fe8cc0d-6486-4783-a3be-1200f7352f11","湖南省","郴州市","桂东县","桂东县沤江镇大洞村、羊社村、都辽村、高桥村、东水村；寒口乡秋里村；桥头乡横店村、侠头村",26.164023,114.002121,26.131638,114.027256,1
"4310002018B01496","448af007-5f5f-408b-b931-f689cccfc489","湖南省","郴州市","苏仙区","郴州市苏仙区苏仙岭街道肖家洞路10号苏仙住宅小区（5栋109、201房）",25.808055,113.056144,25.805420,113.044056,1
"4310252018B00788","32506f50-7c77-4863-876d-87548028283a","湖南省","郴州市","临武县","临武县舜峰镇建新路",25.281404,112.565400,25.276010,112.543344,1
"4310212012B00826","7a57c8eb-2556-4c62-9b42-2d80c668f199","湖南省","郴州市","桂阳县","桂阳县荷叶镇两路口村",25.475089,112.715144,25.472636,112.702024,1
"4310212009B00315","37dc8e35-d5fa-41dc-b1b7-a7734e924a59","湖南省","郴州市","桂阳县","桂阳县城关镇小宝山岩心库",25.756627,112.737488,25.753898,112.725624,1
"4310232011B00719","f105c01c-9cdc-46cf-9479-8f52268ccfae","湖南省","郴州市","永兴县","永兴县湘阴渡镇开发小区",26.059279,113.041197,26.056050,113.029168,1
"4310232011B00359","d72cdae4-9fd0-468f-b965-b307145f4ffd","湖南省","郴州市","永兴县","永兴县湘阴渡镇开发小区",26.059279,113.041197,26.056050,113.029168,1
"4310002011B02830","4178861a-a1e8-43e4-b2cf-efaecae351a7","湖南省","郴州市","北湖区","青年大道与梨树山大道交汇处",25.768057,113.047994,25.772710,113.049856,1
"4310812018B02757","6fd65fe9-ac3e-4944-b96b-d3827cee69c8","湖南省","郴州市","资兴市","资兴市文锋路",25.976842,113.237065,25.974506,113.224944,1
"4310812018B01908","03309423-cb36-4981-aa18-21323852f32f","湖南省","郴州市","资兴市","资兴市鲤鱼江大兴路（建筑公司内5栋）",25.949852,113.239196,25.946730,113.226120,1
"4310812018B01880","aa364ded-cabc-485e-ab50-cb824c73df2a","湖南省","郴州市","资兴市","资兴市新区阳安路",25.978044,113.231643,25.975386,113.223072,1
"4310812016B03197","0552c4cc-3d45-4bc4-b7db-c816a1fef613","湖南省","郴州市","资兴市","资兴市矿务局本部新区村3幢",25.981874,113.242556,25.945506,113.210584,1
"4310812015B00807","05075112-cade-44df-8f22-b22000c29327","湖南省","郴州市","资兴市","资兴市兴华路矿务局唐洞煤矿16村",25.978331,113.239234,25.979934,113.264104,1
"4310812015B00810","c8fec99f-b4ca-45af-aaad-59496ed69df6","湖南省","郴州市","资兴市","资兴市晋宁路资兴宾馆6栋",25.982734,113.237349,25.972750,113.231904,1
"4310232010B01097","0fa39907-9f91-41ee-b5ef-ce0418fed4b4","湖南省","郴州市","永兴县","开发区龙山路",26.123899,113.111590,25.774572,113.011104,1
"4310232010B01029","5fb48352-ba3b-41cd-9876-7f9049faa112","湖南省","郴州市","永兴县","柏林镇柏林村",26.350965,113.289437,26.343230,113.277664,1
"4310812010B02046-3","94d80a0e-f24c-47b3-9be8-ed879cabab46","湖南省","郴州市","资兴市","资兴市东江镇秀水安置区",25.941977,113.250469,25.939060,113.241024,1
"4310812013B01138","b66a74bb-428a-4b4b-b12c-6140d0634b86","湖南省","郴州市","资兴市","资兴市波水乡",26.134064,113.470857,26.145576,113.429712,1
"4310212014B03626","9d840da8-402e-4f89-86fe-6e09bd464275","湖南省","郴州市","桂阳县","桂阳县鹿峰街道宝山路16号",25.731281,112.730966,25.731860,112.726624,1
"4310002010B00777","cd5fa632-9ad2-4a47-b35e-c1698ef3c864","湖南省","郴州市","北湖区","郴州市桔园路",25.788403,113.021375,25.784388,113.009112,1
"4310212010B00283","4581af73-8042-4e74-bb34-c870bc9344eb","湖南省","郴州市","桂阳县","桂阳县城关镇县府街",25.743317,112.740300,25.773200,112.736864,1
"4310812009B00792","89effd2c-adc5-4c2e-ad14-9af882f206d4","湖南省","郴州市","资兴市","滁口镇葫芦顶农贸市场",25.691397,113.383585,25.686538,113.370144,1
"4310812009B00807","41f28cc7-a8bb-444b-bc7c-7bf94cf5af8a","湖南省","郴州市","资兴市","兴宁镇头门口",25.987952,113.443162,25.969920,113.402976,1
"4310812010B00208","3bc97bcd-2806-4d0c-9f6d-8e4de8bed351","湖南省","郴州市","资兴市","高码乡高码村西街组",26.027011,113.223521,26.020654,113.215032,1
"4310212009B00551","1786a030-0816-41ac-b518-a3e505090971","湖南省","郴州市","桂阳县","城关镇五云观街4号",25.747626,112.739300,25.774572,113.011104,1
"4310242014B00248","92c51362-e10f-4233-b230-c910d5db01e7","湖南省","郴州市","嘉禾县","坦塘工业园",25.631187,112.362990,25.648600,112.361976,1
"4310282011B00464","73dd022c-2b14-4682-a64e-530b1880b166","湖南省","郴州市","安仁县","安仁县工业园",26.715683,113.275424,26.726250,113.236528,1
"4310812015B00108","dad5182f-a719-4470-9cea-4090e0474ff8","湖南省","郴州市","资兴市","资兴市鲤鱼江凤凰路东江水泥厂26栋1-302",25.960549,113.249915,25.948520,113.227824,1
"4310812013B00858","de6e91b0-bd93-4b03-9179-901094b33557","湖南省","郴州市","资兴市","资兴市新区文锋路水利局院内",25.976842,113.237065,25.974506,113.224944,1
"4310812013B00889","7a55cb84-9c5c-4d46-8b7c-7c8c1c635ec4","湖南省","郴州市","资兴市","资兴市鲤鱼江镇永丰路郴州冶炼厂",25.948961,113.236745,25.947810,113.211712,1
"4310232011B00138","11f1c0f6-fdbe-4a7b-8a7f-d68d44b1322c","湖南省","郴州市","永兴县","城关镇永湘路",26.140174,113.116657,26.136974,113.104768,1
"4310812012A04925","03bb0de6-91df-4ae4-8483-277725f2c772","湖南省","郴州市","资兴市","资兴市东江水电路旁",25.944345,113.273176,25.978154,113.225040,1
"4310812010B02609","2e79ccb5-7014-4add-bc61-bb323e0cf86c","湖南省","郴州市","资兴市","资兴市高码乡龙头村毛坪组",25.977617,113.232173,25.974416,113.213872,1
"4310002013B00110","f785ae2b-8463-4363-92b6-29c383977930","湖南省","郴州市","北湖区","北湖路47号",25.804440,113.040801,25.774572,113.011104,1
"4310812015B01079","d2c6094e-4b48-4381-a9e2-89da5dee9749","湖南省","郴州市","资兴市","资兴市东江大道迎宾花园悦山区",25.939432,113.260975,25.669406,113.511624,1
"4310222010B00096","7c6cb40f-37f0-4c33-98b8-71585095ae60","湖南省","郴州市","宜章县","杨梅山镇新建村",25.510938,113.122751,25.471974,113.116880,1
"4310812013B00796","95a1f3df-817e-40b3-9d02-f5ab50884476","湖南省","郴州市","资兴市","资兴市兴华路唐洞煤矿16村14栋",25.978331,113.239234,25.979934,113.264104,1
"4310812013B00878","0594d9ab-0069-45c3-82b7-e24c295a1606","湖南省","郴州市","资兴市","资兴市兴宁镇居委会",25.987952,113.443162,25.951070,113.225728,1
"4310212013B02855","94e2f36c-c8af-4f03-8ad0-b27de1e27f94","湖南省","郴州市","桂阳县","桂阳县宝山铅锌银矿一村72栋",25.759775,112.740560,25.665206,112.688384,1
"4310212013B02865","f517e2f3-cbf2-476c-99c6-698897fe8f23","湖南省","郴州市","桂阳县","桂阳县城关镇东风路13号",25.735762,112.747360,25.773200,112.736864,1
"4310812014B00376","112c6e93-8f0a-4b50-b84e-650dc8b34c54","湖南省","郴州市","资兴市","资兴市青腰镇青连路右",25.997011,113.583606,25.994650,113.571728,1
"4310212013B02996","079cdf6c-d1de-4321-b8cd-a616170b93ad","湖南省","郴州市","嘉禾县","桂阳县鹿峰街道城南路1号",25.586752,112.371883,25.731860,112.726624,1
"4310812016B02816","b4774351-af88-4cde-bcc2-a25d4ed0c51f","湖南省","郴州市","资兴市","资兴市晋宁路市委机关院内",25.981643,113.243344,25.967800,113.403384,1
"4310272010B00437","b0af3c53-ef42-4e39-9c0d-e39171f921d1","湖南省","郴州市","桂东县","桂东县城关镇东城区安置区（茅柳村）",26.083336,113.961085,0.000000,0.000000,1
"4310812010B02965","f5d613e2-25d0-4c51-ba86-0d7364ea2a81","湖南省","郴州市","资兴市","资兴市滁口镇高龙村",25.645117,113.358186,25.643246,113.345360,1
"4310812013A02860","61ef8eb8-a678-4eee-a75a-ba3dd36ce21d","湖南省","郴州市","资兴市","资兴市竹园路以东水电八局东江基地",25.952751,113.259688,25.949700,113.247496,1
"4310212013B01595","11db721b-ef4e-4f4d-93e6-e4f57fa14dff","湖南省","郴州市","桂阳县","茶场茶红路与竣马大道交叉路口北面",25.763126,112.761440,25.767520,112.753736,1
"4310002013B01273","32086ae0-6a1d-45b1-87fb-588e300a4f42","湖南省","郴州市","苏仙区","郴州市青年大道",25.790419,113.058583,25.774572,113.011104,1
"4310812010B00281","8301fc4d-6516-4e19-9dc6-a2959b905a36","湖南省","郴州市","资兴市","东江镇郴资路东江基地院内",25.944345,113.273176,25.953360,113.253416,1
"4310002014B01489","4d518c9f-b575-4b25-8e6d-5e84a5b7c64e","湖南省","郴州市","北湖区","郴州市北湖区石盖塘镇富民大道",25.695378,112.983416,25.692740,112.971472,1
"4310252014B00656","c81ee475-bf9f-44a3-86c5-fe832330b50b","湖南省","郴州市","临武县","临武县舜峰镇东云路陶家段",25.286785,112.574323,25.282754,112.559464,1
"4310212014B04890","e49149e1-921e-470b-a4c0-cd597ed8d8f2","湖南省","郴州市","桂阳县","桂阳县龙潭街道尾巴塘（原北关陶瓷厂）",25.758948,112.711756,25.856062,112.401912,1
"4310282014B00601","90ead1ae-b4d2-4a11-9049-12e6e99d3de9","湖南省","郴州市","安仁县","安仁县东周村",26.739466,113.299749,26.748816,113.275504,1
"4310212014B04367","98118598-404c-492a-abd6-03da07df52f9","湖南省","郴州市","桂阳县","桂阳县龙潭社区城北北路24号",25.759775,112.740560,25.773200,112.736864,1
"4310002012B04666","93370dff-199c-4089-a27a-98472802221a","湖南省","郴州市","北湖区","郴州市开发区冲口路南侧",25.763839,113.019422,25.774572,113.011104,1
"4310002012B04676","0b53e404-a8fc-4a5d-ae08-f276e8f42380","湖南省","郴州市","北湖区","郴州市开发区冲口路南侧",25.763839,113.019422,25.774572,113.011104,1
"4310812012B05610","91cad2f3-bab7-4115-aeac-3726d3f25e01","湖南省","郴州市","资兴市","资兴市青腰镇粮站",25.997011,113.583606,25.994650,113.571728,1
"4310812016B02089","71ec0dff-9631-4b74-b74c-344cca02d0a5","湖南省","郴州市","资兴市","资兴市凤凰路社区金磊集团24栋",25.958561,113.250417,25.978154,113.225040,1
"4310812011B04180","747b53f8-2980-4dca-8897-35f5bdd7784f","湖南省","郴州市","资兴市","资兴市兴宁镇正壕街",25.987952,113.443162,25.969920,113.402976,1
"4310212010B00127","bf2ec668-f796-4ad0-b0fd-dcd7d6b751aa","湖南省","郴州市","桂阳县","桂阳县城关镇城北北路",25.756627,112.737488,25.773200,112.736864,1
"4310222010B01535","e4283639-ea28-4235-a107-e07544be2c93","湖南省","郴州市","宜章县","城南乡麦子桥头",25.413172,112.952726,25.774572,113.011104,1
"4310252016B00187","18d36a4c-cc37-4594-b0d8-db725b65b53f","湖南省","郴州市","临武县","临武县舜峰镇东云路",25.286785,112.574323,25.282710,112.560480,1
"4310002008B00392","436ef2b7-ce26-45d4-a2fc-9e53bf8f259c","湖南省","郴州市","北湖区","龙门池",25.776683,113.021460,25.790340,113.040920,1
"4310262010B00517","e3bee900-034e-42a9-8cf4-1df1da8a99b3","湖南省","郴州市","临武县","和平路北侧、滨河路东侧",25.280583,112.564651,25.774572,113.011104,1
"4310812010B00700","72fe53b5-e0ee-4429-be1b-f061c65da4c2","湖南省","郴州市","苏仙区","市区秀流路西(龙泉头安置小区)",25.791767,113.105390,25.975380,113.219864,1
"4310812012B05356","409e6721-1e01-4180-b712-26677ada745a","湖南省","郴州市","资兴市","资兴市东江镇匝道旁",25.956404,113.265165,25.953360,113.253416,1
"4310002012B04306","d1af3fc3-ea7e-49e8-a7da-9ff99e8b6049","湖南省","郴州市","北湖区","郴州市国庆北路",25.813411,113.034026,25.807082,113.022104,1
"4310222014B03307","48479807-174a-49b5-8d1d-63e21cca01d0","湖南省","郴州市","宜章县","玉溪镇东长街（骑田林场）",25.396546,112.876775,25.393812,112.865032,1
"4310222014B03247","1bef32b9-1759-4e3c-ba4d-7cdc15bae2d8","湖南省","郴州市","宜章县","玉溪镇文明南路15号81栋401号",25.403856,112.958803,25.408738,112.909496,1
"4310812014B04116","f2464464-adb3-451c-a273-c09187934893","湖南省","郴州市","资兴市","资兴市波水乡农贸市场",26.134064,113.470857,26.112590,113.335064,1
"4310242018A00448","5fe3f3bb-31e4-45b9-804c-1b641a3fc247","湖南省","郴州市","嘉禾县","珠泉镇",25.614895,112.390774,25.590470,112.363672,1
"4310212016B01809","c1f2f348-7e5e-426a-a021-76b9292eb70a","湖南省","郴州市","桂阳县","桂阳县鹿峰街道宝山铅锌银矿一村80栋",25.730286,112.728600,25.731860,112.726624,1
"4310212016B01832","35f243f8-8124-4457-bec4-3e85ecb92ac4","湖南省","郴州市","桂阳县","桂阳县鹿峰街道城北南路30号(现蔡伦中路老县政府家属院内)",25.730286,112.728600,25.741192,112.726832,1
"4310002008B00435","51c22c95-3980-4bf7-9779-bb7e28051a48","湖南省","郴州市","苏仙区","郴州市白鹿洞镇下自水村",25.790575,113.058821,25.787280,113.046824,1
"4310812012B05542","c2439201-1a73-45b6-8678-c01934ce4fc9","湖南省","郴州市","资兴市","资兴市东江街道办事处（食品工业园）",25.981874,113.242556,25.953360,113.253144,1
"4310812016B02399","9e139037-e0c0-4499-9764-df6c85639e35","湖南省","郴州市","资兴市","资兴市矿务局唐洞矿2栋31幢",25.978331,113.239234,25.979934,113.264104,1
"4310262010A00360","a2d75671-ea48-4288-81b2-0af3360c7c58","湖南省","郴州市","汝城县","汝城县新区（和平路以北、汝城大道西侧）",25.539626,113.698331,25.558404,113.678688,1
"4310252014B00499","47f0e994-d1d9-4467-95f2-a1bcc0be2467","湖南省","郴州市","临武县","临武县武水镇武水大道18号",25.285814,112.585628,25.293044,112.592464,1
"4310272014B00208","652be4f6-5ae0-4c73-98ab-3bd9bbd52307","湖南省","郴州市","桂东县","桂东县沤江镇罗霄社区西街162号",26.088459,113.983754,26.047886,114.029824,1
"4310002015B00069","60b49a14-6ce0-420a-820c-a2a7a23f2555","湖南省","郴州市","苏仙区","郴州市苏仙区白露塘镇下白水村、珠江桥村",25.802554,113.121930,25.803796,113.128312,1
"4310262010B00476-2","4b739559-0075-46c0-9497-d8d368fab974","湖南省","郴州市","汝城县","汝城县九塘江",25.556057,113.691545,25.560294,113.683344,1
"4310002018B01530","a50a24be-c399-4e25-acd5-cc8222b26e89","湖南省","郴州市","北湖区","北湖区七里大道",25.807422,113.021565,25.788240,113.006792,1
"4310272013B00269","acb83700-dc96-4d44-b1cb-bac949555a53","湖南省","郴州市","桂东县","桂东县大塘镇水口山社区居委会",25.946344,113.888543,25.935180,113.878728,1
"4310232013B00767","00d3f68f-7c45-4e52-a1ac-940d5dc2cac2","湖南省","郴州市","永兴县","永兴县便江镇永兴大道侧",26.118237,113.117963,26.093506,113.088576,1
"4310222013B00216","1747b94a-303a-461f-925e-96fca89a8f8e","湖南省","郴州市","宜章县","宜章县产业承接园内",25.405714,112.955479,25.396288,112.937592,1
"4310222016B00347","c73e79c9-0884-49bb-a5ee-229e5979a6c5","湖南省","郴州市","宜章县","城关镇文明南路22号（县糖酒副食品公司）",25.402515,112.958262,25.399490,112.946488,1
"4310002015A01715","44cb8d88-4008-44af-aba8-bc32a197c1ad","湖南省","郴州市","苏仙区","良田镇枧石塘村",25.614252,113.021601,25.611406,113.011872,1
"4310812015A03030-1","72d2e124-e3ce-4135-a23b-f7e1c3a3480a","湖南省","郴州市","资兴市","资兴大道旁",25.981874,113.242556,25.951350,113.223520,1
"4310222013B00297","eafb1206-1c4d-4720-8a71-dad7389773f9","湖南省","郴州市","宜章县","玉溪镇罗家山大窝里",25.416062,112.933439,25.406356,112.927936,1
"4310282016B00174-1","c75aa4c7-1dee-42b7-9455-1e5ead419f07","湖南省","郴州市","安仁县","安仁县永乐江镇东郊村",26.710710,113.280020,26.703606,113.274832,1
"4310812014B00556","b2ffa1b4-dab7-4bda-ad76-63aba041bcd7","湖南省","郴州市","资兴市","资兴市青腰镇青连路右",25.997011,113.583606,25.994650,113.571728,1
"4310812014B00566","6502bbc7-513e-4189-bafe-4791db55fc61","湖南省","郴州市","资兴市","资兴市青腰镇青连路右",25.997011,113.583606,25.994650,113.571728,1
"4310812014B00547","9ada5f4b-5a7a-4724-932b-7537c3b73600","湖南省","郴州市","资兴市","资兴市青腰镇青连路右",25.997011,113.583606,25.994650,113.571728,1
"4310222018B01347","2c5e338a-2da4-4ead-883d-48780399c3aa","湖南省","郴州市","宜章县","玉溪镇文明北路114-169栋",25.417410,112.966092,25.408738,112.909496,1
"4310232018B01209","c3db1c71-42e4-45a9-a20f-7860b5bde6d3","湖南省","郴州市","永兴县","永兴县湘阴渡两新产业园",26.132968,113.122533,26.062322,113.022688,1
"4310812014B05650","086364a9-1f4c-4e7f-8f62-fabb514b4e4f","湖南省","郴州市","资兴市","资兴市东江水电路枫树下",25.944345,113.273176,25.934978,113.244664,1
"4310002011B02757","ff096731-cacb-4800-ad00-89e01125749f","湖南省","郴州市","北湖区","七里大道",25.807422,113.021565,25.770070,113.003200,1
"4310812016B01156","c44ee99b-fe66-43e8-9079-5b2bc922592e","湖南省","郴州市","资兴市","资兴市东江镇罗围村秀茅坪组",25.937544,113.242434,25.953360,113.253416,1
"4310812016B01160","5f51aa8d-0a2d-4e35-8524-9b3a8f2564d2","湖南省","郴州市","资兴市","资兴市东江镇罗围村秀茅坪组",25.937544,113.242434,25.953360,113.253416,1
"4310812016B01188","7de933c2-0f8b-4e89-a974-bd67f80c514e","湖南省","郴州市","资兴市","资兴市矿工南路鲤鱼江煤矿住宅区301",25.980767,113.257381,25.948520,113.227824,1
"4310812016B01216","5bc7926d-8620-49ba-a2a0-e24a0c8fbf1f","湖南省","郴州市","资兴市","资兴市矿务局唐洞煤矿5村11栋21号",25.978331,113.239234,25.979934,113.264104,1
"4310212009B00126","7be96316-ef46-4504-b6de-1cf1ce21cbdc","湖南省","郴州市","桂阳县","城关镇宝山路16号",25.731281,112.730966,25.774572,113.011104,1
"4310212009B00153","3be8ab70-f4ec-4e48-b05d-f6f268432e35","湖南省","郴州市","临武县","城关镇文化路6号",25.285437,112.561887,25.774572,113.011104,1
"4310212017B01476","407975d7-7b1a-4751-8b28-0f5284fcf357","湖南省","郴州市","桂阳县","桂阳县工业园芙蓉项目区",25.695541,112.737568,25.589948,112.811368,1
"4310812011B03726","f6899cc3-5d04-47d6-a210-1ce8dd28fbd6","湖南省","郴州市","资兴市","资兴市资兴大道邓家冲段",25.966999,113.241202,25.964354,113.229096,1
"4310812016B02095","66929e56-b881-42a7-8ab4-4dcd055f0345","湖南省","郴州市","资兴市","资兴市三都镇局本部3村18栋",26.020719,113.341314,26.034740,113.268088,1
"4310222015B01017","e2fe3e35-100e-4e02-85ab-5e5d3bddd9b9","湖南省","郴州市","宜章县","城关镇文明北路",25.416952,112.965525,25.416246,112.955456,1
"4310812015B03021","d8789af3-557c-4895-bdaf-81995611bd20","湖南省","郴州市","资兴市","资兴市晋宁路宝源矿9栋20号",25.981643,113.243344,25.978154,113.225040,1
"4310812015B03128","d9e3db4a-fbfa-4d32-8d7e-d2e1b15db359","湖南省","郴州市","资兴市","资兴市晋宁路宝源村4栋18号",25.981643,113.243344,25.978154,113.225040,1
"4310222011B00466","196a2b8e-5aea-43d7-82ae-69bd1a819431","湖南省","郴州市","桂阳县","城关镇工农兵街",25.756627,112.737488,25.774572,113.011104,1
"4310812016B01029","dc55d3e7-552b-49a9-8406-991415537a8b","湖南省","郴州市","资兴市","资兴市三都镇矿务局本部3村18栋12号",26.020719,113.341314,25.978840,113.234600,1
"4310812016B01105","c22fd6a9-1284-4a92-bdc8-b09a8a68112f","湖南省","郴州市","资兴市","资兴市东江中路电信局院内1-202",25.979156,113.244144,25.977770,113.232328,1
"4310812016B00488","7f790e5a-3ddd-4b48-b0fd-c0b338064c04","湖南省","郴州市","资兴市","资兴市唐洞煤矿17村2栋12号",25.978331,113.239234,25.979934,113.264104,1
"4310212013B01750","5df1aa0e-70e9-42c4-ba33-76e68828cba6","湖南省","郴州市","桂阳县","桂阳县荷叶镇",25.517652,112.692758,25.508956,112.705288,1
"4310212014B04711","0631f26e-86a7-4154-a4ea-070b8b56e53a","湖南省","郴州市","桂阳县","桂阳县鹿峰社区向阳路34号",25.740918,112.740895,25.773200,112.736864,1
"4310232011B00837","66067786-0efc-4c68-aeb5-3404fa4695a6","湖南省","郴州市","永兴县","柏林镇柏林村",26.350965,113.289437,26.343230,113.277664,1
"4310212016B01684","85f48a3f-9cc1-46ec-b652-d3c57eb523c7","湖南省","郴州市","桂阳县","桂阳县桂阳大道西侧",25.759775,112.740560,25.773200,112.736864,1
"4310812010B03066","5ca92dd6-247a-4151-872c-5b445d2745c5","湖南省","郴州市","资兴市","资兴市清江乡羊场",25.741983,113.307590,25.739210,113.295416,1
"4310222010B00014","a9cc2351-2675-4fd2-9b4d-785c96ca695c","湖南省","郴州市","桂阳县","城关镇北门后山",25.756627,112.737488,25.666990,113.846328,1
"4310002008B00519","8519b842-2efe-4d29-b02d-5c3e12c174b5","湖南省","郴州市","北湖区","协作路",25.819536,113.037633,25.816460,113.025728,1
"4310232009B00711","3f25930d-8a19-4fa4-a087-e1da9828aa19","湖南省","郴州市","永兴县","开发区龙山路",26.123899,113.111590,25.774572,113.011104,1
"4310212010B01160","7514a1b3-d203-4152-9464-a586c83ee726","湖南省","郴州市","桂阳县","城关镇城南东路",25.756627,112.737488,25.798280,113.028264,1
"4310222014B02874","57d4a77d-e081-4851-b381-37de0a106c1f","湖南省","郴州市","宜章县","玉溪镇民主西路",25.407880,112.955689,25.404560,112.941392,1
"4310272013B00646","e32960d9-fbdf-42ad-9242-50ff1a7038b0","湖南省","郴州市","桂东县","桂东县新坊乡新坊村上中家组",25.946608,113.964204,25.943000,113.937112,1
"4310272013B00736","5adc4077-cc2a-44e0-adce-b30a4a6beeaf","湖南省","郴州市","桂东县","桂东县新坊乡新坊村上中家组",25.946608,113.964204,25.943000,113.937112,1
"4310242014B00073","a7cae275-23fa-47ad-817c-8d2ce1660c35","湖南省","郴州市","北湖区","新城区",25.776683,113.021460,25.773580,113.009153,1
"4310272010B00248","7289bb20-6064-40c4-bf1d-2baee98e4b40","湖南省","郴州市","桂东县","桂东县城关镇汝桂路16号",26.077288,113.952397,26.082590,113.942496,1
"4310272010B00226","1456e38b-87f7-4550-b5cc-0cb882810aa2","湖南省","郴州市","桂东县","桂东县沙田镇万寿宫社区沙田墟",25.870778,113.828764,25.846078,113.813816,1
"4310002018B03526","1a66f27e-5573-42e2-a656-4315b02cb64f","湖南省","郴州市","北湖区","同心路26号资兴矿业集团同心桥小区3栋504房、224房",25.808267,113.024007,25.976270,113.226240,1
"4310002018B03510","0532a7cd-927e-4f97-87d7-42f17423087c","湖南省","郴州市","北湖区","郴州市香花路45号103房",25.793867,113.038388,25.777532,113.023632,1
"4310222018B01279","aebdeb9c-d777-4778-a43c-f21029fabe54","湖南省","郴州市","宜章县","玉溪镇城北居委会杉山里",25.454998,112.963115,25.805830,113.175104,1
"4310812016B00930","499b555b-beb0-4bc6-97e0-a6761b78b15e","湖南省","郴州市","资兴市","资兴市鲤鱼江镇凤凰路东江水泥厂院内48栋1-102",25.960549,113.249915,25.869320,113.307520,1
"4310232014B01520","6a9440ae-7bdb-431d-835d-8cc685f8c85f","湖南省","郴州市","永兴县","永兴县城关镇西正街",26.138683,113.116748,26.135880,113.104448,1
"4310812014B00474","fe71e24f-0a64-4088-9c00-e4f88d7a4e71","湖南省","郴州市","资兴市","资兴市青腰镇青连路右",25.997011,113.583606,25.994650,113.571728,1
"4310222016B00018","52f735b0-fbb6-43c7-ab73-d6c9711c48a3","湖南省","郴州市","桂阳县","城关镇民主茶子园",25.756627,112.737488,25.774572,113.011104,1
"4310222016B00035","041d9b11-76dd-4fd8-a889-60b05a9b1b93","湖南省","郴州市","宜章县","城关镇南关街64－1号",25.401816,112.954828,25.774572,113.011104,1
"4310212013B03359","d5be2c23-a183-4e74-9016-63234cd27e64","湖南省","郴州市","桂阳县","桂阳县城关镇城北路52号",25.744599,112.738922,25.773200,112.736864,1
"4310212013B03348","25cc831b-e978-4641-bfe9-bdb256d6e929","湖南省","郴州市","桂阳县","桂阳县城关镇城北路52号",25.744599,112.738922,25.773200,112.736864,1
"4310212013B03388","486efce8-c72b-477a-8fd6-868abf325878","湖南省","郴州市","桂阳县","桂阳县龙潭街道龙潭路",25.753902,112.735186,25.752880,112.726200,1
"4310812013A03684","371f27df-8108-4202-983a-a71dec0681c0","湖南省","郴州市","资兴市","资兴大道康家塘",25.981874,113.242556,25.957574,113.229184,1
"4310002009B02967-1","d3e491b8-f8ef-4ca7-b736-61416eb0f97e","湖南省","郴州市","北湖区","郴州市工业大道32号",25.826912,113.024530,25.774572,113.011104,1
"4310812013B00717","d8551e27-5e97-48e6-85b1-812e1ef8872f","湖南省","郴州市","资兴市","资兴市区文锋路",25.976842,113.237065,25.978154,113.225040,1
"4310212008B00202","457a97ed-e81f-4473-b657-623e4ee73db7","湖南省","郴州市","桂阳县","桂阳县余田乡余田村",25.838458,112.548843,25.836418,112.531352,1
"4310002016B02143","3239d0c0-48b5-44ba-9467-0627504c6ea9","湖南省","郴州市","苏仙区","上湾路（望仙镇珠堆村、山河村）",25.820381,113.168236,25.817788,113.156248,1
"4310812015B00838","a22c663e-ef6d-4dbd-8923-ee6a85052b0e","湖南省","郴州市","资兴市","资兴市白廊乡白廊村",25.921669,113.405428,25.913264,113.388176,1
"4310272013B00122","02b5dcc9-b551-4976-bd47-6666e44db9f2","湖南省","郴州市","桂东县","桂东县沤江镇红军路2号",26.082132,113.950812,26.082200,113.946424,1
"4310242010B00076","5b505a0c-01f9-48bd-8ee6-52e54c83f2df","湖南省","郴州市","北湖区","新城区",25.776683,113.021460,25.773580,113.009153,1
"4310812010B02555","00f91a38-7b4f-4386-8025-07541b0e5631","湖南省","郴州市","资兴市","资兴市鲤鱼江镇凤凰路(金磊集团生活区)",25.960758,113.253939,25.948520,113.227824,1
"4310812010B02567","56543632-9e61-40ad-a5f0-007f75ae9c17","湖南省","郴州市","资兴市","资兴市兴宁镇环城东路",25.977329,113.420040,25.967290,113.402768,1
"4310812013B03476","3b574b10-c85f-41f4-a221-f45cb429a56f","湖南省","郴州市","资兴市","资兴市东江中路工商银行院内3栋",25.978264,113.245285,25.945380,113.224408,1
"4310282012B00599","66ca044c-12fc-4791-b395-cf77ed4da73a","湖南省","郴州市","安仁县","安仁县安平镇安平居委会",26.547571,113.445880,26.560304,113.368152,1
"4310242013B00169","737ee92b-0e4f-48fc-9cbe-3456be692a5b","湖南省","郴州市","嘉禾县","珠泉镇城钟路42号",25.593987,112.382962,25.590470,112.363672,1
"4310002018B02276","9375b680-0c93-4fb8-8015-797271e174f8","湖南省","郴州市","苏仙区","苏仙区五里牌镇街洞村、罗家村（兴林大道与欣荣路交汇处）",25.980459,113.070558,25.979176,113.053608,1
"4310812018B00984","7c5a3de5-678b-4924-abde-c0d061945998","湖南省","郴州市","资兴市","资兴市汉宁路南龙头村毛坪组",25.977617,113.232173,25.971142,113.221976,1
"4310002018B02176","840dc345-e430-46d5-9202-8bb7b379ccd3","湖南省","郴州市","北湖区","郴州市升平路",25.813808,113.036710,25.810448,113.024048,1
"4310002018B01689","73a4049c-2958-4fc8-9426-6fe60102310f","湖南省","郴州市","北湖区","北湖区燕泉路",25.793378,113.028677,25.790200,113.018944,1
"4310002018B01819","4382c440-30df-4b18-bdc3-748b6388f2e2","湖南省","郴州市","北湖区","郴州市人民西路",25.800880,113.030742,26.128648,113.101520,1
"4310812015B01874","bdf8b54d-65fb-4fde-bf34-0e5638f530dd","湖南省","郴州市","资兴市","资兴市新区晋宁路林业局院内",25.981643,113.243344,25.978696,113.222448,1
"4310812013B02976","105800fb-9c9f-48f3-b107-05def0ba22ce","湖南省","郴州市","资兴市","资兴市新区东江中路二轻局院内",25.984851,113.244419,25.972750,113.231904,1
"4310812011B03881","7e9f2530-2336-4208-b0fa-2a394b7762e4","湖南省","郴州市","资兴市","资兴市晋宁路（市委机关院内）",25.981643,113.243344,25.967800,113.403384,1
"4310812014B00326","fdcfe11c-dbf6-4b75-8c3c-f75901a2e96d","湖南省","郴州市","资兴市","资兴市青腰镇青连路左",25.997011,113.583606,25.994650,113.571728,1
"4310812014B00315","4dd630c0-b212-4e12-816c-1ef69e7692e8","湖南省","郴州市","资兴市","资兴市青腰镇青连路左",25.997011,113.583606,25.994650,113.571728,1
"4310212014B04849","11807381-ec31-4a4d-a6b6-2a8575e65c82","湖南省","郴州市","桂阳县","桂阳县鹿峰街道芙蓉东路",25.748478,112.737228,25.731860,112.726624,1
"4310212014B04856","3aecaa36-4c5b-41f4-b9a2-fbf1e2165ec4","湖南省","郴州市","桂阳县","桂阳县敖泉镇咸宜村咸宜组",25.927184,112.599132,25.928958,112.581824,1
"4310212013B01739","ad075448-01f5-4365-9b89-c16f87dfca4e","湖南省","郴州市","桂阳县","桂阳县鹿峰街道鹿峰路老工商局家属区院内",25.755694,112.748137,25.731860,112.726624,1
"4310232015B00902","562bde76-f1cb-4c08-b2a2-cae59f6e2fa7","湖南省","郴州市","永兴县","永兴县西水路",26.132968,113.122533,26.132706,113.109784,1
"4310212015B00677","2bf53eed-6b63-4ee1-adf3-2243971f0f08","湖南省","郴州市","桂阳县","桂阳燕山工业区",25.759775,112.740560,25.736350,112.736128,1
"4310812018B00430","eddbde1b-ee9f-4c08-b86f-d011492f5baf","湖南省","郴州市","资兴市","资兴市东江街道罗围社区毛坪组",25.933635,113.241014,25.928150,113.226632,1
"4310812018B00399","8501b9ab-0ddc-4d69-9c3a-1a89521b7f2a","湖南省","郴州市","资兴市","资兴市东江街道罗围毛坪安置区",25.933635,113.241014,25.928150,113.226632,1
"4310812018B00404","c3ff4d21-e2d3-4573-b56e-479ff9dfa8c1","湖南省","郴州市","资兴市","资兴市三都镇局本部3村14栋",26.020719,113.341314,26.034740,113.268088,1
"4310002018B00041","fa057114-9b03-4c21-985d-21d0234d7239","湖南省","郴州市","苏仙区","苏仙区白露塘镇珠江桥村",25.806581,113.138781,25.797058,113.122528,1
"4310002008B00168","6657342f-be40-41df-b53d-8ba49b2a75be","湖南省","郴州市","北湖区","郴州市北湖路",25.804900,113.040075,25.800952,113.027944,1
"4310212013B00237","ea3659e1-e1f5-429f-8c5e-bfbf8bb8d275","湖南省","郴州市","桂阳县","桂阳县城关镇蓉城路1号",25.744768,112.743087,25.773200,112.736864,1
"4310212013B01436","b35ca19c-2224-4d75-8e9e-68cc48ad9d33","湖南省","郴州市","桂阳县","桂阳县龙潭街道鸿园新村",25.758948,112.711756,25.771972,112.736216,1
"4310002013B00296","e447c20e-99ba-43e0-a50c-329619de1185","湖南省","郴州市","北湖区","东风路",25.797075,113.029682,25.794336,113.021120,1
"4310812009B00258","0d1389d5-3c89-4989-9af7-f13d8cb289a8","湖南省","郴州市","资兴市","滁口镇葫芦顶",25.691397,113.383585,25.686538,113.370144,1
"4310812013B02907","3c870369-daa3-4af5-a438-d94d6b103402","湖南省","郴州市","资兴市","资兴市区大全路腾达小区B幢6栋2-503",25.983192,113.247269,25.980520,113.235200,1
"4310222008B00628","96416d72-0a08-472e-b3c1-b9e0f7852194","湖南省","郴州市","宜章县","梅田镇",25.335840,112.819022,25.326730,112.811408,1
"4310222010B00937","bc6dacba-b87d-4468-bd7b-3535bfd9530b","湖南省","郴州市","北湖区","富士电梯（郴州）有限公司",25.799925,113.022739,25.774572,113.011104,1
"4310212015B02047","defaa7ef-913c-4c52-b8e3-a0bb74fac197","湖南省","郴州市","桂阳县","桂阳县鹿峰街道县府街二巷8-1号",25.743317,112.740300,25.731860,112.726624,1
"4310812011B01278","888dc3a4-3fc8-4ad4-8e97-8ef8c903697b","湖南省","郴州市","资兴市","资兴市区晋宁路（市委机关院内）",25.981643,113.243344,25.967800,113.403384,1
"4310272013B00060-1","404926f7-8ed9-4cf6-9cb5-7fe60630463c","湖南省","郴州市","桂东县","桂东县沤江镇桂东大道",26.081483,113.957135,26.073732,113.940544,1
"4310222014B02716","df1e6952-7d7f-4eb3-9320-933c5d24d912","湖南省","郴州市","宜章县","玉溪镇民主西路28号050幢301房",25.411176,112.951873,25.408738,112.909496,1
"4310262014B00179","21da8caf-478e-4694-bb34-df03d864156a","湖南省","郴州市","汝城县","卢阳镇卢阳大道（环城西路）",25.559746,113.690957,25.277442,112.541160,1
"4310262014B00066","eb7a182e-16f0-4f3a-87f8-6f092941a7ef","湖南省","郴州市","汝城县","卢阳镇上黄门",25.543015,113.705694,25.547488,113.681696,1
"4310212014B03782","359a5575-a878-41e8-8eca-174c12f0ae4a","湖南省","郴州市","桂阳县","桂阳县鹿峰街道向阳路34",25.740918,112.740895,25.731860,112.726624,1
"4310272013B00702","86eb40c7-7dc2-49a3-9465-2a322b5f2fd7","湖南省","郴州市","桂东县","桂东县新坊乡新坊村上中家组",25.946608,113.964204,25.943000,113.937112,1
"4310232010B00312-1","65a07dfb-f8e4-48b3-b878-91f5de692fbdC","湖南省","郴州市","桂阳县","城关镇环城路",25.756627,112.737488,25.402340,112.939200,1
"4310242018B00377","d16751d3-0d17-4050-afc8-1a5aa007aa5a","湖南省","郴州市","嘉禾县","行廊镇",25.643303,112.480831,25.634800,112.475800,1
"4310002014B01326","59a5ab07-6298-4a14-b75e-c97c67a8b1b1","湖南省","郴州市","苏仙区","后营大道与金鑫路交界的西南角",25.806879,113.170127,25.786448,113.111704,1
"4310222012A01161","ce6b0b8f-f53e-41d2-b2d3-08de4229a5c3","湖南省","郴州市","宜章县","宜章县平和乡、赤石乡、新华乡、里田乡",25.533802,113.259090,25.514800,113.169512,1
"4310232018B00321","f7b04a8f-5295-44f7-ba1e-921719f6cf6b","湖南省","郴州市","永兴县","永兴县便江镇人民中路",26.141996,113.108662,26.125360,113.105328,1
"4310002016A02630","03f12926-5abf-4b26-af3a-f0627215f023","湖南省","郴州市","苏仙区","苏仙区良田镇陈家湾村",25.640428,113.009086,25.637624,112.999032,1
"4310222015B00087","860138c1-75da-462b-a23b-ab6b15a45291","湖南省","郴州市","宜章县","玉溪镇古背岭（老城南乡政府）",25.414024,112.938980,25.407910,112.938840,1
"4310242015B00035","dbec2b99-fb97-4aa4-8c47-9a86ea4c99ae","湖南省","郴州市","嘉禾县","嘉禾县珠泉镇石丘村、石燕村、塘坦村",25.646014,112.361784,25.639166,112.345752,1
"4310272015A00184","25a0c630-4dc4-4700-8891-8910f5c310e3","湖南省","郴州市","桂东县","桂东县沤江镇大洞村、羊社村、都辽村、高桥村、东水村；寒口乡秋里村；桥头乡横店村、侠头村",26.164023,114.002121,26.131638,114.027256,1
"4310272008B00219-1","ad58f29f-a2ff-4868-930e-6af32e890bbfA","湖南省","郴州市","桂东县","桂东县城关镇东街308号",26.081962,113.957025,26.082590,113.942496,1
"4310002012B00337","f2c4fc16-830b-4455-b4e3-c6ab3a41f6d2","湖南省","郴州市","苏仙区","苏仙区白露塘镇仙溪冲村",25.861801,113.131963,25.861742,113.119832,1
"4310222015B01254","eafef28d-eb06-4503-aa79-085b5c3b7108","湖南省","郴州市","宜章县","城关镇文明北路牌坊脚",25.416952,112.965525,25.416246,112.955456,1
"4310812015B01476","af8a9f48-5d0f-4ea3-a7ef-a3f901a30bac","湖南省","郴州市","资兴市","资兴市东江大道迎宾花园伴山区Y-18栋",25.939622,113.264567,25.669406,113.511624,1
"4310812015B01497","ac94bffd-edee-42d5-850d-a4cdc9641f9a","湖南省","郴州市","资兴市","资兴市东江大道迎宾花园福山区F-28",25.939432,113.260975,0.000000,0.000000,1
"4310232011B00539","598b2b46-e121-4487-affe-4f310084e9eb","湖南省","郴州市","永兴县","永兴县湘阴渡镇开发小区",26.059279,113.041197,26.056050,113.029168,1
"4310232011B00760","f3a5d07c-e483-4749-ae90-58a625294ff1","湖南省","郴州市","永兴县","永兴县湘阴渡镇开发小区",26.059279,113.041197,26.056050,113.029168,1
"4310232011B00559","8e4a43df-fd89-4362-9a6a-b0122fc14e45","湖南省","郴州市","永兴县","永兴县湘阴渡镇开发小区",26.059279,113.041197,26.056050,113.029168,1
"4310002016B02466","37039f9e-8109-4b23-a172-25cad388ebd0","湖南省","郴州市","苏仙区","苏仙区白露塘镇香山坪村（X091线西侧）",25.828917,113.121782,25.653200,113.066656,1
"4310002017B01669","041cf405-84a4-4290-9be2-2691e85086d4","湖南省","郴州市","苏仙区","苏仙南路",25.805407,113.051544,25.803608,113.039760,1
"4310252018B00071","5d81d47a-11ce-45e4-854c-080473ee9485","湖南省","郴州市","临武县","临武县舜峰镇解放南路",25.282362,112.570104,25.276462,112.549744,1
"4310252018B00121","e90e3a5a-35e9-4e60-907e-5bbd64e6ff6c","湖南省","郴州市","临武县","临武县舜峰镇解放北路34号",25.286937,112.562618,25.283580,112.551040,1
"4310232018B00283","a26ab9c3-3e78-4ff7-b01c-c180ee5c8365","湖南省","郴州市","永兴县","永兴县便江镇人民路",26.127221,113.118476,26.120430,113.116896,1
"4310282013B00511","339557cc-87f9-4f1e-99a8-0542f3e2601a","湖南省","郴州市","安仁县","安仁县七一西路延伸段",26.715644,113.271145,26.711606,113.266584,1
"4310812018B01270","803ba2f9-2055-4dec-8301-d0596a738faa","湖南省","郴州市","资兴市","资兴市资兴大道旁宏福新村5栋",25.981874,113.242556,25.951350,113.223520,1
"4310002016B03797","b6c789e0-1967-4874-8e80-d5ce0917c3e1","湖南省","郴州市","北湖区","郴州市国庆北路48号",25.813842,113.034413,25.774572,113.011104,1
"4310212016B02046","a7b85900-1cab-43e8-af1c-2b588afd2eac","湖南省","郴州市","桂阳县","桂阳县龙潭街道高仰亭党校后(教师新村) ",25.757675,112.732231,25.754666,112.721448,1
"4310212013B02637","ebe80aa3-a16f-4cb6-bb54-cafca515ae2f","湖南省","郴州市","桂阳县","桂阳县龙潭街道城北北路24号",25.758948,112.711756,25.771972,112.736216,1
"4310212013B02685","e4ff9518-ff78-401a-8099-a463d5767a0c","湖南省","郴州市","桂阳县","桂阳县鹿峰街道城北南路30号",25.730286,112.728600,25.731860,112.726624,1
"4310002013B01503","068ed446-7b8e-4d0d-b800-3d9d71ede9ae","湖南省","郴州市","北湖区","海泉路南侧（湘南国际物流园）",25.776683,113.021460,25.747124,113.038992,1
"4310232010B01004","dc624ade-57dd-4369-a9bc-5ed6e64628ae","湖南省","郴州市","永兴县","柏林镇柏林村",26.350965,113.289437,26.343230,113.277664,1
"4310212010B00707","d16f6f8b-b644-480a-9d12-2d92d91da43a","湖南省","郴州市","桂阳县","桂阳县城关镇欧阳海路（县公安局院内）",25.753892,112.738382,25.751244,112.725952,1
"4310212013B01548","f0693d82-887e-4eef-9409-c7fbf43e422f","湖南省","郴州市","桂阳县","桂阳县鹿峰街道丁字街54-16号",25.730286,112.728600,25.731860,112.726624,1
"4310812010B02076","46d88ab7-37a6-4083-b697-7521ac40c94a","湖南省","郴州市","资兴市","资兴市黄草镇金牛岛",25.703445,113.571526,25.659680,113.509600,1
"4310212014B03912","b3c7239b-048d-4071-a90c-95fc2920fa67","湖南省","郴州市","桂阳县","桂阳县宝山铅锌银矿二村1栋",25.759775,112.740560,25.665206,112.688384,1
"4310812008B00659","0e7a9c37-906f-4dbe-927d-94fc3fe642f6","湖南省","郴州市","资兴市","晋兴路社区",25.985863,113.247336,25.980000,113.233944,1
"4310212008B00236","fcd17c91-f4e8-4d31-9974-d36e17a514d3","湖南省","郴州市","桂阳县","城关镇欧阳海大道",25.749781,112.741971,25.742390,112.734840,1
"4310812013A02459","ff91c239-c913-480a-9547-355357ea8d38","湖南省","郴州市","资兴市","资兴市唐洞街道办事处新民村朝门下",25.978342,113.237223,25.975620,113.221864,1
"4310212013B02667","0e77bc54-3f1a-4543-b992-59591b251719","湖南省","郴州市","桂阳县","桂阳县鹿峰街道五居委会饶家村21号",25.745882,112.745557,25.731860,112.726624,1
"4310242010B00028","67604ec7-5559-43e0-97d3-af3c648f2fbf","湖南省","郴州市","嘉禾县","坦塘工业园",25.631187,112.362990,25.648600,112.361976,1
"4310212010B00175","5bd1750e-ae17-46ce-9623-6ea2825ee180","湖南省","郴州市","桂阳县","桂阳县城关镇园艺路",25.757423,112.744642,25.753044,112.731032,1
"4310252018B00261","d615ea45-85cb-462b-831d-99fe75f77bef","湖南省","郴州市","临武县","临武县舜峰镇解放南路电力小区",25.282362,112.570104,25.273180,112.549944,1
"4310812010B01464","006b5649-d631-4d24-8978-0103513a77e0","湖南省","郴州市","资兴市","资兴经济开发区迎宾路",25.938453,113.257070,25.980160,113.225304,1
"4310212014B05467","e6f48be5-2438-4a9d-8cb9-730d5ff8b998","湖南省","郴州市","桂阳县","桂阳县鹿峰街道城南西路（供电公司工程部院内）",25.734097,112.739670,25.731860,112.726624,1
"4310212009B00769","fe739c37-156c-46a0-83f1-c4293459306f","湖南省","郴州市","桂阳县","桂阳县城关镇百花新村16号",25.756627,112.737488,25.753898,112.725624,1
"4310222009B00043","d8f0061e-92e0-4aa9-88f7-3966e58ba5d5","湖南省","郴州市","宜章县","宜章县城关镇文明北路",25.416952,112.965525,25.416246,112.955456,1
"4310212009B01055","8e0d084a-4a26-474b-8e1a-2cf782349433","湖南省","郴州市","桂阳县","桂阳县城关镇高仰亭（县委党校后）",25.756627,112.737488,25.752980,112.720064,1
"4310222013B00895","b5988fed-7b47-4497-b549-ecb5bda74931","湖南省","郴州市","宜章县","玉溪镇文明北路一号",25.407478,112.958780,25.408738,112.909496,1
"4310212014B04130","f7edcfcb-676b-407e-beb9-ce048ddfced6","湖南省","郴州市","桂阳县","桂阳县环西路旁（原机修厂段）",25.759775,112.740560,25.832000,112.760112,1
"4310812014B03920","c92c837d-2801-4eff-b630-f0f51a928ce5","湖南省","郴州市","资兴市","资兴市兴宁镇头门口",25.987952,113.443162,25.969920,113.402976,1
"4310282015B00275","195e03d0-e13b-4f21-9a5e-4398d2de7190","湖南省","郴州市","安仁县","安仁县龙海镇龙海街",26.474212,113.305512,26.478320,113.276168,1
"4310282015B00155","83d6e02a-5fc6-4431-bc5b-ca6044ce05a4","湖南省","郴州市","安仁县","安仁县洋际乡洋际村新场组",26.641331,113.236166,26.637862,113.226688,1
"4310282015B00121","9f2147d8-edeb-49e9-bc78-6013268ad66b","湖南省","郴州市","安仁县","安仁县安平镇安平居委会",26.547571,113.445880,26.560304,113.368152,1
"4310282015B00177","caeeaeb3-4652-4a39-846e-f135bae7445f","湖南省","郴州市","安仁县","安仁县龙市乡玉峰村新街组",26.777754,113.362929,26.782224,113.332480,1
"4310282015B00131","81f1790b-d2bf-4d5e-b4bb-c82609a8017d","湖南省","郴州市","安仁县","安仁县关王镇街上组",26.433402,113.488332,26.430850,113.476144,1
"4310282015B00100","51abc6b2-951c-413e-bf14-12f6695388a7","湖南省","郴州市","安仁县","安仁县七一西路",26.715644,113.271145,26.711606,113.266584,1
"4310002011B04257","cec3c31c-8ac5-4662-a72d-33d866ada48a","湖南省","郴州市","北湖区","郴州市骆仙西路6号",25.790110,113.015919,25.787000,113.003360,1
"4310002011B04083","ce068887-bad0-4129-8c3e-f976defc2def","湖南省","郴州市","北湖区","郴州市骆仙西路6号",25.790110,113.015919,25.787000,113.003360,1
"4310002011B04068","7ed359f4-16e1-465e-8ada-c9d6cad7e674","湖南省","郴州市","北湖区","郴州市骆仙西路6号",25.790110,113.015919,25.787000,113.003360,1
"4310002011B04039","f24a0a9c-1b28-4fdf-9230-4fae136beab8","湖南省","郴州市","北湖区","郴州市骆仙西路6号",25.790110,113.015919,25.787000,113.003360,1
"4310212011B00776","17e25e19-29da-45b0-af71-74430bb1e43f","湖南省","郴州市","桂阳县","桂阳县樟市镇高塘村",25.800547,112.750321,25.797778,112.739352,1
"4310222013B01336","80d6f29e-4dcf-4499-9731-70cd87fb7609","湖南省","郴州市","宜章县","瑶岗仙镇上坪坳50栋9房",25.634552,113.276822,25.614664,113.290192,1
"4310222013B01398","e4a6be12-79d7-4ab0-953f-9d422551c5d0","湖南省","郴州市","宜章县","玉溪镇民主东路",25.407558,112.964513,25.403400,112.948368,1
"4310812018B02900","f04a8c42-6304-4804-b16f-cf2c012aecdf","湖南省","郴州市","资兴市","资兴市动向街道罗围秀水安置区",25.933635,113.241014,25.931934,113.229536,1
"4310232010B00971","961a793d-a191-4ec1-8566-3dc235f4c465","湖南省","郴州市","永兴县","永兴县太和乡循环经济项目区内",26.296116,113.270975,26.311830,113.226288,1
"4310812015B01800","5449ce7d-0c9e-41a6-84be-c3dc47b10f64","湖南省","郴州市","资兴市","资兴市矿务局宝源20村495栋27号",25.981874,113.242556,25.945506,113.210584,1
"4310282015B00256","ec8ec20e-89a8-4372-8b04-28ab975a18fd","湖南省","郴州市","安仁县","安仁县羊脑乡中洞村塘屋组",26.519714,113.564198,26.515048,113.549696,1
"4310252012B00160-1","be152ae6-29d3-4faa-8542-4f488cecdf28","湖南省","郴州市","临武县","临武县武水镇莲花路南面",25.305338,112.621789,25.281400,112.573960,1
"4310002010B00577","a2de73bc-d4ba-4273-badf-3ce146738ae5","湖南省","郴州市","北湖区","郴州市中山北街",25.798474,113.043706,25.795908,113.031840,1
"4310002010B00358","30570f12-0684-4180-818f-b4c72a37af49","湖南省","郴州市","北湖区","郴州市中山北街",25.798474,113.043706,25.795908,113.031840,1
"4310222016B00966","109f36f8-7f7e-4191-a6d6-6ad512930dd6","湖南省","郴州市","宜章县","玉溪镇西门村四组邓家冲地段",25.407908,112.946243,25.401238,112.932592,1
"4310212013B02122","61d8bd3a-abd8-4ddc-a9c8-782623c0d7c2","湖南省","郴州市","桂阳县","桂阳县鹿峰街道金叶路百花村",25.715637,112.739792,25.731860,112.726624,1
"4310812015B03059","50df381a-a3e3-4a18-931a-cd32b74fd7d3","湖南省","郴州市","资兴市","资兴市鲤鱼江镇大兴路",25.949852,113.239196,25.948520,113.227824,1
"4310242012B00038","c7d10712-3ee9-436c-91d9-4cba1905f97c","湖南省","郴州市","北湖区","景观大道",25.776683,113.021460,25.774572,113.011104,1
"4310242015B00250","6d6c7c9d-9d5a-4947-a0a2-6d2fb50db5c9","湖南省","郴州市","嘉禾县","田心乡",25.673348,112.417363,25.669080,112.406152,1
"4310212008B00810","a6b63bfd-cfc4-4742-957a-3952c44ad10b","湖南省","郴州市","桂阳县","桂阳县黄沙坪镇",25.678130,112.708210,25.668910,112.691360,1
"4310282012B00376","149a1bd4-a436-4724-8209-4fd49a29225a","湖南省","郴州市","安仁县","安仁县城关镇安仁大道与万福西路交汇处",26.721752,113.275419,26.716254,113.249232,1
"4310222009B01888","ba2ff272-75c1-4936-ad31-fea32fe1d4e5","湖南省","郴州市","桂阳县","城关镇城隍路160栋302号",25.756627,112.737488,25.774572,113.011104,1
"4310002014B01004","44b7e46f-dcec-431d-ba76-5c7ec3fb2ca8","湖南省","郴州市","苏仙区","郴州市苏仙区良田镇",25.584533,113.021152,25.621300,113.002472,1
"4310002014B00997","e18a0144-62fc-48a7-84f3-cb993dce5e8c","湖南省","郴州市","苏仙区","郴州市苏仙区良田镇",25.584533,113.021152,25.621300,113.002472,1
"4310002011B02512","77253418-3ea4-413d-ba62-b1c45ad6c12a","湖南省","郴州市","北湖区","郴州市国庆北路",25.813411,113.034026,25.807082,113.022104,1
"4310002015B00200","92ef91e5-c5fb-45d4-b87f-47a0eda07fc4","湖南省","郴州市","北湖区","国庆北路",25.813411,113.034026,25.807082,113.022104,1
"4310812014B04660","57dca978-a938-4bc8-950b-525e45424559","湖南省","郴州市","资兴市","资兴市兴宁镇西正街",25.973972,113.415874,25.970602,113.403256,1
"4310252018B00816","a0e28d20-24f9-4257-82f8-6fb4e8b3b5ac","湖南省","郴州市","临武县","临武县金江镇农贸市场",25.457032,112.737496,25.325240,112.687960,1
"4310002012B00357","75445482-6b23-4cf9-840b-2242de117b88","湖南省","郴州市","北湖区","郴州市经济开发区万华路",25.760051,113.001053,25.774572,113.011104,1
"4310812014B03736","bdf8ad82-716d-4ef9-bb8a-81def89f7cc1","湖南省","郴州市","资兴市","资兴市东江大道迎宾花园福山区F-1栋",25.939432,113.260975,0.000000,0.000000,1
"4310812009B01987","92b2e693-48cf-4048-b1b3-1f715f299aa8","湖南省","郴州市","资兴市","清江乡羊肠",25.741983,113.307590,25.774572,113.011104,1
"4310282012B00496-1","2f20b7c6-d1bd-4b39-a591-48b300ac4d24","湖南省","郴州市","安仁县","安仁县城关镇珠泉巷",26.721670,113.277484,26.706640,113.265720,1
"4310002010B00155","d9152330-9c3c-4b76-a65b-977ab07be81bC","湖南省","郴州市","北湖区","郴州市中山北街",25.798474,113.043706,25.795908,113.031840,1
"4310002010B00476","26624933-ed3b-4662-8c08-a801e284809c","湖南省","郴州市","北湖区","郴州市中山北街",25.798474,113.043706,25.795908,113.031840,1
"4310002010B00468","51bb641a-d1ce-4a73-9cb3-b3812a7cd031","湖南省","郴州市","北湖区","郴州市中山北街",25.798474,113.043706,25.795908,113.031840,1
"4310002010B00239","6b94952f-a1dd-4ecd-91d8-d0b957bbd166C","湖南省","郴州市","北湖区","郴州市中山北街",25.798474,113.043706,25.795908,113.031840,1
"4310002010B00215","31aab04c-7cb2-43bd-8d4d-75e7b6d774b5C","湖南省","郴州市","北湖区","郴州市中山北街",25.798474,113.043706,25.795908,113.031840,1
"4310812007B00297","0752fb2d-791a-44d7-ae43-5869db087b5a","湖南省","郴州市","北湖区","市大全路旁",25.776683,113.021460,25.979268,113.235352,1
"4310222013B01815","54cd85bd-b7c4-4c6a-a797-2679695ffbd6","湖南省","郴州市","宜章县","宜章大道旁，樟涵老庙湾",25.393423,112.929378,25.396548,112.921856,1
"4310212013B02206","7d41697d-14dd-4d2d-8830-7d365cd07a92","湖南省","郴州市","桂阳县","桂阳县龙潭街道城北北路26号",25.758948,112.711756,25.771972,112.736216,1
"4310812013B01346","383facc4-8327-44d0-86f2-f5c699c5c211","湖南省","郴州市","资兴市","资兴市晋宁路交警队院内",25.981643,113.243344,25.978154,113.225040,1
"4310812012B04372","9fe5af01-7860-44f1-8229-79cb90338934","湖南省","郴州市","资兴市","资兴市区兴华路唐洞矿16村18栋",25.978331,113.239234,25.972750,113.231904,1
"4310222016B01008","6e59787a-d36e-4263-b7fb-0ff9b4a18aaa","湖南省","郴州市","宜章县","玉溪镇文明北路1栋101号",25.416952,112.965525,25.408738,112.909496,1
"4310272013B00928","3f1c2786-8603-4da3-8df1-8f53258744c6","湖南省","郴州市","桂东县","桂东县沙田镇江湾村",25.852543,113.833365,25.851760,113.825672,1
"4310232013B00748","3ace03b8-a78d-4f47-bb4f-317e26b2b915","湖南省","郴州市","永兴县","永兴县国家循环经济示范园柏洞项目区",26.089294,113.094077,26.048420,113.029240,1
"4310282014B00709","a14034a4-b3c3-4d99-83e5-5933a1d4ef06","湖南省","郴州市","安仁县","安仁县承坪乡河东村",26.509731,113.373916,26.506508,113.362880,1
"4310222013B00137","481361d2-647b-43f7-8b61-bb569cce86f3","湖南省","郴州市","宜章县","城关镇文明南路30号（中国人民银行宜章支行）",25.400572,112.957288,25.409810,112.951360,1
"4310222013B00126","e4f72649-5dec-41d8-abc4-db86e9182eef","湖南省","郴州市","宜章县","城关镇文明南路19号",25.403153,112.958774,25.774572,113.011104,1
"4310212011B00895","0bfa4cc8-83e2-4968-930f-9ce8e6e9cce9","湖南省","郴州市","北湖区","宝山铅锌银矿一村90栋",25.776683,113.021460,25.825428,113.014424,1
"4310282013B00129","a4c8be30-eb88-40e3-8f0c-2cc004823ffc","湖南省","郴州市","安仁县","安仁县城关镇东郊村",26.710710,113.280020,26.718790,113.265472,1
"4310222010B01309","da686513-1ee8-4c9c-8e39-2e440dd1de8d","湖南省","郴州市","宜章县","城关镇文明南路156号",25.392967,112.952610,25.400800,112.947040,1
"4310812013B03376","dae51346-6954-4e25-80a4-f07257c610ab","湖南省","郴州市","资兴市","清江乡羊场",25.741983,113.307590,25.774572,113.011104,1
"4310222013B00515","9e07cb74-7fc2-4963-b8e8-c4512019357b","湖南省","郴州市","宜章县","城关镇南京洞",25.396793,112.955233,25.244338,112.805248,1
"4310252013B00075","b390681b-7d9b-415c-bced-e597a96f7f6b","湖南省","郴州市","临武县","临武县舜峰镇文昌南路城南市场旁",25.278510,112.563229,25.276346,112.552880,1
"4310002015B01787","8068a3e7-9948-4e90-b950-d157a2115ca8","湖南省","郴州市","苏仙区","郴州市青年大道",25.790419,113.058583,25.774572,113.011104,1
"4310222015B00754","fe456f12-41f6-476e-9259-656ec8bbfc3e","湖南省","郴州市","宜章县","玉溪镇民主东路2号",25.406532,112.959934,25.403860,112.948312,1
"4310212013B02901","f481ed2b-e553-444b-8811-81c34a668544","湖南省","郴州市","桂阳县","桂阳县燕山工业区内",25.759775,112.740560,25.773200,112.736864,1
"4310812009B00037","c9eaa088-7009-4c5d-827a-7d3d40ab55b8","湖南省","郴州市","资兴市","高码工业园区(东江西路旁)",25.952715,113.227767,25.950802,113.212408,1
"4310252018B01446","22183e45-1759-4e57-9970-d657bcf01aac","湖南省","郴州市","临武县","临武县舜峰镇东云路煤炭公司",25.286785,112.574323,25.284140,112.565936,1
"4310812014B04725","67ef5971-a54f-4315-90e2-46aebbf86414","湖南省","郴州市","资兴市","资兴市三都镇宝源矿局东村7栋23",26.020719,113.341314,26.034740,113.268088,1
"4310812014B04629","e0d8ab4a-2a1c-4a9a-8621-e80ca6f9b801","湖南省","郴州市","资兴市","资兴市兴宁镇西正街",25.973972,113.415874,25.970602,113.403256,1
"4310812013B01396","29a00d37-2411-4bd1-85f1-58d57cb7344b","湖南省","郴州市","资兴市","资兴市东江街道办事处东江罗围村秀水安置区",25.944345,113.273176,25.939060,113.241024,1
"4310812016B00899","1f96136c-a0ed-46f0-9224-7591ebdea28e","湖南省","郴州市","资兴市","资兴市汉宁路集控中心院内",25.973888,113.246271,25.971142,113.221976,1
"4310002014B01056","cfe63f9d-2568-42b2-9a10-82e1288fde6d","湖南省","郴州市","苏仙区","郴州市苏仙区良田镇良田村",25.623078,113.018037,25.627396,113.014304,1
"4310212015B01179","393171b5-a660-4da3-a82a-42e48060e282","湖南省","郴州市","桂阳县","桂阳县城关敬老院内",25.759775,112.740560,25.773200,112.736864,1
"4310002011B03525","1a638f74-9439-4857-9a11-d04923085d25","湖南省","郴州市","苏仙区","白露塘",25.926654,113.215706,25.808270,113.133280,1
"4310222015B00190","45cb8a83-4172-48b9-88c9-6c57f32f4e58","湖南省","郴州市","宜章县","宜章县白石渡氟化学循环工业园内",25.405714,112.955479,25.409330,113.013560,1
"4310222015B01148","4688d01d-176d-4a77-8b25-7f984139b3ab","湖南省","郴州市","宜章县","玉溪镇文明南路（人民医院）",25.403275,112.959276,25.386746,112.938352,1
"4310222015B01167","11edbb67-00c0-44e0-aa6a-3b9bb9ecfed1","湖南省","郴州市","宜章县","城关镇民主西路",25.407880,112.955689,25.410218,112.935576,1
"4310282011B00346","98a503fc-466b-4ee6-92c9-963a84a5cc0d","湖南省","郴州市","安仁县","安仁县城关镇安康路",26.708114,113.280622,26.705224,113.267464,1
"4310222011B01159","680eee80-2fee-4cf4-809a-6391106e30c5","湖南省","郴州市","宜章县","城关镇民主西路",25.407880,112.955689,25.410218,112.935576,1
"4310212014B05417","8dd41640-245d-4cde-a194-8c882a7ffaa2","湖南省","郴州市","桂阳县","桂阳县鹿峰街道解放路12号",25.738728,112.741164,25.731860,112.726624,1
"4310812009B02019","79751593-256b-44b0-a606-a99d451685f8","湖南省","郴州市","资兴市","市区文锋路周源山村",25.976842,113.237065,26.631356,113.198536,1
"4310812010B01878","e510e6f2-3372-4e8b-816a-f5a41474a4d8","湖南省","郴州市","资兴市","资兴市青腰镇青腰村",26.000059,113.584024,25.994724,113.572080,1
"4310272012B00331","c87577e4-b1e2-4b24-8ea3-a6047c456bf2","湖南省","郴州市","桂东县","桂东县沤江镇罗霄社区西街183号",26.088459,113.983754,26.047886,114.029824,1
"4310212011B00956","20b997fc-d7f6-487d-bb9a-618e97ac9160","湖南省","郴州市","嘉禾县","城关镇城南路30号",25.586894,112.374120,25.774572,113.011104,1
"4310812011B03657-1","aafac111-15c4-4d2a-9a5f-0db4d4d584ea","湖南省","郴州市","资兴市","资兴市兴宁镇南阳街谭家树下（市一中门口）",25.975030,113.417205,25.969718,113.404272,1
"4310282013B00047-1","effa3c47-3d2c-479f-95a6-ecc3793b2fbd","湖南省","郴州市","安仁县","安仁县城关镇仁北路",26.721670,113.277484,26.711606,113.266584,1
"4310232009B00875","312ea724-721c-4cf4-8522-f41978684751","湖南省","郴州市","永兴县","马田镇井岗村",26.110301,112.905988,26.109450,112.895288,1
"4310232009B00861","f820f2f0-7cc4-4f2e-8296-9bc3799777fd","湖南省","郴州市","北湖区","复和乡下源村",25.776683,113.021460,25.774572,113.011104,1
"4310812013B00087","ae98455e-fb89-4898-8ef7-5f6da6bfdfb1","湖南省","郴州市","资兴市","资兴市东江镇迎宾路铁运处3栋2-401",25.938453,113.257070,25.953360,113.253416,1
"4310222008B00165-2","dd3bd16f-d69a-4565-99c5-efff97696448AA","湖南省","郴州市","汝城县","宜章县里田乡界牌岭",25.546205,113.299865,25.533084,113.283528,1
"4310212018B00888","488c4e22-c752-434c-ab7b-49585ac806ad","湖南省","郴州市","桂阳县","桂阳县龙潭街道龙潭西路旁",25.755197,112.737509,25.754526,112.727808,1
"4310812009B01546","236d5987-3f9c-4e36-b12e-55c691360596","湖南省","郴州市","资兴市","资兴市三都镇周源山煤矿",26.020719,113.341314,26.034740,113.268088,1
"4310272009B00558","31eb17e7-eba6-4c5f-a28a-0b7e890c2802","湖南省","郴州市","桂东县","桂东县青山乡罗家村",25.916690,113.709288,25.915732,113.696608,1
"4310222015B00707","73cfac83-096a-41e1-859d-32d43040b245","湖南省","郴州市","宜章县","玉溪镇文明北路杉山里",25.416952,112.965525,25.416246,112.955456,1
"4310262015B00191","90fc56df-b91a-496f-942e-84fcd2b8e69f","湖南省","郴州市","汝城县","大坪镇坪湾村",25.360283,113.644403,25.774572,113.011104,1
"4310812015B02638","fae0fcc9-7cbd-407e-bfd0-d47e378267e8","湖南省","郴州市","资兴市","资兴市东江南路宏福新村",25.963283,113.238930,25.978154,113.225040,1
"4310222015B01150","e78b999d-645e-4015-b3df-98bc13e9a8eb","湖南省","郴州市","宜章县","城关镇文明南路22号058栋303号",25.402515,112.958262,25.399490,112.946488,1
"4310212018B00419","cf3f9826-2947-4cf3-ac4d-f79175d4f8e1","湖南省","郴州市","桂阳县","桂阳工业园宝山项目区蒙泉路旁",25.695611,112.737341,25.726378,112.710720,1
"4310212016B00749","3904c637-b172-4266-8770-25889a941d65","湖南省","郴州市","桂阳县","桂阳县鹿峰街道城南东路7号",25.730286,112.728600,25.731860,112.726624,1
"4310812016B00750","0b9f4494-4f2b-4d52-9f1d-d6e00faf1ccd","湖南省","郴州市","资兴市","资兴市唐洞街道龙头社区汉宁路旁",25.973888,113.246271,25.975906,113.226136,1
"4310002010B00554","b597155a-3e01-4ec8-8180-add33d18c124","湖南省","郴州市","北湖区","郴州市中山北街",25.798474,113.043706,25.795908,113.031840,1
"4310002010B01967","05a61411-beaf-4f91-9a09-b699277b8a32","湖南省","郴州市","北湖区","郴州市北湖区工业园内",25.790815,113.017482,25.749570,112.979536,1
"4310002015B01325","c1f39323-f967-4ef6-8b0d-d603d4118ef7","湖南省","郴州市","北湖区","北湖区石盖塘镇小溪村",25.668412,112.971148,25.666216,112.957992,1
"4310002008B00988","0a3f1137-6fd2-4ccf-bd20-e05f85d2f81d","湖南省","郴州市","北湖区","香雪西路",25.786201,113.021284,25.782900,113.007408,1
"4310812015A01995","a33dddc7-8d18-4415-87c2-b4e2c59ec985","湖南省","郴州市","资兴市","资兴市东江大道水街旁",25.939432,113.260975,25.978154,113.225040,1
"4310002010B00335","ee9d413a-4ec1-4c19-b251-7b6bfbca1164","湖南省","郴州市","北湖区","郴州市中山北街",25.798474,113.043706,25.795908,113.031840,1
"4310812010B00105","eecabbdf-cd32-489e-b82e-7e520ad640e9","湖南省","郴州市","资兴市","资兴市矿工南路",25.980767,113.257381,25.970590,113.241096,1
"4310002011B04186","16459b09-fbe9-4072-b39d-59258866f28f","湖南省","郴州市","北湖区","郴州市解放北路",25.816777,113.039088,25.286868,112.550104,1
"4310812011B04035","af29300e-d30b-458a-917a-d70dc2818939","湖南省","郴州市","资兴市","资兴市鲤鱼江镇大兴东路（原市棉织厂院内）",25.950079,113.239430,25.949762,113.229256,1
"4310812014B05227","86e56a56-0c1a-42d6-8380-dc217c94665e","湖南省","郴州市","资兴市","资兴市兴宁镇园艺场",25.987952,113.443162,25.967800,113.403384,1
"4310222013B02097","c9dce0af-11ef-47da-b196-e6006c5526a3","湖南省","郴州市","宜章县","梅田镇湘南氮肥厂",25.327617,112.831332,25.322004,112.820984,1
"4310812009B00640-1","64ac4c8a-d404-4715-b4ce-9ffab712e0a0","湖南省","郴州市","资兴市","资兴经济开发区罗围大道旁",25.933635,113.241014,26.718970,113.251544,1
"4310232011B00875","fbb636a3-8bde-485c-a82d-f4b4bd1853ec","湖南省","郴州市","永兴县","永兴县城郊乡城郊村新戴家组",26.139535,113.121477,26.136810,113.103264,1
"4310212015B01087","d13dfe22-9bb9-4a24-b053-9da12a00491a","湖南省","郴州市","桂阳县","桂阳县太和镇区内（原太和镇老农贸市场）",25.614965,112.749141,25.618240,112.723160,1
"4310812015B01296","f138ed1b-ff32-4b8d-9967-ae4407485b54","湖南省","郴州市","资兴市","资兴市三都镇矿务局本部2村10栋14号",26.020719,113.341314,25.978840,113.234600,1
"4310812015B01242","9b381884-04fd-4c21-8c68-f7f0ffc9ff12","湖南省","郴州市","永兴县","资兴市东江中路电影公司1栋201",26.134596,113.120738,25.977770,113.232328,1
"4310212008B00387","3d9a4d60-7914-494b-bac7-70cb2f05081b","湖南省","郴州市","汝城县","城关镇东正街39号",25.556071,113.692886,25.774572,113.011104,1
"4310812014B00635-1","ed5ed9f1-6ad9-48fd-9e14-caf3a3cdec5d","湖南省","郴州市","资兴市","资兴市东江镇龙泉村",25.946123,113.287779,25.942800,113.274752,1
"4310812013B03594","311d9d45-6156-475a-a5e8-0ae77e00cecd","湖南省","郴州市","资兴市","资兴市东江大道北",25.939432,113.260975,25.978154,113.225040,1
"4310282013B00557-1","c40ab17d-c32e-44fb-9f28-4859f957de32","湖南省","郴州市","安仁县","安仁县东郊村",26.710710,113.280020,26.707786,113.273760,1
"4310282013B00564","255658c9-7181-45c6-888e-1aca6a83e747","湖南省","郴州市","安仁县","安仁县东郊村",26.710710,113.280020,26.707786,113.273760,1
"4310222013B01629","acc86872-5637-42d5-8a3c-0a171ecdac51","湖南省","郴州市","宜章县","玉溪镇赶羊坪",25.414024,112.938980,25.408738,112.909496,1
"4310222016B00581","7d47b2ba-17c8-467f-8eae-4e9d4519a278","湖南省","郴州市","宜章县","城关镇民主西路35号5栋501号",25.408293,112.953446,25.774572,113.011104,1
"4310222013B00978","2355bff1-4fc2-4c51-8bff-dcee1d355824","湖南省","郴州市","宜章县","玉溪镇文明南路19号",25.403153,112.958774,25.408738,112.909496,1
"4310002014B01406","f740aa3b-1b57-4c13-9fc4-c9bcda2ab774","湖南省","郴州市","北湖区","郴州市青年大道29号五岭新天地二期旁",25.779740,113.020096,25.776450,113.007760,1
"4310282014B00820-1","c8301fe6-8da1-4b61-b62e-19fbdc572046","湖南省","郴州市","安仁县","安仁县永乐江镇五一南路",26.711534,113.277793,26.705070,113.264608,1
"4310812011B02956","2bd28789-a36d-419b-90a7-61baf06c039c","湖南省","郴州市","资兴市","资兴市新区阳安路（工商银行院内）",25.978264,113.245285,25.975386,113.223072,1
"4310002012B04278","52db4893-f6ac-42b8-b6eb-f6a0b410dc8f","湖南省","郴州市","汝城县","郴州市文化路115号",25.564148,113.695112,25.774572,113.011104,1
"4310222016B00739","887fc203-5c6c-47d8-ab7f-5c0f7c180333","湖南省","郴州市","宜章县","城关镇民主西路玉溪街1号",25.407171,112.953287,25.410218,112.935576,1
"4310002012B04809","82f034ac-a430-4fab-8d35-2a946a281a32","湖南省","郴州市","北湖区","郴州市开发区冲口路南侧",25.763839,113.019422,25.774572,113.011104,1
"4310222015B00905","132bf9bf-0068-470b-800c-cf7f98d699d1","湖南省","郴州市","宜章县","玉溪镇民主西路34号050幢303房(交通局)",25.410101,112.952079,25.408738,112.909496,1
"4310812016B00940","7402c378-9bcb-4776-8e1c-5b638edf709f","湖南省","郴州市","资兴市","资兴市东江迎宾路啤酒厂4栋2-201",25.944345,113.273176,25.972750,113.231904,1
"4310222018B00660","d4aff390-83a5-496d-afc5-c97a1e845094","湖南省","郴州市","宜章县","玉溪镇民主西路玉溪街118-054栋401",25.406491,112.953320,25.410218,112.935576,1
"4310272010B00347","e8b74e76-1ef5-4626-80af-09102368fa16","湖南省","郴州市","桂东县","桂东县城关镇桂花大道（教堂边）",26.084204,113.937086,26.082080,113.945008,1
"4310212012B00309","bf1228a9-c864-47a5-9943-8f34aa08fda4","湖南省","郴州市","桂阳县","城关镇城高仰亭党校后",25.756627,112.737488,25.758620,112.997568,1
"4310212012B00286","9e679957-0332-4729-b360-3097967f8656","湖南省","郴州市","桂阳县","城关镇向阳路34号",25.740918,112.740895,25.774572,113.011104,1
"4310252012B00135","93f6e39a-8645-4dbf-8a7d-3058d0e5ba70","湖南省","郴州市","临武县","临武县城关镇解放中路",25.283887,112.562360,25.280628,112.550808,1
"4310812015B00030","f2f8144d-6405-4028-921b-e07cf2e2d2cd","湖南省","郴州市","资兴市","资兴市东江街道办事处罗围村秀水安置区",25.941977,113.250469,25.939060,113.241024,1
"4310262016B00096","8a0c9a9a-c06d-4f8c-9e25-98ad258dfe18","湖南省","郴州市","汝城县","汝城县挂枝岭水厂南侧",25.556057,113.691545,25.558404,113.678688,1
"4310812016B00209","6942ccb7-9d31-4506-a475-56d291a640c0","湖南省","郴州市","资兴市","资兴市鲤鱼江凤凰路1号原东江水泥厂36栋303",25.960549,113.249915,25.948520,113.227824,1
"4310222015B00586","1b1af7f6-4f46-4969-979f-743d69de3cc8","湖南省","郴州市","北湖区","白石渡解放路4号114栋403号",25.813213,113.039120,25.405476,113.020736,1
"4310232013B00677","14090264-9d9e-4141-87d6-a66d4d994351","湖南省","郴州市","永兴县","永兴县太和工业园",26.132968,113.122533,26.132706,113.109784,1
"4310222018B00319","805ab5ae-7143-42d8-8a3d-4afb73474889","湖南省","郴州市","北湖区","谭仕兵、黄文娟",25.776683,113.021460,25.774572,113.011104,1
"4310812018A02481","c7c5a74e-6468-48df-a007-97604623d072","湖南省","郴州市","资兴市","资兴市上灶坪社区",25.981874,113.242556,25.951436,113.208656,1
"4310272008B00036","68ada2e2-39a3-4ff0-add0-a70a5d75f24d","湖南省","郴州市","桂东县","桂东县城关镇琴山社区",26.081962,113.957025,26.078404,113.933592,1
"4310812014B04790","b55c65e7-82ea-45c3-833a-c6176bed96d0","湖南省","郴州市","资兴市","资兴市东江镇罗围村村秀水安置区新天地路段",25.941977,113.250469,25.939060,113.241024,1
"4310812010B00507","a9adc612-34fb-4e25-a9ff-86c7cce9a4fb","湖南省","郴州市","资兴市","东江西路旁",25.952715,113.227767,25.774572,113.011104,1
"4310252012B00636","37a5c8dd-b775-4e04-87a0-495275b7d16a","湖南省","郴州市","临武县","临武县武水镇沿江路南面（城东学校北面）",25.289976,112.578671,25.286772,112.567016,1
"4310212010B00024","e72d9e8e-61b3-498f-8772-dd0501f61161","湖南省","郴州市","桂阳县","桂阳县城关镇向阳路43号",25.740764,112.739119,25.773200,112.736864,1
"4310252018B00576","fa4e361b-c162-4626-b964-4bd1a5d3488d","湖南省","郴州市","临武县","临武县舜峰镇解放南路22号",25.280345,112.561799,25.284580,112.550496,1
"4310812011A02427","6c4dd447-f2a4-41e3-b7a4-0d0be3ad9add","湖南省","郴州市","资兴市","资兴市波水乡波水村",26.130966,113.471367,26.129322,113.458656,1
"4310222010B01236","d147c6dd-ed0d-499b-9161-a486edac1dfc","湖南省","郴州市","宜章县","城关镇民主西路（原保养厂）",25.407880,112.955689,25.410218,112.935576,1
"4310002010B01205","ef4d27d4-cfa6-4349-81b2-5b6f206b8961","湖南省","郴州市","北湖区","国庆北路与郴桂路交汇处",25.809418,113.029664,25.802000,113.024920,1
"4310812013A02106","c549f32d-26f3-41f2-955d-69939dc338dc","湖南省","郴州市","资兴市","资兴市高码工业园高山路以东",25.981874,113.242556,26.023124,113.211984,1
"4310002017B01970","ba74f3b7-9603-45f3-9bca-37fd98cc3d45","湖南省","郴州市","北湖区","惠泽园",25.771231,113.010071,25.770550,112.993640,1
"4310242018B00594","0de00df6-3867-4d69-a7e1-6ee12ccbeadb","湖南省","郴州市","嘉禾县","珠泉镇",25.614895,112.390774,25.590470,112.363672,1
"4310812018B02528","c685c768-5662-4da9-9043-aeec686f1878","湖南省","郴州市","资兴市","资兴市晋宁路16号（林业局院内）",25.981339,113.234441,25.978696,113.222448,1
"4310212015B01627","903a26ee-7535-40ef-b4ed-6ccd1025682b","湖南省","郴州市","桂阳县","桂阳县黄沙坪街道柏树村（县工业园内）",25.701685,112.739927,25.698000,112.727968,1
"4310812014B00106","391226f1-08f2-4863-95ef-a709bda09da5","湖南省","郴州市","资兴市","兴宁镇南阳街卫生院对面",25.975030,113.417205,25.969718,113.404272,1
"4310002012B05180","9f6b7f55-66d7-4c26-8523-426be1e79907","湖南省","郴州市","北湖区","郴州市开发区冲口路南侧",25.763839,113.019422,25.774572,113.011104,1
"4310002012B04925","e63b533d-8c44-4080-93a3-33a923b8ef6a","湖南省","郴州市","北湖区","郴州市开发区冲口路南侧",25.763839,113.019422,25.774572,113.011104,1
"4310002012B04942","e5b96795-4868-4c8a-a6fb-3b28deaffa26","湖南省","郴州市","北湖区","郴州市开发区冲口路南侧",25.763839,113.019422,25.774572,113.011104,1
"4310002012B00090","e35d1c20-85aa-448b-9f8f-e34a276c8448","湖南省","郴州市","北湖区","郴州市黄泥路南侧",25.776683,113.021460,25.744726,112.968216,1
"4310812014B04526","09930a47-1acc-404a-b050-b59e915a6894","湖南省","郴州市","资兴市","资兴市东江迎宾路铁运处3栋3-502",25.944345,113.273176,25.972750,113.231904,1
"4310272014B00134","ee5126ce-c324-4f38-97dd-8f5b3e8c0649","湖南省","郴州市","桂东县","桂东县沤江镇东城区（东城一品住宅小区围墙背）",26.088459,113.983754,0.000000,0.000000,1
"4310002014B00050","477bdfad-0c79-44e0-a8ec-3f001d0fc7bb","湖南省","郴州市","北湖区","北湖区槐树下村",25.752651,113.052370,25.749836,113.040192,1
"4310002008B00176","eb2ea086-747d-424a-af33-319d86affdd7","湖南省","郴州市","北湖区","下湄桥狮马洞107国道边",25.831335,113.023825,25.822970,113.012016,1
"4310212018B00757","a4d47085-704d-4cfa-9f6a-c6fec318e823","湖南省","郴州市","桂阳县","桂阳县共和项目区共和路与共和二路交界处",25.759775,112.740560,25.700576,112.686944,1
"4310002012B00717","acde3ccb-a267-422c-8c6b-cf4a592c4cde","湖南省","郴州市","苏仙区","白鹿洞镇渔场新村三组",25.790575,113.058821,25.787288,113.046824,1
"4310812009B00348","9b673ee3-8e2e-4bbb-8e35-8d0bdc4621d6","湖南省","郴州市","北湖区","市计生委院内",25.776683,113.021460,25.773590,113.009352,1
"4310252013B00057","40c8895a-beaf-4b6e-b4d1-da3bddba1037","湖南省","郴州市","临武县","临武县S1842线汾市镇段西侧",25.341090,112.679545,25.324172,112.693640,1
"4310812009B00388","6dca2c9f-fa9c-4903-88b4-c0d89d2978bb","湖南省","郴州市","资兴市","滁口集镇",25.726663,113.410521,25.687076,113.373952,1
"4310812009B00401","41a6a2b8-2002-4915-8ba2-7d4e994cd98a","湖南省","郴州市","资兴市","鲤鱼江车站路",25.950366,113.239847,25.936238,113.227904,1
"4310222008B01529","cb3e542e-9acd-4787-98ef-79ae6c521ec6","湖南省","郴州市","宜章县","城关镇文明南路",25.386999,112.948970,25.384170,112.937768,1
"4310242010B00061","e138fe75-428b-4137-8a69-8334aaa25b8e","湖南省","郴州市","嘉禾县","坦塘工业园",25.631187,112.362990,25.648600,112.361976,1
"4310222008B00020","9f61d86a-5aad-43e7-9a0e-968d41c8c968","湖南省","郴州市","宜章县","宜章县白沙圩",25.405714,112.955479,25.008052,112.942088,1
"4310282011B00441-2","c5469c9a-9b4e-40c0-a0f2-de6066c26cd6","湖南省","郴州市","安仁县","安仁县工业园",26.715683,113.275424,26.726250,113.236528,1
"4310002011B04004","e506581f-a04c-4ca3-add5-4f1fd8014925","湖南省","郴州市","北湖区","有色金属园内",25.776683,113.021460,26.119560,113.104120,1
"4310002011B03409","377cb17a-67af-4a30-bebd-a5809e1d33a0","湖南省","郴州市","苏仙区","白鹿洞镇四普庄三组",25.818589,113.044411,25.821826,113.032208,1
"4310212014B04695","6693b4c0-3ba0-4c57-8030-32bbeab39668","湖南省","郴州市","桂阳县","桂阳县城关镇城南中路55号",25.733944,112.739747,25.753898,112.725624,1
"4310262015B00118","0b13f5cf-8f59-4129-b96b-352e27e53948","湖南省","郴州市","汝城县","汝城县106国道东侧、高安路西侧",25.407287,113.729751,25.556180,113.665152,1
"4310272014B00110","1a2d27b4-20ba-4d2b-8aec-f1b0093fbb9f","湖南省","郴州市","桂东县","桂东县四都镇四都墟",26.021206,113.796811,25.967314,113.779056,1
"4310812014B04970","7c1da2ba-c6a0-44f9-8dd4-08f143201bae","湖南省","郴州市","资兴市","东江迎宾路啤酒厂9栋",25.944345,113.273176,25.774572,113.011104,1
"4310812014B04828","0c225abc-076d-40be-854e-29a3c8e82448","湖南省","郴州市","资兴市","资兴市鲤鱼江镇一号原东江水泥厂44栋101",25.960549,113.249915,25.947904,113.395488,1
"4310212012B01356","a191c46b-0c79-4457-b6e9-fb24e7f15a5a","湖南省","郴州市","桂阳县","桂阳县学仕路（桂阳党校院内）",25.755451,112.733921,25.752680,112.721096,1
"4310002012B04387","aa0ce6e6-0d8c-4bee-aa09-73bea715d5f3","湖南省","郴州市","苏仙区","郴州市人民东路",25.801277,113.047848,26.120932,113.115656,1
"4310222016B00559","38a5be5d-5f0b-45d6-8765-5f6bd2bd6449","湖南省","郴州市","桂阳县","城关镇东关街108-134栋303",25.756627,112.737488,25.774572,113.011104,1
"4310222016B00510","ddd748ac-c1b9-46ef-bcdd-23d04b51dd36","湖南省","郴州市","桂阳县","城关镇民主西（县物资局）",25.756627,112.737488,25.404900,112.942904,1
"4310002008B00657","0abc9ed3-d970-453f-a787-d689cc96b785","湖南省","郴州市","苏仙区","郴州市青年大道",25.790419,113.058583,25.774572,113.011104,1
"4310232012B00237-1","ef4ac537-b227-4ce8-8508-960137b70f17","湖南省","郴州市","永兴县","永兴县银都汽车站对面",26.132968,113.122533,26.143202,113.109928,1
"4310222012B00766","4454aa2b-330b-4b5c-94b5-c945c3a4c89a","湖南省","郴州市","北湖区","县政府大院内",25.776683,113.021460,25.774572,113.011104,1
"4310222018B00029","280ce170-4c44-44e9-8e3f-9f847ade6bc7","湖南省","郴州市","宜章县","玉溪镇文明南路（县食杂果品公司)",25.386999,112.948970,25.386746,112.938352,1
"4310242015B00107","ba10e7e8-92d8-4985-b259-5c286dedd895","湖南省","郴州市","嘉禾县","龙潭镇供销社",25.594107,112.501373,25.731220,112.728216,1
"4310002013B00279","6aa2aacd-26e6-44f3-94c0-435a93ceecf2","湖南省","郴州市","北湖区","郴州市南岭大道",25.801663,113.022452,25.795540,113.010480,1
"4310812018B01184","aaec9c04-ba6a-413e-8acd-e59f2e419e36","湖南省","郴州市","资兴市","资兴市资兴大道旁移动公司院内",25.981874,113.242556,25.951350,113.223520,1
"4310002018B02110","d69094cd-e912-4b93-a2c8-aa05fe7c57cd","湖南省","郴州市","北湖区","郴州市惠泽路惠泽园一期地块二1栋203房",25.772806,113.005970,25.770550,112.993640,1
"4310232018B00643","6888b73e-432e-4bc2-8764-f5b43954f723","湖南省","郴州市","永兴县","永兴县便江镇人民路",26.127221,113.118476,26.120430,113.116896,1
"4310232012B00647","efb3ed35-e88c-474a-98be-b3abfaa93881","湖南省","郴州市","永兴县","永兴县开发区人民西路",26.131350,113.113724,26.132706,113.109784,1
"4310812014B00039","b2c50094-90fa-4f77-8fee-9a04780f2122","湖南省","郴州市","资兴市","资兴市东江街道办事处罗围村（食品工业园）",25.937544,113.242434,25.953360,113.253144,1
"4310282014B00589","475ba4b9-feda-49d2-86d9-e1890099b57a","湖南省","郴州市","安仁县","安仁县工业园区",26.715683,113.275424,26.711606,113.266584,1
"4310232016B00090","25e437e3-88fa-4d27-bbd0-1e91e299ddf7","湖南省","郴州市","永兴县","永兴县城关镇西正街",26.138683,113.116748,26.135880,113.104448,1
"4310002015A01705","df0c3156-08a9-4ab3-be5c-56ca772d7f8a","湖南省","郴州市","苏仙区","苏仙区良田镇陈家湾村",25.640428,113.009086,25.637624,112.999032,1
"4310002011B04630","4208fc5e-e373-4b3e-b342-c215716ffa3d","湖南省","郴州市","北湖区","郴州市骆仙西路6号",25.790110,113.015919,25.787000,113.003360,1
"4310812014B00380","49c57866-1a6b-4dc5-a17d-bbb10052a79e","湖南省","郴州市","资兴市","资兴市青腰镇青连路右",25.997011,113.583606,25.994650,113.571728,1
"4310222017B01410","0b1d2f10-35c5-4508-ada1-a159e9d9a804","湖南省","郴州市","宜章县","玉溪镇环城西路（国税局）",25.406586,112.948954,25.408738,112.909496,1
"4310812011B01364","518b9370-4f11-4b2f-8dea-4457842ff190","湖南省","郴州市","资兴市","资兴市东江沿江北路（“碧水云轩”项目东面）",25.941752,113.242072,25.938444,113.229672,1
"4310002011B03631","27c69c9d-ada1-4a9d-b40a-9d1d67a07409","湖南省","郴州市","北湖区","郴州市同心路16号",25.808793,113.028995,25.806220,113.016184,1
"4310002011B03723","64f7eafd-0531-4d66-a7b1-914c2eed430e","湖南省","郴州市","北湖区","郴州市同心路16号",25.808793,113.028995,25.806220,113.016184,1
"4310212014B04489","04691590-7228-428e-bfd2-550022525f26","湖南省","郴州市","桂阳县","桂阳县龙潭西路北侧（尾巴塘",25.755197,112.737509,25.832000,112.760112,1
"4310222014B02626-2","10c5704d-47df-4ce0-80c9-843897716a47","湖南省","郴州市","宜章县","宜章县县白石渡镇筑英水泥厂",25.404329,113.049464,25.405070,113.020720,1
"4310812016B02366","51c6c2ad-37d0-4ac9-bd8e-b2c7360b25e4","湖南省","郴州市","资兴市","资兴市三都镇三都村十二组",26.040142,113.269395,26.034740,113.268088,1
"4310812013B01329","50451a2d-5aac-457a-b0c7-51deef48f70b","湖南省","郴州市","资兴市","资兴市汉宁路东江师范院内",25.944345,113.273176,25.971142,113.221976,1
"4310812013B01288","26410837-0fe7-427f-96a7-78dcfb4832d6","湖南省","郴州市","资兴市","资兴市三都镇",26.020719,113.341314,26.033094,113.258976,1
"4310002014B00326","a646c810-0f40-4b3d-8fd0-a58d61c989f8","湖南省","郴州市","北湖区","郴州高新技术产业园",25.776683,113.021460,25.758620,112.997568,1
"4310222010B00126","f3b900fa-4c79-4c44-9a0f-b7dc4ed0b0b6","湖南省","郴州市","宜章县","瑶岗仙镇陈家村",25.634552,113.276822,25.223640,112.597096,1
"4310812016B02840","3fc4b828-2be4-4791-b34b-f5a493ad4b7e","湖南省","郴州市","资兴市","资兴市三都镇局本部3村18栋",26.020719,113.341314,26.034740,113.268088,1
"4310002012B04486","244c524b-8caa-4b7f-9a5b-3c3e89eb6253","湖南省","郴州市","北湖区","郴州市北湖区石盖塘镇万寿桥村",25.674513,113.016818,25.664288,112.998808,1
"4310232009B00825","caa4e377-be77-4752-bbe5-fb14db3e2d40","湖南省","郴州市","永兴县","马田镇寨下村",26.121196,112.951968,26.098922,112.941232,1
"4310002016B02016","6e616f54-1e43-48ec-bccb-b46850d1f41e","湖南省","郴州市","苏仙区","郴州高新技术产业园区东河西路",25.821472,113.151330,25.758620,112.997568,1
"4310812011B03288","dfaf9e86-23e0-4c64-90dd-813337622878","湖南省","郴州市","苏仙区","资兴市江北工业园西路与高码大道交汇处",25.962648,113.219146,26.023124,113.211984,1
"4310232011B00055-1","fae61df0-95aa-4885-abbf-a614def12735","湖南省","郴州市","永兴县","永兴县城关镇县正街",26.134183,113.116678,26.129670,113.106136,1
"4310812011B04057","3ef67f70-c372-474e-8465-50a763c3b3c1","湖南省","郴州市","资兴市","资兴市高码乡龙头村毛坪组",25.977617,113.232173,25.974416,113.213872,1
"4310212011B01060","577becb5-5c68-4e6d-aa4d-7139770ea360","湖南省","郴州市","桂阳县","城关镇北关街文化局围墙外西",25.759828,112.740080,25.682188,113.022792,1
"4310812014B03440","267178f4-a25c-45e9-82bf-24256a0d9ff1","湖南省","郴州市","资兴市","资兴市青腰镇老街",25.997011,113.583606,25.994650,113.571728,1
"4310812011B02137","4cb6e2cd-582c-47c3-b30f-742369cab846","湖南省","郴州市","资兴市","资兴市鲤鱼江镇东江南路（鲤鱼江工商所院内）",25.951164,113.239938,25.952728,113.224832,1
"4310812011B02166","12e5a7af-8c90-44ce-8ea0-0682978e4704","湖南省","郴州市","资兴市","资兴市唐洞煤矿6村15栋7号",25.978331,113.239234,25.979934,113.264104,1
"4310812011B02188","76278369-9a11-4298-82ee-48a9d6333c4f","湖南省","郴州市","资兴市","资兴市鲤鱼江镇大兴东路",25.950079,113.239430,25.949762,113.229256,1
"4310812011B02196","9e45a13b-b6aa-4397-886b-085c76bc6057","湖南省","郴州市","资兴市","资兴市东江南路",25.963283,113.238930,25.978154,113.225040,1
"4310222012B00157","f4c33a08-b2c2-4cc4-a22d-ddf7fc4d9e0d","湖南省","郴州市","宜章县","宜章县黄沙镇半干岭",25.133669,112.730351,25.151980,112.725632,1
"4310222010B00289-1","65c87128-f4bb-4bcc-8307-ce6daf87cfd4","湖南省","郴州市","桂阳县","城关镇茅栗坪村",25.756627,112.737488,25.774572,113.011104,1
"4310812010B00809","068e1967-8fe1-4c92-93cc-6894d1c76423","湖南省","郴州市","资兴市","资兴经济开发区沿江路",25.951868,113.262943,25.980160,113.225304,1
"4310222015B00910-1","5b8223e5-a77b-43c9-91f9-f5fcc5b5f753","湖南省","郴州市","宜章县","玉溪镇文明南路272号",25.407026,112.958742,25.398920,112.946000,1
"4310812014B03797","c20ab305-6e54-4d4d-a957-92d83bd99c9f","湖南省","郴州市","资兴市","资兴市东江街道水电路社区迎宾路南侧（粤兴汽配对面）",25.941097,113.263116,25.941722,113.249488,1
"4310812013B02576","3a34fdc3-a0af-4ee2-8d41-9d7ad3a6cefd","湖南省","郴州市","资兴市","资兴市新区晋宁路市场物资总公司院内",25.981643,113.243344,25.949690,113.228888,1
"4310222013B01876","8dd121b3-de65-4e6e-bab4-6b31adc86d5e","湖南省","郴州市","宜章县","杨梅山镇新建村",25.510938,113.122751,25.471974,113.116880,1
"4310272013B00765","38f733ad-6b8f-4e37-b1a3-f7daf0c00043","湖南省","郴州市","桂东县","桂东县新坊乡新坊村上中家组",25.946608,113.964204,25.943000,113.937112,1
"4310212016B00246","9be36562-23b5-450c-9a4d-af435fdfc871","湖南省","郴州市","桂阳县","桂阳县鹿峰街道宝山路16号",25.731281,112.730966,25.731860,112.726624,1
"4310812013B01158","25e747f5-299e-411d-997d-d81e009b88cd","湖南省","郴州市","资兴市","资兴市香花乡",26.016415,113.258682,26.012890,113.246144,1
"4310242013B00140","879c421f-21fe-4c90-b050-ec0d400d9b5d","湖南省","郴州市","嘉禾县","珠泉镇建设路2号",25.594161,112.373951,25.590470,112.363672,1
"4310812013B02716-1","911836ad-e63e-415b-aedd-f3e4b76ac605","湖南省","郴州市","资兴市","鲤鱼江大桥东侧2地块",25.940066,113.240170,25.774572,113.011104,1
"4310812013B02726-1","6e1eac6b-67cd-4a5e-9656-6a51406c3ef6","湖南省","郴州市","资兴市","鲤鱼江大桥东侧",25.940066,113.240152,25.774572,113.011104,1
"4310812016B03086","418f3e0e-a226-4404-97ae-7569f55a4c94","湖南省","郴州市","资兴市","资兴市兴华路唐洞矿15村3幢",25.978331,113.239234,25.979934,113.264104,1
"4310812012B04237","deb639da-a0bb-4732-846c-910b4b1afd9e","湖南省","郴州市","资兴市","资兴市兴华路（兴华市场）",25.979627,113.240831,25.978154,113.225040,1
"4310232012B00297","a7fa6956-2375-48e0-9b07-3ed39b33c82d","湖南省","郴州市","永兴县","永兴县建设路",26.132968,113.122533,26.132706,113.109784,1
"4310282012B00151","de5c58b8-07fb-4b9b-a7c0-310f3e374e24","湖南省","郴州市","安仁县","安仁县安仁大道",26.709987,113.263816,26.711606,113.266584,1
"4310282012B00161","7227e929-94c8-46eb-b4a1-1e98d0627c60","湖南省","郴州市","安仁县","安仁县城关镇八一中路",26.721670,113.277484,26.711606,113.266584,1
"4310002012B00549","95242c73-e837-48e0-84d5-3856fe7a5239","湖南省","郴州市","北湖区","郴州市北湖岭",25.790815,113.017482,25.774572,113.011104,1
"4310812013B03487","cdde2af6-c81a-4888-9bc7-04080bb7e894","湖南省","郴州市","苏仙区","资兴市江北工业园汉宁路西",25.962648,113.219146,25.971142,113.221976,1
"4310812018B00358","011fadcc-5f27-4b67-8fff-4264e01bec64","湖南省","郴州市","资兴市","资兴市资兴大道人民保险资兴支公司院内",25.981874,113.242556,25.968760,113.231912,1
"4310812018B00378","15ab8f54-5d21-4557-9f2c-419ae0f0a3eb","湖南省","郴州市","资兴市","资兴市鲤鱼江永丰路郴州冶炼厂内27栋",25.981874,113.242556,25.948520,113.227824,1
"4310212011B00342","8dd73076-21a3-4ce5-a972-c52598913a69","湖南省","郴州市","桂阳县","城关镇城城北北路24号",25.756627,112.737488,25.791320,113.020736,1
"4310212018B00030","92877929-8a9a-447e-b420-7b11fe9e7d37","湖南省","郴州市","桂阳县","桂阳县城关镇城南东路（现桂阳县鹿峰街道百花路工商局院内）",25.737224,112.745955,25.738650,112.740200,1
"4310252017B00782","ad8f5c6a-ee13-418b-b26e-be32c4335356","湖南省","郴州市","临武县","临武县舜峰镇文昌路",25.285574,112.565668,25.276410,112.553000,1
"4310812018A02236","a4cdf59f-d492-4caf-a9f3-f227c0dbc463","湖南省","郴州市","资兴市","资兴市东江街道办罗围安置区",25.933635,113.241014,25.931934,113.229536,1
"4310272017B00289","5887ac5d-7a26-4b95-ab6d-f96e7e3b6dbc","湖南省","郴州市","桂东县","桂东县沤江镇东华路",26.080465,113.953662,26.078720,113.941384,1
"4310222011B00547","1ce40809-7fd3-42ae-8c90-9b46432ce59d","湖南省","郴州市","宜章县","城关镇文明南路",25.386999,112.948970,25.384170,112.937768,1
"4310812011B02285","8603bc8b-56af-4be5-8c0b-bb05ae1bba0f","湖南省","郴州市","资兴市","资兴市东江迎宾路（市农科所办公楼）",25.944345,113.273176,25.972750,113.231904,1
"4310222014B03350","34b243c8-c055-4dbb-a5f6-d511f528b585","湖南省","郴州市","宜章县","玉溪镇宜章大道旁、曹排村地段",25.395157,112.947748,25.397076,112.952264,1
"4310222012B00632","210322c1-70c1-4c7d-aced-57def36252d0","湖南省","郴州市","宜章县","南京洞开发区邮政局院内",25.247742,112.817002,25.244338,112.805248,1
"4310212009B00266","62e00eb0-6985-4aff-9e0f-d5dc94835d55","湖南省","郴州市","桂阳县","桂阳县城关镇向阳路",25.740915,112.744261,25.773200,112.736864,1
"4310232012B00245","eb1d8cb6-13b2-43f3-bba0-3d9b60aa8a10","湖南省","郴州市","永兴县","永兴县城关镇城郊村幸福北路",26.142437,113.122797,26.134776,113.110880,1
"4310272009B00589","7614b8e8-aede-4dc8-b0f4-807a6293885f","湖南省","郴州市","桂东县","桂东县清泉镇泉江社区清泉墟",26.173772,114.198395,26.163850,114.177936,1
"4310252018B00131","b24d3639-b3e7-49b2-b9b8-1d107ff2fe1d","湖南省","郴州市","临武县","临武县舜峰镇文昌南路经管站院内",25.278643,112.564203,25.276346,112.552880,1
"4310252018B00766","e1f48100-9238-4334-b548-c2a13afcf250","湖南省","郴州市","临武县","临武县舜峰镇烟草公司",25.281404,112.565400,25.283030,112.561624,1
"4310242014B00455","074956ad-c142-4b0f-b965-0334b9c2bd75","湖南省","郴州市","嘉禾县","龙潭镇供销社",25.594107,112.501373,25.731220,112.728216,1
"4310212013B03416","c966325e-7c5a-4b7f-b74e-24ebfb0a90e7","湖南省","郴州市","桂阳县","桂阳县正和镇火田村",25.736481,112.783362,25.734540,112.772400,1
"4310812016B02759","ca42052d-cede-4acb-9438-6e9eba7db98d","湖南省","郴州市","资兴市","资兴市鲤鱼江凤凰路东江水泥厂18栋",25.960549,113.249915,25.948520,113.227824,1
"4310002018B03607","71a0eda5-3e38-444d-991f-c1a25229cde4","湖南省","郴州市","北湖区","郴州市南街68号北湖区调味食品公司604房",25.814958,113.033842,25.791462,113.030672,1
"4310812014B04468","c2a2c334-4c16-48b8-ac30-611ad7d4ecbb","湖南省","郴州市","资兴市","资兴市东江镇秀水路制药厂1栋601",25.956404,113.265165,25.953360,113.253416,1
"4310812016B02766","be3f17c5-257e-4b27-94de-f177a5ba1411","湖南省","郴州市","资兴市","资兴市新区大全路腾达住宅小区2栋",25.982147,113.247539,25.979268,113.235352,1
"4310212018B00251","6af365cf-a39d-4924-a0ca-04158ff51bc4","湖南省","郴州市","桂阳县","桂阳县鹿峰街道蔡伦路国土大厦",25.746959,112.738660,25.731860,112.726624,1
"4310002018B01169","c67be51b-3800-490f-abfc-17704479070c","湖南省","郴州市","北湖区","郴州市东风路中烟三里田家属区6栋",25.797075,113.029682,25.787618,113.021040,1
"4310812012B00050","747d4866-8a1d-48c8-9395-103d94297d2e","湖南省","郴州市","资兴市","资兴市区阳安路与高码大道交汇处",25.978044,113.231643,25.975760,113.235576,1
"4310812018B02056","2640a96b-5824-41f2-b9c9-2344d7ec39e0","湖南省","郴州市","资兴市","资兴市三都镇局本部7村23栋",26.020719,113.341314,26.034740,113.268088,1
"4310002010B01866","3fdc1c0a-1061-467c-a124-16b9e67e7ac1","湖南省","郴州市","北湖区","郴州市北湖路西侧",25.804900,113.040075,25.774572,113.011104,1
"4310222016B01099","30d5317e-0aee-4598-9277-b4e28bd5a1b4","湖南省","郴州市","宜章县","玉溪镇民主西路二期以北（东门村、西门村）地段",25.407880,112.955689,25.403990,112.946600,1
"4310272011B00587","8e6affe9-c3ab-4268-8656-6b296169dbaa","湖南省","郴州市","桂东县","桂东县沙田镇万寿宫社区居委会沙田墟",25.870778,113.828764,26.078404,113.933592,1
"4310232018B00151","985fb11c-f37b-4b81-ad7f-22626c4b03cd","湖南省","郴州市","永兴县","永兴县柏林工业园柏洞大道",26.132968,113.122533,26.048420,113.029240,1
"4310212014B03475","401a9f63-7d2e-4141-b3ad-422094e62927","湖南省","郴州市","桂阳县","桂阳县鹿峰街道欧阳海大道（县公安局对面）",25.749781,112.741971,25.731860,112.726624,1
"4310002011B00086","c6e489ca-fcdd-414a-ae1e-b1560e27034d","湖南省","郴州市","苏仙区","郴州市苏仙区栖风渡镇红枫大道",25.801462,113.048391,25.988734,113.013544,1
"4310002011B00094","1d0a5119-718b-42aa-a31a-8f0232021b21","湖南省","郴州市","苏仙区","郴州市苏仙区栖凤渡镇红枫大道",25.985485,112.991082,25.982530,113.006760,1
"4310272012B00257","8641a743-e2b5-4cf5-8395-a716b4076f94","湖南省","郴州市","桂东县","桂东县沤江镇草堂村、茅柳村",26.088678,113.968746,26.080516,113.949400,1
"4310002009B00137","3c1ae8b0-e91a-4099-a59b-de54bdb2afac","湖南省","郴州市","苏仙区","郴州市上白水村",25.789116,113.101999,25.788400,113.089784,1
"4310212011B00739","217830a5-5dda-477c-9df2-b816ea7cc95d","湖南省","郴州市","桂阳县","桂阳县城关镇金叶路A栋",25.715637,112.739792,25.719174,112.731720,1
"4310222009B00018","ccf4434a-83de-4655-be10-c4f158ee4c5a","湖南省","郴州市","宜章县","宜章县城关镇城北路",25.408376,112.969289,25.393948,112.949968,1
"4310252017B00536","a4838bea-8058-4bd8-b615-0e68b139f802","湖南省","郴州市","临武县","临武县舜峰镇和平路老计生委",25.280583,112.564651,25.284580,112.550496,1
"4310212010B00926","42fb183f-7b70-47d1-a0b6-5187e50e27ae","湖南省","郴州市","嘉禾县","桂阳县城关镇跃进街38号",25.502226,112.406771,25.773200,112.736864,1
"4310812016B02920","da5f8b2f-4c96-47d6-ac50-7fd2ba098998","湖南省","郴州市","资兴市","资兴市晋宁路建设局旁",25.981643,113.243344,25.978154,113.225040,1
"4310812016B02881","f234517a-3649-4f56-8abd-990a923e2fb7","湖南省","郴州市","资兴市","资兴市晋宁路建设局旁",25.981643,113.243344,25.978154,113.225040,1
"4310812016B00724","b81c6362-f2db-4a8c-b08c-b603a3ff57c5","湖南省","郴州市","资兴市","资兴市唐洞街道龙头社区汉宁路旁",25.973888,113.246271,25.975906,113.226136,1
"4310212016B00844","c606c5ad-6829-4e10-829e-152882ab798a","湖南省","郴州市","桂阳县","桂阳县鹿峰街道城南中路30号",25.733944,112.739747,25.731860,112.726624,1
"4310222013B02045","bcd742cb-9125-4afb-993d-e7de6e6bc9b5","湖南省","郴州市","宜章县","玉溪镇东长街",25.406910,112.958441,25.408738,112.909496,1
"4310212014B05352","2fbb426e-6c37-4eb4-9234-e6362fdd73ab","湖南省","郴州市","桂阳县","桂阳县鹿峰街道财神庙一村",25.730286,112.728600,25.731860,112.726624,1
"4310212013B02740","6bb068f2-6398-4a7a-9b5d-f8244ce5d3b6","湖南省","郴州市","桂阳县","桂阳县鹿峰街道城南中路31号",25.733944,112.739747,25.731860,112.726624,1
"4310212013B02710","75552e8b-355c-410d-9207-c3cbba801bb5","湖南省","郴州市","桂阳县","桂阳县龙潭街道学仕路",25.759775,112.740560,25.752192,112.721184,1
"4310252016B00030","bffd3fe2-c11d-4ce2-9619-021aa5deaa19","湖南省","郴州市","临武县","临武县舜峰镇原农机一厂",25.282527,112.570411,25.276010,112.543344,1
"4310212013B02505","a9d2d938-4b47-47aa-9cae-ae744a69675c","湖南省","郴州市","桂阳县","桂阳县环城西渠旁（二三八队斜对面）",25.759775,112.740560,25.773200,112.736864,1
"4310272012B00237","b27bf7f8-5258-48ae-a5f3-52b8f3edc47b","湖南省","郴州市","桂东县","桂东县城关镇茅柳村、草堂村",26.083336,113.961085,26.080516,113.949400,1
"4310002010B01546","a4e51b30-5dda-45bb-8507-bc6ee617fe29","湖南省","郴州市","北湖区","郴州市北湖路西侧",25.804900,113.040075,25.774572,113.011104,1
"4310002014B00352","6718d201-5a49-4371-8a2c-d8ec62ad213d","湖南省","郴州市","苏仙区","郴州高新技术产业园东河西路",25.821472,113.151330,25.758620,112.997568,1
"4310212016B01120","8d71a856-66f9-471c-8e15-1e05d9b7ccaf","湖南省","郴州市","桂阳县","桂阳县鹿峰街道蔡伦中路（建设银行对面）",25.742931,112.738613,25.741192,112.726832,1
"4310212016B01089","94fb1ae5-86d9-4d12-887a-65a46c6005b4","湖南省","郴州市","桂阳县","桂阳县莲塘镇光明村",26.143556,112.455512,26.141624,112.443992,1
"4310212016B00946","b696fefb-d1e6-4f69-abe8-13225a3fa1de","湖南省","郴州市","桂阳县","桂阳县舂凌江镇（原古楼乡）古楼村",25.866056,112.444703,25.860898,112.432840,1
"4310002012B04269","864a4c88-fba9-4035-a4b8-a9ae546e7cd2","湖南省","郴州市","苏仙区","郴州市曹家坪路",25.792815,113.051252,25.789226,113.043208,1
"4310002008B00567","4acfad7f-5dc0-41b3-94ca-deca3caaf768","湖南省","郴州市","苏仙区","郴州市栏杆塘43号",25.798862,113.047385,25.795620,113.034752,1
"4310812011B02736","63ec988d-15f7-4e83-b15d-7133a0fb6c67","湖南省","郴州市","资兴市","郴资桂高等级公路旁（罗围食品工业园",25.928870,113.236897,25.802540,113.013808,1
"4310002012B04048","a9648057-0c1d-40c0-bd8e-c7db09c58a7c","湖南省","郴州市","桂阳县","市廖家湾",26.008501,112.396190,25.560220,112.992504,1
"4310212011B00180","763c536c-0cf2-4b43-accc-ba5a70d3cbea","湖南省","郴州市","桂阳县","城关镇蔡伦北路",25.753907,112.732519,25.752640,112.718952,1
"4310222010B01581","b1b0f70a-6989-4ad2-b8ca-661f7f17178f","湖南省","郴州市","宜章县","黄沙镇黄太公路旁",25.133669,112.730351,25.774572,113.011104,1
"4310272009B00125","212da08c-3bb6-48ee-bff8-bd11c614d15b","湖南省","郴州市","桂东县","桂东县城关镇西街200号",26.083174,113.951594,26.082590,113.942496,1
"4310002011B02046","124d98cf-4f1d-4964-b84d-cd8de31c577b","湖南省","郴州市","北湖区","郴州市柏树路",25.758858,113.011976,25.756852,112.998680,1
"4310282014B00614","21931de5-6979-4bf3-a0bd-9fd6daf58989","湖南省","郴州市","安仁县","安仁县工业园区",26.715683,113.275424,26.711606,113.266584,1
"4310812018B01487","4a79b5e5-386a-4f60-810d-77e039105525","湖南省","郴州市","资兴市","资兴市东江街道罗围社区毛坪组依波茵商业街",25.939037,113.243979,25.928150,113.226632,1
"4310812018B01574","e232bf38-ac38-4b66-b2dc-c7d8d61cab64","湖南省","郴州市","资兴市","资兴市晋宁路市民政局院内",25.981643,113.243344,25.978720,113.223896,1
"4310232014B01497","54453ae0-be62-4a14-9e10-a286472048b1","湖南省","郴州市","永兴县","永兴县滨河路",26.127531,113.131124,26.405722,113.303376,1
"4310272011B00075","7b367ef8-7441-4aa3-a3db-3118f3071711","湖南省","郴州市","桂东县","桂东县沙田镇东平路",25.870778,113.828764,25.846850,113.820096,1
"4310222013B01009","c95f8faf-1913-458d-9eb3-3d2489950489","湖南省","郴州市","宜章县","玉溪镇民主西路17号",25.406895,112.954924,25.408738,112.909496,1
"4310232010B00219","d7121adb-c313-4611-9fd3-6a3020201b2a","湖南省","郴州市","永兴县","城关镇铜角湾村",26.142627,113.092269,26.139940,113.080016,1
"4310232010B00129","d8bf0bf2-5e3b-428e-9790-ae8663905248","湖南省","郴州市","永兴县","塘门口镇塘市村",26.195131,113.056161,26.191698,113.046376,1
"4310002010B00520","8cc9b938-9acc-4b8c-916a-9a7bf46de1e6","湖南省","郴州市","北湖区","郴州市中山北街",25.798474,113.043706,25.795908,113.031840,1
"4310212010B01145","47467258-6937-4b19-89d7-023376c82a2d","湖南省","郴州市","桂阳县","桂阳县城关镇园艺东路南侧第二排",25.756627,112.737488,25.773200,112.736864,1
"4310002010B02500-1","473c9e75-98cb-4176-a585-e23225e90b13","湖南省","郴州市","北湖区","桂门岭",25.821826,113.033364,25.818592,113.021176,1
"4310232010B01387","4a2402c5-3159-436a-aca1-6572e6ff3eeb","湖南省","郴州市","永兴县","永兴县柏林镇老汽车站",26.377133,113.318990,26.342370,113.278128,1
"4310232010B01237","34357787-5f3d-42c5-a988-da2dddcc55df","湖南省","郴州市","永兴县","永兴县柏林镇柏林村",26.350965,113.289437,26.343230,113.277664,1
"4310212017B01195","e641dee2-d9ae-4975-8bff-97c4e09f3476","湖南省","郴州市","桂阳县","桂阳县鹿峰街道鹿峰路（现百花路） ",25.755694,112.748137,25.731860,112.726624,1
"4310252014B00538","264782c8-b196-4df2-8861-6ce2de212217","湖南省","郴州市","临武县","临武县舜峰镇城东小区国税局",25.281404,112.565400,25.284580,112.550496,1
"4310272018B00084","a051ae89-dcc1-42fd-9782-383a74338527","湖南省","郴州市","桂东县","桂东县沙田镇水庄村黄泥垅（高速收费站旁边）",25.870163,113.832290,25.846850,113.820096,1
"4310282011B00300","cf841a85-0fb7-48ab-88cf-1becac4e145e","湖南省","郴州市","安仁县","安仁县关王镇水口山",26.434909,113.499567,26.432196,113.487464,1
"4310812013B02666-1","711d168a-6714-484b-a41f-e41b713ab882","湖南省","郴州市","北湖区","小东江新大桥以东",25.776683,113.021460,25.940284,113.261032,1
"4310232018B00246","38d5fa4b-3933-421a-8481-be079b79a826","湖南省","郴州市","永兴县","永兴县柏林工业园内生态路",26.132968,113.122533,26.136810,113.103264,1
"4310002016B03546","6ea93a3f-a998-4871-99d5-da40e1edf303","湖南省","郴州市","北湖区","郴州市开发区涌泉小区",25.770351,113.013853,25.769478,113.004216,1
"4310002016B03602","7f82ba8b-058c-4a1b-8522-689de635fc3f","湖南省","郴州市","北湖区","郴州市开发区涌泉小区",25.770351,113.013853,25.769478,113.004216,1
"4310212014B05078","d4197899-3e6e-425e-9988-dd9b9807ab2e","湖南省","郴州市","桂阳县","桂阳县龙潭街道五云观社区（宝岭旁边）",25.751922,112.735577,25.760000,112.722024,1
"4310212014B05085","debc9485-791b-4583-873e-63ec29fd6463","湖南省","郴州市","桂阳县","桂阳县北关社区（原县农业机械厂院内）",25.759775,112.740560,25.766832,112.722096,1
"4310002017B01826","6249a3a1-e564-4219-93c7-28c3b543c027","湖南省","郴州市","北湖区","北湖区七里大道76号",25.781926,113.017021,25.778500,113.005184,1
"4310232016B00466","1eb270a9-9cb1-46d2-92bb-fb0cef8dbf71","湖南省","郴州市","永兴县","永兴县便江镇滨河路18号",26.128716,113.126140,26.093506,113.088576,1
"4310812014B04235","176b7799-d70b-46f1-9c7e-1a2c797936bd","湖南省","郴州市","永兴县","资兴市东江门楼景区停车场",26.257716,113.172776,25.972750,113.231904,1
"4310002016B03707","bf95c94e-ae97-4e44-8752-29b01756de6c","湖南省","郴州市","北湖区","郴州市开发区涌泉小区",25.770351,113.013853,25.769478,113.004216,1
"4310812017A06096","dcdd4589-6811-467f-95ea-05f8c4042177","湖南省","郴州市","资兴市","资兴市东江街道罗围社区依波茵商业街",25.939037,113.243979,25.928150,113.226632,1
"4310252018B00849","ea565cee-ad6b-41c4-81db-d3a2856b776d","湖南省","郴州市","临武县","临武县舜峰镇解放南路电力小区",25.282362,112.570104,25.273180,112.549944,1
"4310222013B01685","a21ab254-7c46-4219-a818-1f9954f7b4b8","湖南省","郴州市","宜章县","玉溪镇民主西路玉溪街1号",25.407171,112.953287,25.410218,112.935576,1
"4310812015B02142","f5d76365-7075-45f6-bea4-b18d9b3975eb","湖南省","郴州市","资兴市","资兴市新区大全路地税局院内",25.982147,113.247539,25.979268,113.235352,1
"4310242017B00230-2","221c3d5e-c5dd-48b6-987f-ec05ec672b85","湖南省","郴州市","嘉禾县","嘉禾县珠泉镇珠泉东路",25.592370,112.381353,25.585100,112.364376,1
"4310262017B00226","3cd6f0b0-33da-4521-847b-d8175fffac9e","湖南省","郴州市","汝城县","汝城县卢阳镇益耕路北侧、九龙大道西侧",25.538666,113.703391,25.553354,113.689512,1
"4310002017B01944","9c4a67cf-6e50-4cd0-8467-6e2c7a5743af","湖南省","郴州市","北湖区","涌泉小区",25.770351,113.013853,25.769478,113.004216,1
"4310222010B01175","259371c2-1c1b-4e9a-8efb-07072202bbe9","湖南省","郴州市","宜章县","城关镇文明北路（工商局院内）",25.416952,112.965525,25.416246,112.955456,1
"4310212009B00352","1a28a122-25de-4852-a9c3-4a20fb65c956","湖南省","郴州市","桂阳县","桂阳县宝山铅锌银矿",25.759775,112.740560,25.665206,112.688384,1
"4310222008B01102","d344207a-0991-443a-b298-bd2dbe3866cb","湖南省","郴州市","桂阳县","城关镇虹桥",25.756627,112.737488,26.320978,113.279560,1
"4310812010B00910","31d81c42-f475-4ae4-aa5c-b92857e5b957","湖南省","郴州市","资兴市","资兴经济开发区水电路(东江基地院内)",25.944345,113.273176,25.936328,113.260000,1
"4310212017B01166","cbea9829-e703-4abb-a872-7b5f9dae78d8","湖南省","郴州市","桂阳县","桂阳县龙潭街道园艺路12号（现园艺路15号）",25.750409,112.739002,25.771972,112.736216,1
"4310212017B01134","0b3aaeb7-9cb9-4eaf-aa75-d07cc076ad12","湖南省","郴州市","桂阳县","桂阳县鹿峰街道向阳路老检察院",25.740915,112.744261,25.731860,112.726624,1
"4310002018B02035","b190469c-6d3d-47c3-be28-15b2ce08a715","湖南省","郴州市","北湖区","郴州市五岭阁公园茶缘路北侧",25.771305,113.022106,25.766476,113.019448,1
"4310812010B01485","e133224d-1475-4ba5-b06d-23de1632af56","湖南省","郴州市","资兴市","资兴市区东江南路旁",25.963283,113.238930,25.950088,113.226432,1
"4310262010B00308","fb8d0799-a304-4785-82f2-04f511eb5f82","湖南省","郴州市","汝城县","濠头乡等10个村11个组",25.699271,113.848362,25.719080,113.811896,1
"4310272010B00263","87d99361-a2a5-44f9-886e-7a6bdec29b9e","湖南省","郴州市","桂东县","桂东县城关镇湘赣路",26.081431,113.956092,26.082590,113.942496,1
"4310222010B00076","83ab73b1-a40c-4ae4-a77f-a1b5bf2af63f","湖南省","郴州市","汝城县","城关镇环城北路",25.562100,113.691877,25.559106,113.678712,1
"4310812014B03196-1","05cb005c-cb3a-4c7a-9ae2-8a72f36ac19a","湖南省","郴州市","资兴市","资兴市鲤鱼江镇民生路旁",25.948961,113.236745,25.978154,113.225040,1
"4310222009B00476","eaf06dba-7b92-4ba6-abc6-3378fbce4d70","湖南省","郴州市","宜章县","杨梅山镇跃进村",25.510938,113.122751,25.471974,113.116880,1
"4310232013B00430","c3e088ab-1d2d-4e34-a9cc-312c21ba601d","湖南省","郴州市","永兴县","永兴县国家循环经济示范园",26.089294,113.094077,26.136810,113.103264,1
"4310212014B04497","e130aea4-e569-4ceb-8152-13cf5366217f","湖南省","郴州市","桂阳县","桂阳县正和镇解放村（县污水处里厂旁）",25.707587,112.753410,25.661720,112.667504,1
"4310812011B04146","2a2a870c-6994-48fa-b974-edd010656180","湖南省","郴州市","资兴市","资兴市大全北路（腾达小区乡干楼）",25.983192,113.247269,25.980520,113.235200,1
"4310252014B00839","a9d0127c-96c4-4582-95ba-62a827e24353","湖南省","郴州市","临武县","临武县万水乡林里村",25.457030,112.453049,25.449126,112.433368,1
"4310212017B01486","f4db91ce-c238-4fd1-a50b-bbb9c245f3dd","湖南省","郴州市","桂阳县","桂阳县工业园芙蓉项目区",25.695541,112.737568,25.589948,112.811368,1
"4310222014B03286","d2b05eaa-3a1b-48c5-ad2a-330f85a84dba","湖南省","郴州市","宜章县","宜章县经济开发区产业承接园",25.405714,112.955479,25.396288,112.937592,1
"4310212018B00869","f27d681a-1ee0-4254-9fa7-1bd16b941e34","湖南省","郴州市","桂阳县","桂阳县龙潭街道龙潭西路旁",25.755197,112.737509,25.754526,112.727808,1
"4310232018B00880","f96842bd-df8c-49a9-ba27-37c1d909a0a2","湖南省","郴州市","永兴县","永兴县便江镇永兴大道",26.118237,113.117963,26.093506,113.088576,1
"4310212011B00857","6d6089ad-88ab-4cbd-9a5f-cb431f9c339d","湖南省","郴州市","桂阳县","桂阳县城关镇环城西路财神庙",25.756627,112.737488,25.753898,112.725624,1
"4310002011B03580","11b6ad05-d3cc-44b5-964e-1d51bbe4d1f8","湖南省","郴州市","宜章县","郴州市开发区107国道东侧",25.083478,112.717228,25.753500,112.991176,1
"4310812018A02205","f61a4dca-e5d5-4d35-a23d-4e007d8f59b4","湖南省","郴州市","资兴市","资兴市矿工南路旁",25.980767,113.257381,25.970590,113.241096,1
"4310812018B02024","e2c0de35-0cfe-4cea-b470-3ce4a964a499","湖南省","郴州市","资兴市","资兴市晋宁路（林业局院内）",25.981643,113.243344,25.978154,113.225040,1
"4310232015B00385","c86823b4-f3f8-4934-94dd-03f910adfef5","湖南省","郴州市","永兴县","永兴县太和镇",26.273071,113.256364,26.292616,113.266896,1
"4310222015B00880","a649aae2-0f6f-479b-a201-fc2ca4edd084","湖南省","郴州市","宜章县","玉溪镇文明北路39号704房号",25.414950,112.964507,25.408738,112.909496,1
"4310232015B00339","26699105-79be-4ebd-afae-0557ed1cb38f","湖南省","郴州市","永兴县","永兴县太和镇",26.273071,113.256364,26.292616,113.266896,1
"4310232015B00410","30dd6347-388d-40ef-adab-769e040b083e","湖南省","郴州市","永兴县","永兴县太和镇",26.273071,113.256364,26.292616,113.266896,1
"4310212011B00379","43e7eedc-7b4b-428d-89c5-001e95ac9a42","湖南省","郴州市","桂阳县","城关镇城欧阳海大道第二排塘神村人心岭",25.749781,112.741971,25.747710,112.729632,1
"4310232018B00848","e551a4c7-b47d-4c3c-9c93-76606029b25c","湖南省","郴州市","永兴县","永兴县便江镇县正街",26.134183,113.116678,26.129670,113.106136,1
"4310812012B05031","0124e971-f29c-4361-8f4b-b4e5ebbb0e64","湖南省","郴州市","资兴市","资兴市东江大桥匝道",25.944345,113.273176,25.941564,113.258248,1
"4310002012B04706","7553b139-bdbe-411d-b35e-8b5583d41dcb","湖南省","郴州市","北湖区","郴州市开发区冲口路南侧",25.763839,113.019422,25.774572,113.011104,1
"4310002012B04757","a0784aa5-6222-422e-9d93-d9ab952be1f9","湖南省","郴州市","北湖区","郴州市开发区冲口路南侧",25.763839,113.019422,25.774572,113.011104,1
"4310002012B04697","7ea1e9b8-6481-49f8-b154-18c76ff9b884","湖南省","郴州市","北湖区","郴州市开发区冲口路南侧",25.763839,113.019422,25.774572,113.011104,1
"4310212010B01125","d8671223-43e7-4c02-991a-8da87b101925","湖南省","郴州市","桂阳县","桂阳县黄沙坪镇",25.678130,112.708210,25.668910,112.691360,1
"4310002009B00237","201cf24b-55d8-4bf0-ba4a-fc0307d85c4b","湖南省","郴州市","北湖区","郴州市工业大道",25.829995,113.025070,25.974442,113.057256,1
"4310212014B03429","5d566f64-8c19-448d-8670-dc659b138118","湖南省","郴州市","桂阳县","桂阳县宝蓝路旁",25.759775,112.740560,25.759390,112.730224,1
"4310002014B00028","5bd25edd-774d-43bd-bde7-8d602a8a7efe","湖南省","郴州市","北湖区","骆仙街道办事处同心桥村同心组",25.817303,113.031526,25.812614,113.019976,1
"4310282014B00737-1","68df7d23-3852-4c6b-85b0-0730ce859c92","湖南省","郴州市","安仁县","安仁县五一北路",26.730489,113.273399,26.711606,113.266584,1
"4310812014B00752","78664f00-de07-4bb3-926d-d1624a077c69","湖南省","郴州市","资兴市","资兴市青腰镇老农贸市场",25.997011,113.583606,25.994650,113.571728,1
"4310812014B04507","93ac4441-61b7-4040-a4b3-a0379fc121d9","湖南省","郴州市","资兴市","资兴市东江大道迎宾花园伴山区B-6栋",25.939622,113.264567,25.669406,113.511624,1
"4310812014B04449","fd99085a-5ac8-4f72-846e-30d78734eb06","湖南省","郴州市","资兴市","资兴市新区矿工南路鲤鱼江煤矿院内7栋101",25.980767,113.257381,25.948520,113.227824,1
"4310212010B00947","ebfdaeb9-eda2-4f5c-b823-03f54bcec030","湖南省","郴州市","桂阳县","桂阳县城关镇向阳路（原县老检察院内）",25.740915,112.744261,25.746390,112.732848,1
"4310222018B00179","772ad881-acd1-48ad-9c5e-315e4c8c3ab7","湖南省","郴州市","宜章县","玉溪镇中夏街（县水利局）",25.414024,112.938980,25.410042,112.950656,1
"4310282018B00036","5a0cc0c5-424e-452f-84fd-61cd8fd0b4e4","湖南省","郴州市","安仁县","安仁县永乐江镇种畜场",26.703078,113.278011,26.712874,113.266608,1
"4310242018B00359","96bec09a-3ff6-472e-bb53-c6dcb63ac932","湖南省","郴州市","嘉禾县","坦塘工业园",25.631187,112.362990,25.648600,112.361976,1
"4310232010B01406","a88b8394-629f-45c9-b616-fd6c7aa4aa96","湖南省","郴州市","永兴县","永兴县城关镇内环路",26.137075,113.127108,26.134348,113.114544,1
"4310812018B01847","cd3d3020-3c07-4222-9fca-491fa116c0f6","湖南省","郴州市","资兴市","资兴市东江中路运管所院内",25.979156,113.244144,25.973740,113.232520,1
"4310222018B00814","51fc2951-76cf-48a5-bd58-fc7297dc07d4","湖南省","郴州市","宜章县","玉溪镇民主西路（农机局）",25.407880,112.955689,25.410218,112.935576,1
"4310242018A00551","e1ebb67a-dc9b-4eac-ba70-c5ae2dd8240b","湖南省","郴州市","嘉禾县","珠泉镇",25.614895,112.390774,25.590470,112.363672,1
"4310212018B00749","d0b73992-0908-404a-b7ff-d09bc9b3f475","湖南省","郴州市","桂阳县","桂阳县龙潭街道龙潭西路旁",25.755197,112.737509,25.754526,112.727808,1
"4310222015B01090","ad3f487d-9e65-4d9c-9216-87c9e839af3f","湖南省","郴州市","宜章县","五岭乡太平里村",25.509602,113.043043,25.496690,113.029856,1
"4310212014B03500","7009f7cd-d1af-42d5-8a64-f7122ac954ba","湖南省","郴州市","桂阳县","桂阳县龙潭街道文化路（宝蓝路）旁",25.762108,112.742191,25.759260,112.729640,1
"4310282010B00073-1","97da5fc0-aa7d-45e7-8e54-59be7eec8b71","湖南省","郴州市","安仁县","安仁县城关镇八一路",26.721670,113.277484,26.711606,113.266584,1
"4310252013B00086","ade9357d-ac19-4d05-b935-0683d692e878","湖南省","郴州市","临武县","临武县省道324线武水镇双塘村段",25.306548,112.607826,25.308032,112.603592,1
"4310232011B01296","bb816157-2a7d-45d2-9229-9eb0ed104ecc","湖南省","郴州市","永兴县","永兴县永湘路",26.140174,113.116657,26.136974,113.104768,1
"4310812012B04244","1c83bae2-0cef-442f-93fa-97805cc72e30","湖南省","郴州市","资兴市","资兴市兴宁镇正壕街",25.987952,113.443162,25.969920,113.402976,1
"4310212012B01160","c542498c-7469-413c-a2b8-cbba798d3e7e","湖南省","郴州市","桂阳县","桂阳县城关镇欧阳海大道公安局对面",25.749781,112.741971,25.742390,112.734840,1
"4310002011B03987","da456afa-9868-42e2-9251-9bc7c2e67144","湖南省","郴州市","苏仙区","白鹿洞镇四普庄二组",25.818589,113.044411,25.821826,113.032208,1
"4310232014B01597-1","38e9b78c-ca7f-4363-bcb6-b2f98030d503","湖南省","郴州市","永兴县","永兴县便江镇水南村",26.128899,113.114993,26.120596,113.122464,1
"4310222012B01684","4a0a3082-c2ea-4143-874d-228d149e43af","湖南省","郴州市","宜章县","宜章经济开发区产业承接园",25.405714,112.955479,25.404770,112.944968,1
"4310222010B01360","2e441f83-c737-4c3f-833f-c60f3c9daa09","湖南省","郴州市","宜章县","城关镇民主西路10号",25.407304,112.957031,25.774572,113.011104,1
"4310002014B00649","5d449916-0cab-4d9d-a846-d3d552e6fed1","湖南省","郴州市","北湖区","郴州市园泉路",25.776683,113.021460,25.747320,113.031184,1
"4310252014B00566","cb54f983-2899-42f7-b6ec-9d1b26a96eb2","湖南省","郴州市","临武县","临武县舜峰镇广播电视局",25.284347,112.560803,25.276010,112.543344,1
"4310002018B01565","ead1f334-1fd3-4058-bc98-820002227fa1","湖南省","郴州市","北湖区","香花路",25.793433,113.036650,25.777532,113.023632,1
"4310282012B00621","5061aaed-e228-41e7-8016-beb91a968e27","湖南省","郴州市","安仁县","安仁县工业园区",26.715683,113.275424,26.711606,113.266584,1
"4310282012B00651","c9864e92-2fd2-4978-b32b-e0d3aa13320f","湖南省","郴州市","安仁县","安仁县工业园区",26.715683,113.275424,26.711606,113.266584,1
"4310002008B00093","c0ee8562-2336-4dbc-9139-c3c81ed26b82","湖南省","郴州市","北湖区","市燕泉路1号",25.797474,113.039279,25.793850,113.028240,1
"4310812012B04630","02291917-b0c7-4e0e-acab-7713ba0a44f5","湖南省","郴州市","资兴市","资兴市晋宁路（园林管理处院内）",25.981643,113.243344,25.967800,113.403384,1
"4310272009B00602","7c0c57ad-e5ed-474f-a682-f5edf133b82e","湖南省","郴州市","桂东县","桂东县城关镇汝桂路59号",26.077576,113.952778,26.082590,113.942496,1
"4310812011B03474","2499110d-67eb-4d47-aa4e-6eee06e4b5a6","湖南省","郴州市","资兴市","资兴市东江迎宾路南侧",25.944345,113.273176,25.978154,113.225040,1
