electr_supervise_no,id,province,city,district,location,bd_lat,bd_lon,tdt_lat,tdt_lon,status
1101002012B17655,07d172f6-1adb-428e-b89d-3dae678f4972,北京市,北京市,房山区,房山区窦店镇亚新路17号,39.679675,116.124324,39.6503,116.06176,1
1101002013B03863,4ab45ec8-4cd7-4021-a26f-9fd006321163,北京市,北京市,东城区,东城区寿比胡同1号3号,39.946364,116.414339,39.89856,116.41916,1
1101002013B03875,fed7023e-695f-4d07-a62f-38586ab7005c,北京市,北京市,通州区,北京市通州区运河核心区III-10地块F3其它类多功能用地,39.916017,116.663415,39.89992,116.682184,1
1101002013B04333,8b28ca20-59f0-44ac-9de4-84522af0cbe9,北京市,北京市,海淀区,海淀区苏家坨镇北清路,40.088265,116.189529,40.086488,116.268936,1
1101002015B00034,7ccb440f-3a28-4eb9-9022-6169853bd8dc,北京市,北京市,门头沟区,门头沟区龙泉镇高家园地区(2号地)MC10-021地块,39.937597,116.107064,39.929728,116.088496,1
1101152010B00076,a4cf63c8-6f65-4181-b632-fe2d409dfd5f,北京市,北京市,大兴区,大兴区安定镇,39.626883,116.514228,39.6165,116.493552,1
1101002013B03178,15556106-70ba-41e4-b787-512cf9ce8e9f,北京市,北京市,门头沟区,门头沟区新桥南大街62号,39.932016,116.117814,39.9249,116.104696,1
1101002013B04191,7a151caa-ba79-4e96-a76b-11ccb83c7485,北京市,北京市,丰台区,丰台区南苑乡新宫新村一期,39.823778,116.367656,39.814976,116.362352,1
1101002013B04174,c86483ad-6e30-48ec-b6c2-c8605cebb607,北京市,北京市,朝阳区,朝阳区新源西里111号,39.953822,116.45573,39.94656,116.440744,1
1101002014B00479,090165d3-944e-42ef-8d21-0862594267ba,北京市,北京市,朝阳区,北京市朝阳区东坝单店二类居住 小学用地项目,39.966161,116.543765,39.86036,116.468096,1
1101002014B00487,7e29ced2-75c3-4e4d-8a46-3ed43f578ef2,北京市,北京市,丰台区,北京市丰台区南苑乡石榴庄村旧村改造项目,39.850446,116.429532,39.84292,116.41684,1
1101002014B00050,5ee87d62-f24b-4099-be69-97e995f53d3a,北京市,北京市,房山区,房山区城关街道农林路3号,39.69309,115.990558,39.6864,115.978072,1
1101002008B04300,0c1ca002-8cf4-421b-acc4-8015cde97b26,北京市,北京市,顺义区,顺义区顺通路东侧,40.121222,116.665936,40.09836,116.656464,1
1101112009B00110,b5c6db78-db92-4c60-8459-6cee1a62f889CC,北京市,北京市,房山区,房山区拱辰街道广阳西路北侧,39.76335,116.153614,39.756016,116.146784,1
1101002013B01198,cb0a2152-0d57-46b4-96d0-51c98b031fa6,北京市,北京市,西城区,北京市西城区广安门外南街49号1幢,39.890317,116.353208,39.870804,116.345896,1
1101002013B00674,eef6146e-9b9a-478a-90d4-716497fa871d,北京市,北京市,西城区,西城区阜成门北大街5号,39.935113,116.362024,39.927988,116.349296,1
1101002014B01210,452b0ec5-abbf-44ef-8881-c19f3fce6ffe,北京市,北京市,西城区,西城区西便门内大街97号,39.898773,116.359215,39.891608,116.346688,1
1101152014B00351,58fbf53f-380a-42c2-adb4-fa8b91c250db,北京市,北京市,大兴区,中关村科技园区大兴生物医药产业基地,39.697969,116.325793,39.69086,116.31296,1
1101002015B02288,cd6671b4-8b36-42f5-abf4-7c189ee9834c,北京市,北京市,朝阳区,北京市朝阳区常营乡1201-602 603地块住宅混合公建用地（配建“限价商品住房”）,39.925755,116.590154,39.98284,116.415656,1
1101002014B02757,6dec951a-d560-4421-81f7-0c50ca80fb48,北京市,北京市,丰台区,北京市丰台区丽泽金融商务区D-12地块C3文化娱乐用地项目,39.864937,116.292402,39.8663,116.332096,1
1101002009B05115,e4e66674-843a-4ae3-9c8b-004a99285147,北京市,北京市,石景山区,石景山区金顶街,39.933052,116.175585,39.926508,116.162616,1
1101002013B04818,94e875f9-c17a-47f1-9858-fc89ab14189c,北京市,北京市,东城区,北京经济技术开发区路东区B16街区B16F-1地块,39.910925,116.413384,39.802328,116.497896,1
1101002010B12357,b78f58f6-6414-48b5-af8c-4d1910c96c01,北京市,北京市,西城区,西城区大金丝胡同13号,39.944256,116.398366,39.903004,116.377048,1
1101002016B01039,a240bb17-1e88-433e-9f91-0566b9d3cf80,北京市,北京市,海淀区,海淀区软件园N4地块,39.96549,116.305434,39.97594,116.339664,1
1101002016B01001,62f7b6f6-f3b8-44ac-9921-c5db9ff80091,北京市,北京市,石景山区,石景山区八大处路45号,39.943771,116.205829,39.938788,116.194096,1
1101112010B00024,0d0cba4a-4def-4e03-a326-17b5be8380acC,北京市,北京市,房山区,房山区琉璃河地区,39.625916,116.157284,39.61286,116.030056,1
1101002010B16257,fb8d1894-0320-433c-b2f7-d19f8707ec3a,北京市,北京市,大兴区,北京经济技术开发区南部新X68号街区X68M1地块,39.801131,116.513005,39.78916,116.491544,1
1101002009B06626,764138d7-a313-4518-81e1-c4b09378c2c1,北京市,北京市,大兴区,北京经济技术开发区D6号街区D6M1 D6F1地块,39.801131,116.513005,39.78916,116.491544,1
1101002013B00697,63efff5d-af58-48ce-b7ed-c2e27c00b1e9,北京市,北京市,门头沟区,门头沟区增产路162号,39.943682,116.092386,39.9417,116.08948,1
1101002008B04769,a35d519b-6eaa-4e87-ace7-514bb4d93802,北京市,北京市,丰台区,丰台区卢沟桥乡郑常庄村,39.894359,116.27059,39.88792,116.27148,1
1101002008B04358,54cd8e09-fffd-46a7-835b-1ebba299c125,北京市,北京市,朝阳区,朝阳区酒汕桥路12号,39.926375,116.449559,39.9185,116.445504,1
1101002014B00701,1ed268bc-b07c-4549-bf0f-ad16742e939e,北京市,北京市,朝阳区,朝阳区建国门外大街21号,39.915816,116.446932,39.902744,116.436704,1
1101002014B01300,bdc7d109-bde5-412d-b603-c98c3cf2893f,北京市,北京市,东城区,东城区磁器库南巷8号,39.919035,116.411947,39.933056,116.413952,1
1101002014B01266,53317c67-80f4-4f53-9a67-2f92477fd25d,北京市,北京市,平谷区,平谷区马坊镇中心区北区,40.073723,117.017391,40.05892,117.0056,1
1101002014B01713,1447e712-37fe-49cd-8dfc-431346a91682,北京市,北京市,大兴区,大兴区黄村镇新安里小区甲43号楼,39.744657,116.36261,39.800528,116.528296,1
1101002014B00588,e553d80e-17a3-44d3-95c3-1e2944c347b5,北京市,北京市,丰台区,北京市丰台区城乡一体化卢沟桥乡西局村旧村改造项目一期,39.876481,116.31349,39.86774,116.291976,1
1101002014B00576,96badcbe-8754-425c-ac59-117a72e633c6,北京市,北京市,朝阳区,北京市朝阳区崔各庄乡来广营北路二类居住用地项目,40.026153,116.469158,40.051652,116.454392,1
1101002013B03735,49b7e178-d5bc-4629-b9fc-92601a2fcc33,北京市,北京市,朝阳区,朝阳区西坝河东里79-9号,39.970205,116.451549,39.949008,116.444016,1
1101002013B03741,f86d16a2-2f97-4aed-9926-49770b55e23b,北京市,北京市,丰台区,丰台区芳群园二区28号,39.867708,116.438027,39.868376,116.431656,1
1101002011B14736,0deab1e6-e61a-4c61-b7e4-db49e0f31559,北京市,北京市,西城区,宣武区太平街35号,39.878552,116.392958,39.911964,116.364872,1
1101002009B05058,e27c475b-b252-42e8-9fdd-b461e3c14990,北京市,北京市,大兴区,北京经济技术开发区42#街区42C1 42C2 42C3地块,39.801131,116.513005,39.802328,116.497896,1
1101002014B00500,42c09011-7c16-4f8b-baab-715e3df16975,北京市,北京市,东城区,东城区朝阳门南小街10号楼101 102 103 104 105号,39.925486,116.433804,39.918,116.421024,1
1101002013B04950,91607008-4ffc-4ac6-923e-5651383a6fe2,北京市,北京市,通州区,通州区运河核心区Ⅳ-04地块,39.916017,116.663415,39.89162,116.667824,1
1101002011B13992,e2b8827e-792b-4421-addb-ca0e2b5ac5fe,北京市,北京市,朝阳区,北京市朝阳区崔各庄乡大望京村环境整治土地储备项目2号地,40.00809,116.503001,39.99982,116.492832,1
1101002013B00619,a0b83bb4-66bf-4c67-b533-f0508cfbdb09,北京市,北京市,海淀区,海淀区林业学院苗圃北,39.96549,116.305434,39.910756,116.298648,1
1101002013B00514,2c4dc081-93d2-49fb-9294-b74e43078591,北京市,北京市,东城区,东城区王府井大街201号,39.922956,116.417385,39.91512,116.404728,1
1101002013B00684,d4829735-e036-4da5-a720-3005723b23db,北京市,北京市,丰台区,北京市丰台区卢沟桥乡丽泽金融商务区F-05地块C2商业金融用地项目,39.866134,116.256215,39.8663,116.332096,1
1101002012B20500,4972e511-d89e-416e-911b-05eb3426831a,北京市,北京市,西城区,西城区民康胡同27号,39.928802,116.36753,39.911332,116.3602,1
1101002013B01855,c88dd731-efc0-40e5-99db-02e6b60e76b0,北京市,北京市,西城区,西城区德胜门外大街4号,39.972819,116.387766,39.957856,116.37336,1
1101002013B00405,c0e0b8a4-47a1-4d5c-b766-6f8cdb16a997,北京市,北京市,昌平区,北京市昌平区中关村科技园昌平园东区二期0303-04地块住宅混合公建项目,40.21018,116.244804,40.203132,116.232144,1
1101002013B02916,81cdc6d9-a720-4eb3-bdf0-00405f071180,北京市,北京市,昌平区,昌平区北七家镇未来科技城,40.139644,116.474486,40.11644,116.417936,1
1102282013B00074,bb2c35e4-db2d-4410-adc2-e00d060881c4,北京市,北京市,密云县,北京密云经济开发区云西经济开发中心云西二路西侧 云西三街北侧,40.368034,116.818956,40.36202,116.8518,1
1101002008B05732,b1a5865b-6853-4598-b578-ab380a9b4ccd,北京市,北京市,朝阳区,朝阳区中关村科技园区电子城西区,40.018084,116.480283,39.974296,116.492696,1
1101002009B07482,58a0d125-56d6-4c98-ba2d-ed6832cfbc5f,北京市,北京市,房山区,房山区琉璃河车站前街10号西北侧,39.601936,116.05025,39.706772,115.971576,1
1101082013B00014,0443e8ca-2ced-4404-82f5-fd5be897dae8,北京市,北京市,海淀区,北京市海淀区北清路99号（一期用地）,40.079386,116.249129,40.071764,116.23228,1
1101002010B08759,a31c5121-e22b-48f7-b0d2-5f4a3b106c8f,北京市,北京市,丰台区,北京市丰台区云岗西路15号,39.817564,116.158649,39.79646,116.412432,1
1101002012B21239,3794348a-0512-473c-9ed4-a981963ea359,北京市,北京市,密云县,北京经济技术开发区南部新区X20街区地块,40.381414,116.857438,39.78916,116.491544,1
1101002008B03843,a8f1eb64-6cd2-48dd-ad05-51a87bc57621,北京市,北京市,东城区,东城区朝阳门南小街14 16号 禄米仓胡同42号,39.923036,116.434111,39.91556,116.420968,1
1101002018B00999,06b16fb6-6ba8-4517-8b53-02c7d131929f,北京市,北京市,西城区,西城区寿长街三条10号4幢,39.890227,116.395393,39.900288,116.346736,1
1101002013B02650,87a30e38-fdd2-42d8-be8e-5d29dd18de07,北京市,北京市,丰台区,丰台区中关村科技园区丰台园产业基地三期1516-49号地块,39.839611,116.287021,39.86728,116.272848,1
1101002012B18180,0c7a09c8-3273-41b3-b385-aa29d6c9289d,北京市,北京市,朝阳区,朝阳区来广营土地储备项目A4和B4地块二类居住项目,40.001566,116.479153,40.0274,116.43992,1
1101002014B01147,c994dc28-3702-445a-bff9-b3745a406493,北京市,北京市,东城区,东城区禄米仓胡同28号迤北,39.922996,116.436851,39.9435,116.401544,1
1101082014B00037,f8a8e495-9eb9-42ef-b74a-1ac76f464945,北京市,北京市,海淀区,北京市海淀区永丰产业基地ⅠI－4-C工业地块,40.083046,116.262809,40.075472,116.2228,1
1101002013B03289,89b83871-3bd9-42d4-8206-6b7cb340d9ea,北京市,北京市,大兴区,大兴区团河地区,39.743415,116.36498,39.741664,116.373088,1
1101002015B00040,e245f249-ccdf-4b17-8630-89d7ef48046e,北京市,北京市,密云县,密云县新东路40号,40.394789,116.864547,40.39946,116.8474,1
1101002016B01151,616cdf7a-db78-4fbd-b9ba-9dc98b3aa23f,北京市,北京市,丰台区,丰台区南苑五爱屯东街6号,39.807926,116.388764,39.80198,116.3766,1
1101002010B09736,2fd807d2-53e9-4c3e-a509-de26a7654b5c,北京市,北京市,平谷区,平谷区马坊工业园区,40.051923,117.015662,40.042096,116.997024,1
1101142012B00290,77128ffd-d832-4fdd-9034-b18e72f49e05,北京市,北京市,昌平区,北京市昌平区阳坊镇工业开发区,40.150364,116.14024,40.137,116.133264,1
1101142012B00270,3fe47fa0-4bf8-41be-9c30-123679e187a2,北京市,北京市,昌平区,昌平区阳坊镇后白虎涧村南 ,40.141606,116.124138,40.12932,116.124296,1
1101002009B07797,1ba82947-1d31-499b-9fa5-f7446fbc97e7,北京市,北京市,大兴区,大兴区,39.732555,116.348625,39.725506,116.335301,1
1101002008B02308,4f08b2a6-1403-44eb-a3f7-7ec67603bfc7,北京市,北京市,西城区,西城区西交民巷71号,39.908369,116.39319,39.900732,116.38052,1
1101002008B06750,2ad8fdd1-6fd3-4f72-8b6a-b9887fb0bb64,北京市,北京市,昌平区,昌平区北京市昌平科技园区昌盛路18号软件研发1#楼,40.208224,116.257744,40.20582,116.244824,1
1101132008B00070,b67ca12f-57e1-48f8-a849-72e0d2eca842,北京市,北京市,顺义区,顺义区天竺出口加工区,40.092303,116.574252,40.094528,116.557944,1
1101002008B03016,aa6a9235-6a4c-411f-92ee-2fa53dbcf284,北京市,北京市,丰台区,丰台区小屯路9号,39.894521,116.258675,39.887692,116.246104,1
1101002013B03343,7f50d8da-3e0a-4785-9b8e-8ffb8ea07fa7,北京市,北京市,房山区,北京市房山区房山新城良乡组团10-01-05等地块（理工大学1号地）,39.754326,116.149444,39.728408,116.165232,1
1101002016B00328,d6af7764-5560-48bf-86d0-a15366c98821,北京市,北京市,丰台区,丰台区花乡白盆窑2#地,39.828617,116.318835,39.81456,116.317616,1
1101002014B01914,de32cacb-78f8-417c-a798-a33a819442ef,北京市,北京市,东城区,北京经济技术开发区路南区N3街区N3F1地块,39.910925,116.413384,39.802328,116.497896,1
1101002009B11457,97d3be7e-736b-4124-86d1-15ab284caa98,北京市,北京市,密云县,北京经济技术开发区南部新区X21号街区X21F1地块,40.381414,116.857438,39.78916,116.491544,1
1101002009B11431,7c9417c8-98e2-40ce-90a6-1e53806cb1d8,北京市,北京市,大兴区,北京经济技术开发区路东区C5 C6号街区C5M1 C6M1地块,39.801131,116.513005,39.78916,116.491544,1
1101002010B09250,d21e3506-b8e0-4788-b6ee-cccf59ed1c37,北京市,北京市,西城区,宣武区白广路11号,39.890028,116.365341,39.88616,116.383472,1
1101002012B19985,91915631-f101-49d5-9807-7cf6212e7186,北京市,北京市,大兴区,大兴区西红门路15号,39.798849,116.365762,39.791728,116.35564,1
1101002012B20025,7e3a003b-209a-4b30-bf1f-0c6539e34086,北京市,北京市,东城区,东城区北新桥头条55号,39.948197,116.42486,39.940424,116.412864,1
1101002014B00186,7797d8d0-d88f-466b-8fbf-d589608124be,北京市,北京市,丰台区,丰台区花乡,39.83802,116.337168,39.840512,116.321,1
1101002014B02287,6690feb0-4d4f-48f1-86f4-9c717c4f90fd,北京市,北京市,西城区,西城区东栓胡同甲23号,39.918124,116.372514,39.90352,116.3784,1
1101002009B00516,f462b849-7aa1-4552-8db8-0d1f0fe8be5d,北京市,北京市,朝阳区,朝阳区西坝河东里83号楼,39.971049,116.450829,39.894272,116.4892,1
1101002009B00072,332d1050-3e96-464a-ae5a-ac126534edd3,北京市,北京市,西城区,西城区棉花胡同52号,39.944408,116.382804,39.935472,116.370336,1
1101002010B09788,02fb70cf-2c52-4486-9ef1-8938ab301204,北京市,北京市,西城区,宣武区马连道路甲18号院,39.882222,116.334605,39.882388,116.3198,1
1101002016B01527,5443e6c4-033b-478b-8982-5c4566ea5f42,北京市,北京市,石景山区,石景山区实兴大街,39.93801,116.197759,39.921588,116.18448,1
1101002016B01550,210a07aa-9475-410e-a69e-915e7abcd801,北京市,北京市,朝阳区,朝阳区崔各庄乡东郊农场保障性住房B地块(棚户区改造定向安置房),40.031625,116.533526,39.9967,116.447216,1
1101002016B01583,da219750-6672-4a1e-bc3d-27bcf13fbec5,北京市,北京市,朝阳区,朝阳区崔各庄乡东郊农场保障性住房A地块(棚户区改造定向安置房),40.031625,116.533526,39.9967,116.447216,1
1101002016B01506,e46327ef-7c6f-47b9-ba85-187fb9ef671d,北京市,北京市,朝阳区,朝阳区酒仙桥北路1号,39.990735,116.527979,40.03136,116.516016,1
1101002010B11627,4b53a851-057e-4369-9cf5-64aa1372032e,北京市,北京市,朝阳区,朝阳区甘露园路甲3号,39.926375,116.449559,39.9132,116.50712,1
1101122012B00314,71429b2c-471f-4fa1-966c-f2c93331f214,北京市,北京市,通州区,北京市通州区经济开发区东区B-04南部分地块内,39.916017,116.663415,39.906892,116.656936,1
1101002008B04880,f67fb7b8-fc02-4c5d-8860-e7cf82aa9eb8,北京市,北京市,西城区,西城区地安门外大街149号,39.940212,116.402434,39.9325,116.38984,1
1101002014B00919,cc0eb253-ab11-4777-a00a-5dc1c2abb6cf,北京市,北京市,丰台区,丰台区花乡白盆窑,39.828617,116.318835,39.815208,116.317736,1
1101002009B00771,d7a422ae-ecde-4123-93af-cfc20d9794bb,北京市,北京市,西城区,德外关厢,39.964936,116.389787,39.955492,116.373072,1
1101002008B03606,91026f2d-e111-4c8f-8674-bef65a655902,北京市,北京市,西城区,西城区德胜门外大街3号,39.971332,116.386177,39.957856,116.37336,1
1101002008B03520,a67202a6-b0c3-420e-9da7-54bc103a78d3,北京市,北京市,朝阳区,朝阳区广渠东路60号（南院）,39.89747,116.521303,39.889932,116.508928,1
1101002008B01850,5d3b9079-6ba5-42e7-b227-13d68c7642cb,北京市,北京市,海淀区,海淀区西三旗建材城西一里14号楼1层,40.067359,116.358889,39.8961,116.3,1
1101002008B01965,ca5c39c2-3436-4638-b864-0bdf2990a8dd,北京市,北京市,石景山区,石景山区七星园1号楼1-1号,39.904193,116.222189,39.89722,116.209392,1
1101002015B01221,fa7274ed-f04d-4aaa-af28-85124f2d2972,北京市,北京市,东城区,东城区府学胡同23号,39.942523,116.420443,39.934312,116.406752,1
1101002012B20777,ecde3c7c-7961-4119-818a-b7e938ca618d,北京市,北京市,丰台区,丰台区马官营家园3号楼,39.889695,116.304315,39.88336,116.292208,1
1101002012B20837,ddf0f0b7-7586-4407-b3b4-874845307545,北京市,北京市,西城区,西城区棉花胡同57号,39.944064,116.382646,39.935472,116.370336,1
1101002011B15176,3f2afe7c-1266-4a14-92fd-f370aa27e964,北京市,北京市,平谷区,平谷区南独乐河镇同乐路甲118号,40.175543,117.226044,40.171304,117.220424,1
1101002016B01331,3d7bd03a-67c2-47d0-ab98-4fa98761678c,北京市,北京市,石景山区,石景山区古城街道,39.912095,116.175984,39.91376,116.184816,1
1101002012B21051,9a8d0fdd-22dd-41b7-83a3-b03962309c9f,北京市,北京市,石景山区,北京市石景山区苹果园交通枢纽商务区F地块商业金融用地项目,39.934641,116.189634,39.929616,116.18432,1
1101002008B00914,82611fd6-a5d6-48b3-b960-4e6f16dc65b5,北京市,北京市,房山区,房山区长阳镇长阳一村广阳家园A B区（D E地块）,39.761542,116.164952,39.755664,116.165632,1
1101082013B00037,400ef1f2-2cc5-4116-9162-985b388142d7,北京市,北京市,海淀区,北京市海淀区永丰产业基地Ⅰ-9地块,40.083046,116.262809,40.075472,116.2228,1
1101002014B01643,ac07c7ba-06c4-4913-9512-b9a7b7da4a0f,北京市,北京市,通州区,通州区运河核心区IX-06地块F3其它类多功能用地,39.916017,116.663415,39.89162,116.667824,1
1101002014B02228,1e0f9872-5f66-4e9b-b0ab-04b99adb9ddf,北京市,北京市,石景山区,石景山区八角第二水泥管厂1612-034地块二类居住用地,39.910532,116.208448,39.910092,116.20012,1
1101002013B03330,800d8bda-2323-49b1-b47a-cf6adea2a197,北京市,北京市,朝阳区,北京市朝阳区农展北路8号0304-622地块住宅混合公建用地项目,39.948295,116.475522,39.983176,116.417576,1
1101002014B01004,aa68f37b-2ed7-4c7e-8a79-eed91a715eb7,北京市,北京市,通州区,北京市通州区运河核心区IX-04地块F3其它类多功能用地,39.916017,116.663415,39.89992,116.682184,1
1101002013B04447,e8da9b90-2dce-4c8c-8e84-1c5fa99ccda1,北京市,北京市,朝阳区,朝阳区弘善家园311#号楼,39.874201,116.458222,39.969528,116.421016,1
1101002014B00169,e3921424-16eb-4d4b-ae97-433b3255d98e,北京市,北京市,海淀区,海淀区西四环北路136号,39.94429,116.281227,39.937432,116.271344,1
1101002016B00336,900eb0cd-6f2d-424b-af5d-4adc90eec616,北京市,北京市,西城区,西城区西四北七条55号,39.93665,116.375699,39.9337,116.340392,1
1101152012B00437,62aeac67-962b-4247-b4af-89175de145cc,北京市,北京市,大兴区,中关村科技园区大兴生物医药产业基地,39.697969,116.325793,39.69086,116.31296,1
1101002013B03627,bbd8dc6f-d4a4-42de-84f2-9f8852fc0262,北京市,北京市,顺义区,顺义区李桥镇洼子村顺义新城第29街区东部29-083地块,40.05958,116.651072,40.05892,116.63868,1
1101002015B00596,7bf121c5-a06a-423b-8156-1dba286617fd,北京市,北京市,丰台区,丰台区和义西里,39.822391,116.402004,39.81598,116.389848,1
1101002013B03887,20e78642-c83f-4098-9c79-6a24f951fc2c,北京市,北京市,西城区,西城区阜成门南大街9号楼1层9-4,39.924874,116.362708,39.899088,116.358312,1
1101002015B02320,e869e37b-6bd6-4103-ad57-b5b01326be44,北京市,北京市,通州区,北京市通州区台湖镇B―07地块R2二类居住用地（配建限价商品住房）,39.819546,116.611479,39.8309,116.646184,1
1101002011B17125,100b274e-423b-4cbe-acf1-0e3660237691,北京市,北京市,门头沟区,北京经济技术开发区路南区N5街区N5M2地块,39.899985,116.125949,39.794588,116.482528,1
1101002008B01469,5cfcb907-26af-43d1-a8a3-3d1a2645b9ec,北京市,北京市,朝阳区,朝阳区将台路,39.978743,116.495916,39.975464,116.470456,1
1101002013B04887,92006723-d7bf-467d-a067-62aca917bc83,北京市,北京市,丰台区,丰台区宜兰园34号楼,39.833462,116.34271,39.82552,116.33284,1
1101002017B02300,c03f03be-909e-4a8e-8761-337adf3c0bd0,北京市,北京市,东城区,东城区灵光西巷24号3幢1层,39.954229,116.412706,39.946448,116.399616,1
1101002008B01027,9655caa8-3b5b-4999-bc45-8ba6a7b9d8eb,北京市,北京市,大兴区,大兴区黄村镇滨河西里,39.758945,116.346142,39.746188,116.332424,1
1101002014B02357,7ad527e9-6821-4e25-8e2a-b96e6c502f14,北京市,北京市,西城区,西城区小红庙甲4号楼,39.888751,116.343418,39.890532,116.350696,1
1101002014B02336,ef974452-7564-4bb0-be49-2bfadb9be0ba,北京市,北京市,朝阳区,朝阳区建国门外大街永安西里丙12号,39.91282,116.455203,39.90688,116.442584,1
1101132009B00054,609dcbef-7883-4c2f-9e3c-a39b3596c5f6,北京市,北京市,顺义区,南法信镇,40.130746,116.609135,40.1245,116.611088,1
1101002015B02193,d9c5c0c1-92a8-4515-a6db-fe6464faee6b,北京市,北京市,东城区,东城区东四北大街276号,39.936897,116.423825,39.931072,116.411016,1
1101002015B00214,55860f7f-5068-4c7b-b7a1-e8e9b4dfb3e5,北京市,北京市,丰台区,丰台区亚林西居住区一期（0501-626 627地块）,39.861904,116.360826,39.85556,116.346704,1
1101002016B00156,10daf7d0-4263-4d60-855b-107ea92cd280,北京市,北京市,昌平区,昌平区回龙观镇北京国际信息产业基地一期E2地块,40.117002,116.303051,40.109508,116.29052,1
1101002016B00166,15f3aab0-c732-4744-a048-a7ca0e5ba18e,北京市,北京市,东城区,东城区大菊胡同甲2号,39.934827,116.422401,39.94536,116.42132,1
1101002009B00036,b847acac-d4a3-4682-b509-42cf8339312a,北京市,北京市,顺义区,军杜路66号,40.114972,116.64947,40.11198,116.63756,1
1101002013B02457,1592dfa0-f37f-4546-8648-67d7bb57b8ac,北京市,北京市,石景山区,石景山区鲁谷路银河商务区K地块C2商业金融用地,39.909413,116.233708,39.90624,116.215024,1
1101002010B09862,a3015054-4e76-4483-a722-f635163ae7e1,北京市,北京市,门头沟区,门头沟区新桥南大街10 24 26号,39.927129,116.120721,39.9312,116.100288,1
1101002010B09844,e72512aa-8920-4ef2-9a96-948ed30fa06f,北京市,北京市,朝阳区,朝阳区东大桥路17号,39.916223,116.456551,39.917168,116.443872,1
1101132009B00513,a23c28d1-00d1-4d3b-a8bf-3f53152ef186,北京市,北京市,顺义区,顺义区马坡镇,40.178628,116.61441,40.16982,116.652064,1
1101002009B03871,f625d19a-567b-43e9-aa08-ac695bc54bed,北京市,北京市,东城区,崇文区水道子胡同15号,39.897723,116.420671,39.893428,116.413096,1
1101002008B01348,b66d60dc-2a89-4e16-85ae-33419a6b342a,北京市,北京市,东城区,崇文区体育馆西路甲2号,39.893169,116.429489,39.987804,116.485696,1
1101002011B14034,0e5a5cee-584a-4a8f-b882-a9bf8e332587,北京市,北京市,朝阳区,朝阳区朝阳北路151号楼,39.929387,116.498693,39.922008,116.481696,1
1101002013B00088,84fcc492-b8fd-47fc-9772-a0691718d8b9,北京市,北京市,顺义区,顺义新城第11街区,40.188395,116.672524,39.90312,116.401,1
1101002012B20331,262b16f7-de5d-41b6-9418-dd27e53f2f46,北京市,北京市,昌平区,昌平区小汤山镇南部未来科技城北区A02号,40.166144,116.368652,40.059392,116.40928,1
1101002012B19859,0cdb3788-286e-4e7a-819f-74a2a23eb0e5,北京市,北京市,朝阳区,朝阳区北三环东路12号,39.968574,116.441846,39.967332,116.424048,1
1101002008B04890,fde4ca8f-38e6-4549-a5ab-33b79e598570,北京市,北京市,门头沟区,门头沟区永定镇冯村,39.916028,116.11294,39.906188,116.100432,1
1101002008B02170,87af51da-2408-423e-9c8f-91f51d239dc6,北京市,北京市,丰台区,丰台区东铁匠营苇子坑109号,39.853507,116.440286,39.851408,116.414968,1
1101002008B03124,5f960251-35ce-4be8-a401-d5056dcd888e,北京市,北京市,大兴区,大兴区康庄,39.763626,116.319828,39.754116,116.314392,1
1101002014B03257,9c7c961a-70c9-46af-b2c4-956836fce79b,北京市,北京市,怀柔区,北京市怀柔区,40.322618,116.638386,40.314899,116.6259,1
1101002008B03802,c2982f83-faad-49f4-ab68-83b755df086d,北京市,北京市,大兴区,大兴区黄村镇康庄,39.763626,116.319828,39.756408,116.307216,1
1101002012B20446,7a41ee6d-9bf4-4cb2-ab53-6e8d5bb8e206,北京市,北京市,西城区,西城区什刹海东侧岸,39.952105,116.380751,39.91656,116.360032,1
1101002012B20401,1f173cf6-1050-43dd-ac76-f4dd65d51658,北京市,北京市,东城区,东城区钱粮胡同13号,39.934198,116.421567,39.920648,116.41504,1
1101002012B20428,757bdad6-ca06-4ad5-8c5a-a4cba6791bbf,北京市,北京市,顺义区,顺义区牛栏山镇北军营村京密路西侧,40.149971,116.605731,40.232892,116.646344,1
1101002009B01155,e583765e-8940-4fc5-8d4d-b26aa2336b1f,北京市,北京市,海淀区,海淀区玉海园五里20号楼,39.92521,116.262338,39.910756,116.298648,1
1101002010B09287,2aa70140-a572-47f7-828d-d3bb2d5a1dba,北京市,北京市,丰台区,房山区长阳镇（长阳西站1 2号地）,39.845578,116.251598,39.76934,116.181088,1
1101002008B00989,6f20f75f-9385-4a39-9ce7-7c7391ae5b4b,北京市,北京市,平谷区,平谷区东高村镇南埝头村,40.132421,117.127221,40.115428,117.10776,1
1101002012B20361,f925e2cb-7880-4d19-9c24-be8910e03f8c,北京市,北京市,顺义区,顺义区府前中街路北,40.136225,116.661003,40.129376,116.649272,1
1101002011B16040,0130cd6f-6f36-43a6-92e1-a05eb4e1fb16,北京市,北京市,门头沟区,门头沟区龙泉雾石灰石矿地块10,39.946147,116.107604,39.982104,116.080224,1
1101002009B01382-1,4946d11f-cd30-4ab5-9470-ed6e3c2b51adA,北京市,北京市,门头沟区,北京经济技术开发区路东区E3街区E3R1 E3R2地块,39.899985,116.125949,39.802328,116.497896,1
1101002009B01394-1,453e267c-f3ca-42f6-9779-b4fe7b74decdA,北京市,北京市,大兴区,北京经济技术开发区路东区E4街区E4R1地块,39.801131,116.513005,39.78916,116.491544,1
1101002008B04369,86c082f4-c1f6-4525-b247-516de6947dca,北京市,北京市,朝阳区,朝阳区平房乡黄渠村,39.93143,116.574628,39.935628,116.5244,1
1101002012B18115,341b64c2-6e20-4ef2-b84a-3b0e83617142,北京市,北京市,房山区,房山区房山线长阳西站4号地,39.759579,115.987826,39.76934,116.181088,1
1101002012B18078,97195f50-68d4-473b-8315-b7dcfb8be268,北京市,北京市,大兴区,大兴区黄村镇京开路甲64号,39.737825,116.353178,39.6706,116.322216,1
1101002008B02686,4a5325a0-b5c0-45f6-af90-81c0ff5cc939,北京市,北京市,海淀区,海淀区西三旗建材城,40.067226,116.368106,40.059552,116.355872,1
1101002011B13934,a7e0e47a-432d-4353-b721-9d636517f84d,北京市,北京市,西城区,西城区前门西河沿街47号,39.905644,116.400637,39.89726,116.379112,1
1101082008B00062,8a2134cb-2c9c-44d3-ad99-09c3db274269,北京市,北京市,海淀区,海淀区温泉镇辛庄村,40.074239,116.160306,40.059284,116.144232,1
1101002009B04033,add6bd3b-fad4-4f00-a457-375b45079533,北京市,北京市,朝阳区,朝阳区安贞西里四区甲1号,39.978883,116.406682,39.97132,116.394088,1
1101002016B01290,2f28ad02-5739-4a76-a58a-3693be770ad2,北京市,北京市,大兴区,北京经济技术开发区83街区83U6地块,39.801131,116.513005,39.802328,116.497896,1
1101132012B00214,84e0a360-0520-4d2f-b2d8-3e8aed166dd8,北京市,北京市,顺义区,赵全营,40.215875,116.509879,40.21126,116.587448,1
1101002014B02291,fe7ea0f6-a05c-4ff0-9b27-ca08152e2bc8,北京市,北京市,海淀区,海淀区翠微南里8号楼,39.91827,116.306258,39.910756,116.298648,1
1101002013B02774,d56e7588-f427-4df2-aca5-b8e5bfae75f1,北京市,北京市,西城区,西城区琉璃厂东街22 24号,39.901518,116.395633,39.96072,116.379728,1
1101142012B00234,1b93b1e5-e4ce-4b66-8973-2428659c1dd7,北京市,北京市,昌平区,昌平区科技园区昌盛路18号,40.208224,116.257744,40.200512,116.245192,1
1101002008B06380-2,d26e895d-24a6-4dd4-9cff-d28b34dc82deAA,北京市,北京市,密云县,北京经济技术开发区南部新区X62号街区,40.381414,116.857438,39.78916,116.491544,1
1101002013B02248,e6e9bf2a-af52-4b66-9f03-de4e6c6067b5,北京市,北京市,东城区,东城区武学胡同1号,39.923225,116.438225,39.916792,116.424792,1
1101002009B07911,e42dc947-fe82-4122-bed7-3654cb4a4394,北京市,北京市,密云县,北京经济技术开发区南部新区X4街区,40.381414,116.857438,39.78916,116.491544,1
1101002013B03795,d42c36a8-b857-4a7b-95fa-9bd5b6a0d2ef,北京市,北京市,昌平区,昌平区未来科技城南区,40.139644,116.474486,40.12336,116.47804,1
1101002009B01022,8900b1a3-667c-40f3-aad1-66f6a8e3c6ce,北京市,北京市,西城区,宣武区耀武胡同16号,39.903252,116.397406,39.89086,116.363296,1
1101002008B03236,4487659f-8f3e-4fcb-8ed6-58792014b34a,北京市,北京市,朝阳区,朝阳区方家村198号,39.899633,116.522956,39.949008,116.444016,1
1101002013B03034,d09af8a1-d5df-4f43-a070-45724d566453,北京市,北京市,丰台区,丰台区横一条甲18号院4号楼（成寿寺二期2号楼）,39.856641,116.442873,39.8512,116.42816,1
1101002013B00556,096d1b17-752b-48cd-a430-eef4ab051334,北京市,北京市,大兴区,北京市大兴区生物医药产业基地0504―018地块F3其他类多功能用地项目,39.732555,116.348625,39.742068,116.32524,1
1101002008B03469,bbd9714f-80d3-4d4c-8f79-f035fc4c67c1,北京市,北京市,顺义区,顺义区北石槽镇李家史山村,40.272336,116.584861,40.247168,116.529632,1
1101002008B03400,9c600b1f-ac0d-40d8-b350-acad9232f9c2,北京市,北京市,海淀区,海淀区温泉镇中关村环保科技示范园,40.066866,116.181394,40.05564,116.180128,1
1101002011B00197,496583af-6809-46a1-9954-974a2de0907f,北京市,北京市,东城区,东城区东四四条9号,39.933508,116.431199,39.933056,116.413952,1
1101002014B02476,79b553aa-e292-44c1-86b8-dc5c73b84c49,北京市,北京市,通州区,通州区运河核心区,39.916017,116.663415,39.89162,116.667824,1
1101002010B07988,c7800c4e-4361-4caf-bbc3-f21765d9e2a0,北京市,北京市,东城区,崇文区前门大街及东片保护整治项目B16地块,39.905108,116.404243,39.930532,116.318904,1
1101002013B01035,70263e15-1664-478c-b619-ab1c38ed1e31,北京市,北京市,东城区,东城区黄图岗胡同46号,39.92693,116.41567,39.919256,116.403744,1
1101002016B00673-1,9872841e-3c69-46d8-b199-02e4c1d280c3,北京市,北京市,海淀区,海淀区上庄家园N28 N34地块,40.103772,116.222607,40.097792,116.211632,1
1101002016B00686,73f17792-b2fa-4b37-b619-196c035fa8bf,北京市,北京市,大兴区,大兴区车站北里34号楼,39.731412,116.339745,39.724572,116.328032,1
1101002009B07005,90f8f564-0e7c-47d8-a102-95711a5c7da7,北京市,北京市,丰台区,丰台区丰台北路36号,39.871314,116.301872,39.864584,116.291536,1
1101002013B03327,fa84f3f5-f597-401d-8bff-d7d3ad0f1a53,北京市,北京市,平谷区,北京市平谷区马坊镇B07-02地块商业金融用地,40.073723,117.017391,40.046568,116.985976,1
1101002010B08944,076836b2-80fe-4d0f-8c90-48898b11403b,北京市,北京市,朝阳区,朝阳区安翔路2号,39.996716,116.392045,39.949008,116.444016,1
1101002015B01510,e2b4f79b-4058-4eaa-9406-a9024c1a52bd,北京市,北京市,朝阳区,朝阳区安慧里一区甲12号,40.00094,116.420845,39.950488,116.438296,1
1101002015B01358,ac95f4e1-0732-499a-a20c-7498afb797a0,北京市,北京市,昌平区,昌平区小汤山镇阿苏卫村,40.167009,116.365857,40.169,116.3568,1
1101002010B11793,8f067ead-231f-4e03-8ff6-050c54665ffc,北京市,北京市,顺义区,顺义区天竺空港展馆配套设施项目,40.064335,116.585683,40.076552,116.553424,1
1101002008B01715,3812326a-2c1e-4dbf-be62-66f76b1f6114,北京市,北京市,大兴区,大兴区兴丰南大街21号,39.733627,116.345888,39.73,116.336168,1
1101002008B01677,9735ee6d-8bc1-47e6-aa4d-59f06e2abcb7,北京市,北京市,顺义区,顺义区京密公路东侧（天竺乡旧址）,40.136351,116.661424,40.143284,116.593336,1
1101002008B01535,21cfa440-4e85-4141-9045-ad520cd8744c,北京市,北京市,顺义区,顺义区府前西街4号,40.13596,116.656917,40.128552,116.644528,1
1101112014B00094,01411c28-2e5b-4879-a860-f954a8aadb29,北京市,北京市,房山区,房山区城关街道办事处前 后朱各庄村,39.699654,115.988933,39.70422,116.00788,1
1101002009B00754,fb414270-f1d9-48ac-98ee-5923b4a901df,北京市,北京市,昌平区,海淀区中关村生命科学园21-②号,40.105405,116.278144,39.982928,116.315568,1
1101002017B02156,a2225319-8bb6-447c-974f-bdd82e74a4e2,北京市,北京市,朝阳区,朝阳区双井北里14号,39.902739,116.472577,39.949008,116.444016,1
1102282013B00046,b037e99d-441c-4f52-b083-1a98476c8306,北京市,北京市,密云县,北京密云经济开发区云西经济开发中心西统路东侧,40.368034,116.818956,40.36202,116.8518,1
1101002008B01669,72b0150a-096f-4f9d-bf1c-fa6e8cfbc9a0,北京市,北京市,通州区,通州区车站路22号,39.912312,116.668948,39.913256,116.65108,1
1101002008B02795,93ea230a-914e-4477-a6f2-da58eb52fc17,北京市,北京市,门头沟区,门头沟区城子中街33号,39.959144,116.104306,39.939148,116.09572,1
1101002018B00370,b3ca7305-0b4d-42c7-9f7b-f20c48376f12,北京市,北京市,石景山区,北京市石景山区,39.911354,116.229613,39.904455,116.216923,1
1101132009B00269,e6aeb62f-1b64-4d10-b610-ec83a7e61e51,北京市,北京市,顺义区,南法信镇,40.130746,116.609135,40.1245,116.611088,1
1101132009B00247,910033f2-aefe-436b-95bc-a9faafbbb77d,北京市,北京市,顺义区,北小营镇,40.221615,116.727001,40.231024,116.85288,1
1101002011B00740,1cad63a0-361b-4028-b2c3-f60e97a522c8,北京市,北京市,丰台区,丰台区花乡四合庄1516-16 18地块,39.806607,116.319673,39.840512,116.321,1
1101002009B07114,9ae07363-d6f3-458d-b970-a11e9b25d5d6,北京市,北京市,海淀区,海淀区万柳居住区,40.003811,116.264051,39.989188,116.289384,1
1101002009B06928,6a0ce75f-edd8-41e4-9c6d-293b80364263,北京市,北京市,石景山区,石景山区衙门口经济适用房底商,39.895806,116.210884,39.885808,116.207288,1
1101002009B06578,05d187c8-5a66-4f53-a221-aa742b6f86c3,北京市,北京市,大兴区,大兴区西红门商业综合区二期项目,39.754615,116.398381,39.79134,116.338576,1
1101132009B00406,3489d8b2-b84f-45a7-9afe-af2e52fdba96,北京市,北京市,顺义区,顺义区后沙峪镇,40.10578,116.537035,40.101848,116.539528,1
1101002010B16314,b07a311f-7130-4e17-b313-df04951e2d6a,北京市,北京市,大兴区,北京经济技术开发区路东区E12街区E12F1地块,39.801131,116.513005,39.78916,116.491544,1
1101002012B18467,44ef8333-c91b-4a34-9803-70b86219bf64,北京市,北京市,顺义区,顺义区顺义新城第10街区,40.188395,116.672524,40.123092,116.65048,1
1101002011B14391,f7b93baa-a804-447a-824e-84f211a2ad3b,北京市,北京市,海淀区,海淀区北四环中路283号现状商务金融用地,39.992694,116.347822,39.9859,116.3392,1
1101002011B14324,c1a647aa-4aa4-49a5-83cd-508fcfcb3881,北京市,北京市,东城区,东城区地安门东大街68-1,39.939533,116.405967,39.89084,116.394528,1
1101002011B14133,4bce9697-3c3f-439b-a744-3b93ec91c827,北京市,北京市,丰台区,丰台区西局北街26号院,39.884287,116.314475,39.812932,116.402896,1
1101002012B19793,54614f9c-b55e-4a86-bf03-546a5f8f16ea,北京市,北京市,朝阳区,朝阳区来广营乡电子城西区三期B09地块B区,40.027738,116.493631,40.0121,116.468192,1
1101002013B02321,657a2ecd-5635-4d62-ae01-27bff2b574f0,北京市,北京市,丰台区,丰台区新发地新村一期回迁安置房A地块,39.817288,116.349179,39.823536,116.33852,1
1101002009B07768,754dcd4f-ed0d-414a-b371-b0a7cab58904,北京市,北京市,门头沟区,门头沟区滨河居住区1号,39.937715,116.123592,39.931416,116.109624,1
1101002010B10160,a36addfe-73e2-4586-af19-64419114facb,北京市,北京市,房山区,房山区东风街道双泉路2号（地毯厂内）,39.767891,115.959544,39.700448,115.984976,1
1101002015B00476,e52ddf07-14a1-44ff-8c10-7e095839d485,北京市,北京市,平谷区,北京市平谷区夏各庄新城2号2-15地块,40.145317,117.193074,40.12376,117.169608,1
1101002015B00467,e81ea842-f7c3-477e-9125-48812691724d,北京市,北京市,丰台区,丰台区花乡草桥村回迁安置房项目经营性配套部分0507-64地块,39.83802,116.337168,39.84312,116.342648,1
1101002010B08530,b6380688-c4cd-4133-99c3-7446d4f6cec3,北京市,北京市,石景山区,石景山区体育场南路11号,39.911086,116.209427,39.903944,116.19668,1
1101002010B09367,9b1755e8-8a3d-475e-af06-4e93c4ec81f8,北京市,北京市,大兴区,大兴区采育镇,39.625891,116.64123,39.62294,116.648864,1
1102282009B00052,7d483a78-6c3e-432e-9ca8-7fa0517e3849,北京市,北京市,密云县,密云县西田各庄镇西田各庄村东,40.40617,116.777181,40.365472,116.748544,1
1102282009B00039,6b8c06ed-0590-4dce-b754-089ff02f2590,北京市,北京市,密云县,密云县西田各庄镇西田各庄村东,40.40617,116.777181,40.365472,116.748544,1
1101152011B00095,64bf8d65-8f87-4e67-ba0b-f3c2e06c0713,北京市,北京市,大兴区,大兴区安定镇,39.626883,116.514228,39.6165,116.493552,1
1101002011B13984,876500e7-c0a2-41ae-898a-c6d2d3492728,北京市,北京市,门头沟区,北京市门头沟区永定镇综合性商业服务业用地项目,39.906329,116.115575,39.9021,116.107136,1
1101002008B03380,a10e19ec-f27b-4704-845f-dfa984c497f2,北京市,北京市,朝阳区,朝阳区广渠路南侧66号院22号楼,39.898845,116.526027,39.994844,116.407712,1
1101002009B07534,7390c040-00fe-4633-ae9b-6ee85f765d69,北京市,北京市,石景山区,石景山区八角地区商业金融项目,39.91896,116.205016,39.904384,116.21696,1
1101002009B01056,759a5b6b-d74b-48de-a761-1c6785c6e205,北京市,北京市,朝阳区,朝阳区中纺街3号,39.929706,116.461598,39.949008,116.444016,1
1101132009B00167,e22bf65f-b934-43c2-b19f-b88bb544b155,北京市,北京市,顺义区,高丽营镇,40.163052,116.545931,40.169,116.47588,1
1101122011B00167,562e364c-4906-4ec8-9f79-5a2b22db48c6,北京市,北京市,通州区,通州区经济开发区东区,39.916017,116.663415,39.913256,116.65108,1
1101152009B00115,f2632e6c-94e5-4ede-844f-f54efc512c52C,北京市,北京市,大兴区,大兴区黄村镇,39.706174,116.389949,39.7527,116.320568,1
1101002013B03923,6565ec0c-d8d8-4d07-99e6-111ccdd88fa3,北京市,北京市,昌平区,昌平区北七家镇,40.112606,116.430998,40.1256,116.400144,1
1101002013B03965,41a31902-9b33-45a4-97f3-a7f79e0c9bf3,北京市,北京市,东城区,东城区大菊胡同27号,39.934827,116.422401,39.93846,116.41916,1
1101002013B04267,343be1f2-ac23-4b48-88e0-dde29e06793c,北京市,北京市,延庆县,延庆县张山营镇姚家营村西侧,40.465982,115.805628,40.458832,115.802072,1
1101002013B04757,d6fe1aae-50f5-41dc-ada5-5cf0558b13fb,北京市,北京市,昌平区,昌平区南邵镇,40.223844,116.304848,40.206616,116.27996,1
1101132009B00427,59b8da3c-799d-430b-91e6-dc3ab12f47f1,北京市,北京市,顺义区,顺义区杨镇,40.158273,116.836417,40.152328,116.824768,1
1101132009B00437,9796a0b2-618b-4eee-ba35-1f9e377d7599,北京市,北京市,顺义区,顺义区北务镇,40.069771,116.839609,40.0695,116.82284,1
1101002009B05909,09e70d51-a508-4919-b1de-e67b78361105,北京市,北京市,顺义区,顺义区李峤镇,40.136351,116.661424,40.133652,116.657608,1
1101142013B00053,91731121-59ca-4134-8de0-c79764f9974e,北京市,北京市,昌平区,北京市昌平区阳坊镇后白虎涧村 ,40.141606,116.124138,40.1259,116.117,1
1101112013B00255,f75a4770-3426-408e-a3b9-7b7e37c79804,北京市,北京市,房山区,北京市房山新城燕房片区8号街区YF-010地块工业用地,39.754326,116.149444,39.759652,116.1776,1
1101002013B03319,ce8a6663-0187-4738-ba9b-43452fcad2ef,北京市,北京市,平谷区,北京市平谷区马坊镇B06-02地块商业金融用地,40.073723,117.017391,40.046568,116.985976,1
1101002014B00379,d5fc2b95-1a96-4a21-a35a-589c4859373f,北京市,北京市,西城区,西城区尚勤胡同11号,39.943744,116.387935,39.936072,116.375056,1
1101002013B02025,ddfff4e5-1ec5-4e2e-8ba0-54269a5e71d3,北京市,北京市,西城区,西城区南横东街194号,39.889303,116.382497,39.88168,116.369944,1
1101002013B02007,b8a1cdfc-b560-4c5b-a86f-cce05d97eac9,北京市,北京市,昌平区,昌平区龙水路22号院4号楼 28号楼,40.219104,116.265516,40.211688,116.252992,1
1101002010B09180,de4f6c9a-dc16-413f-9edb-1fdfd77e5255,北京市,北京市,西城区,宣武区储子营胡同9号,39.89365,116.403653,39.885864,116.39112,1
1101002012B19124,44b34d8a-51d1-4c0a-a788-16a8fcaad7cf,北京市,北京市,东城区,东城区王府井大街245号,39.920561,116.417431,39.9128,116.404824,1
1101002016B01595,85ac1d23-2c17-49d5-834a-0fa01f0441d0,北京市,北京市,昌平区,昌平区南口镇南辛东路东侧,40.240422,116.147517,40.232448,116.134944,1
1101002011B16376,6fa08292-1205-40ac-a072-2367823de0b6,北京市,北京市,顺义区,北京市顺义区后沙峪镇商业金融用地（2606-003-04）,40.10578,116.537035,40.10382,116.53828,1
1101002014B03301,fe83afd6-9f9b-4094-b0e6-b94602d49d4e,北京市,北京市,顺义区,顺义区后沙峪镇,40.10578,116.537035,40.101848,116.539528,1
1101132010B00414,b4a292e8-acd1-4e52-8932-a0f4ca548626,北京市,北京市,顺义区,顺义区汽车生产基地内,40.136351,116.661424,40.099348,116.655112,1
1101002013B02354,ea57331c-b0f5-45d3-beb5-fa397572d9b0,北京市,北京市,通州区,北京市通州区运河核心区IV-07地块F3其他类多功能用地,39.916017,116.663415,39.89992,116.682184,1
1101002015B01650,b186877e-a15b-4f6b-ad7a-5aa4e939ca03,北京市,北京市,西城区,西城区弘善胡同5号,39.945781,116.388025,39.9382,116.375384,1
1101142009B00097,216574c4-535b-4b1a-b6b3-e655c9d6bd48,北京市,北京市,昌平区,昌平区马池口镇,40.182474,116.183217,40.1745,116.185424,1
1101002008B01429,de44aa34-669e-4160-b97f-fe375cbb479a,北京市,北京市,西城区,宣武区南线阁街10号,39.894259,116.360176,39.887176,116.347408,1
1101002015B01304,51953ca5-693f-43df-a625-397a69a4f960,北京市,北京市,密云县,密云县水库西线公路24号,40.546704,116.824322,40.537972,116.813264,1
1101002008B03220,cdc4b7e4-c0fa-4d56-868f-91a39b857bfe,北京市,北京市,密云县,密云县鼓楼东大街34号,40.381588,116.853987,40.37528,116.857008,1
1101002014B01547,e2ea4806-e42a-4776-886f-1ce3585d3aa3,北京市,北京市,海淀区,海淀区知春路63号,39.985249,116.338123,39.90044,116.258232,1
1101002015B00459,750f0f80-4000-4fa2-bc74-3f13faa7ec0a,北京市,北京市,顺义区,北京市顺义区仁和镇4-073F3其他类多功能用地 ,40.123973,116.659876,40.130872,116.608624,1
1101002013B00281,c1b6c2d1-c9ab-4190-a84d-a9ec38efbaef,北京市,北京市,西城区,西城区井楼胡同3号,39.909207,116.393942,39.90164,116.380936,1
1101002011B14778,6b2a29f6-a839-4c6f-81fa-ac602a8b5114,北京市,北京市,丰台区,丰台区马家堡东路55号,39.861725,116.392851,39.85414,116.379896,1
1101002018B00337,7e6119eb-77eb-469f-8fab-381f59898035,北京市,北京市,朝阳区,北京市朝阳区孙河乡北甸西村 北甸东村 西甸村2902-46地块R2二类居住用地,40.059224,116.539539,40.04862,116.527416,1
1101142011B00060,7da8e1f7-fdaf-48c1-8c15-9027c801150c,北京市,北京市,昌平区,北京市昌平区南邵镇,40.223844,116.304848,40.19032,116.279864,1
1101002008B05591,cbe753f5-beb8-42e5-aec6-9360d7985bdb,北京市,北京市,丰台区,丰台区方庄芳城园三区6号楼,39.874161,116.442679,39.864752,116.431488,1
1101002008B05877,125625b4-6d7a-4fcd-b61e-79c6f74c2b74,北京市,北京市,延庆县,延庆县延庆镇鲁庄村,40.492047,115.950345,40.519748,115.956816,1
1101142011B00056,74286803-d1a8-43cb-8ee0-0b85f28c17e4,北京市,北京市,昌平区,昌平区南口镇,40.261581,116.095297,40.228088,116.1408,1
1101152013B00187,64fc0c65-a71a-46d5-bc5c-22922e869dcd,北京市,北京市,大兴区,大兴区长子营镇,39.691737,116.602072,39.680828,116.603344,1
1101002009B07818,ad5dd77c-8a95-4be5-afbf-4250f0fc6bfe,北京市,北京市,海淀区,海淀区田村路43号,39.935724,116.263755,39.928328,116.251848,1
1101002009B06989,55a164dc-fb15-447b-87a4-86a97dd45c7e,北京市,北京市,朝阳区,朝阳区朝阳门南大街12号楼,39.924114,116.442456,39.894272,116.4892,1
1101002011B14506,d3d27730-5916-4766-a85b-97ff594a44ec,北京市,北京市,丰台区,丰台区方庄芳星园三区25号,39.866803,116.439473,39.861484,116.4338,1
1101002011B14751,03fcdaad-6dcd-4ffb-af75-61d07ae0d6f5,北京市,北京市,通州区,通州区于家务乡乡中心项目（C地块）,39.755943,116.745375,39.7178,116.697872,1
1101002009B01335,914162d8-7bcb-4eec-8626-bb87538d93be,北京市,北京市,大兴区,北京经济技术开发区43#街区43C2 43C3地块,39.801131,116.513005,39.802328,116.497896,1
1101002014B02156,c54cd89a-02b4-498f-a39f-c0ce689d4b3b,北京市,北京市,朝阳区,朝阳区金盏金融服务园区4号地,39.967832,116.636725,39.97952,116.592264,1
1101002014B02149,a7f783fa-8001-458d-8d96-a3940b3a8795,北京市,北京市,东城区,东城区演乐胡同102号,39.926648,116.426494,39.919988,116.418088,1
1101002008B00020,3fbca1bf-e762-4fbb-a58d-af8bfeaa5404,北京市,北京市,朝阳区,朝阳区樱花园东街1号楼,39.977509,116.431026,39.9735,116.418096,1
1101002013B04219,69a9fe32-ee2f-469f-b099-8f767d008bfe,北京市,北京市,东城区,东城区广渠家园1楼,39.898796,116.452706,39.953076,116.394776,1
1101002014B01571,329e713f-051e-4b54-b1c4-49922cf40cee,北京市,北京市,顺义区,顺义区双河路9号南区,40.102861,116.690174,40.095728,116.677584,1
1101002010B09221,1f0d1aba-b1c5-4a61-9c39-d38e123ac195,北京市,北京市,朝阳区,朝阳区（望京内环路）阜通东大街,39.984233,116.472671,39.98438,116.468264,1
1101002013B01436,ae39717a-a9a2-4ff2-8c50-bd29e557531a,北京市,北京市,昌平区,北京市昌平区回龙观镇南店村,40.065817,116.348273,40.061192,116.334136,1
1101002013B01387,30b448c5-3262-450b-a03e-4097613e363d,北京市,北京市,朝阳区,朝阳区南磨房乡四路通村四路通住宅小区二期B区一段住宅 配套商业 地下车库项目,39.872692,116.486889,39.968636,116.397808,1
1101002014B02590,42a8cdea-f289-4d84-90a2-687c34ef9fcd,北京市,北京市,怀柔区,怀柔区桥梓镇八龙桥雅苑2 3号楼,40.296428,116.591318,40.289328,116.568104,1
1101002012B17904,390d1b36-d848-4ed6-b185-eab45023eec0,北京市,北京市,西城区,宣武区马连道路13号,39.885766,116.328082,39.88616,116.383472,1
1101002008B03250,69787958-0d76-40fa-a15f-dfbeaff1aab9,北京市,北京市,昌平区,昌平区沙河镇巩华城大街76号,40.134575,116.274364,40.148012,116.28408,1
1101002009B04111,9700f7c1-a7fd-4011-8cab-4a492bc49072,北京市,北京市,西城区,西城区宏大胡同33号,39.933292,116.364543,39.969348,116.377552,1
1101002010B09947,87501dea-7c66-4c48-a640-cfda921da5ab,北京市,北京市,房山区,房山区长阳镇起步区3号地,39.753844,116.181678,39.764012,116.211056,1
1101002012B18878,5b7dc475-f47b-41d1-b1ce-424148467e0c,北京市,北京市,大兴区,大兴区黄村镇王立庄村西,39.706968,116.36502,39.70188,116.355224,1
1101002013B02556,6cbe23ec-f644-48dc-9419-701ef00afd90,北京市,北京市,大兴区,大兴区魏善庄,39.61881,116.414351,39.630064,116.408392,1
1101002008B00194,526cbe6f-2064-4cc6-bb4f-4a3855503101,北京市,北京市,大兴区,北京经济技术开发区36街区,39.801131,116.513005,39.793968,116.48236,1
1101002016B01397,206d4f54-ac2a-483a-89f7-b36435ef5b2c,北京市,北京市,昌平区,海淀区建材城西路16号(1813-666地块) ,40.06582,116.350794,39.8961,116.3,1
1101002016B01498,02d0ec07-5cfb-422c-8160-9623cffa8db4,北京市,北京市,朝阳区,朝阳区广渠路31号东方华府北区中学,39.900508,116.47902,39.923488,116.596648,1
1101002016B01430,b5bfed44-a2ca-461a-b421-f84b7b028f26,北京市,北京市,昌平区,海淀区建材城西路16号(1813-662地块),40.06582,116.350794,39.8961,116.3,1
1101002010B09774,3677f651-6848-46e2-b0ac-79fab32c7da3,北京市,北京市,朝阳区,朝阳区常营乡,39.925755,116.590154,39.86036,116.468096,1
1101002014B03005,0a0502b8-03b5-4733-a288-f790ba9f3cda,北京市,北京市,丰台区,丰台区南苑乡石榴庄村,39.850446,116.429532,39.84292,116.41684,1
1101002015B02490,6babaec3-efec-4167-bf64-71cd94225fda,北京市,北京市,朝阳区,朝阳区华严北里46号,39.989083,116.390696,39.983192,116.380064,1
1101002012B19895,d56cde54-0f1b-4124-8e27-f41411922925,北京市,北京市,昌平区,昌平区小汤山镇,40.166144,116.368652,40.192008,116.462992,1
1101002013B02888,2a85d5e5-35f5-4aab-b52f-b76599881e55,北京市,北京市,昌平区,昌平区北七家镇未来科技城,40.139644,116.474486,40.11644,116.417936,1
1101002012B21201,bb417afa-28ff-4677-92bb-b68c2441019e,北京市,北京市,大兴区,北京经济技术开发区路东区G6街区G6F-4地块,39.801131,116.513005,39.78916,116.491544,1
1101002012B20626,cea9d5f5-2294-45a2-8d22-8906dd6b3343,北京市,北京市,大兴区,大兴区瀛海镇西区,39.750415,116.467538,39.76016,116.445568,1
1101002009B00505,cd1918da-ee18-472c-a854-ecc7d472b2b9,北京市,北京市,朝阳区,朝阳区西坝河东里83号楼,39.971049,116.450829,39.894272,116.4892,1
1101002008B02632,37a46309-146c-479f-ae32-de4430152ab2,北京市,北京市,朝阳区,朝阳区芍药居东区,39.988028,116.441573,39.981024,116.426592,1
1102282008B00098,4c28dc86-1991-41d8-9b3a-87ec2638d230,北京市,北京市,密云县,密云县太师屯镇永安街南侧,40.54366,117.133459,40.53398,117.123128,1
1102282008B00059,3b50df90-3cfd-4985-ba92-930035eb273c,北京市,北京市,密云县,密云县密云镇城后街25号,40.38978,116.847571,40.38274,116.835032,1
1101002008B02656,f7510b34-59e9-472d-b4c6-fbc08fe85721,北京市,北京市,朝阳区,朝阳区芍药居东区,39.988028,116.441573,39.981024,116.426592,1
1101002011B14535,6a8684cf-97d5-4d0e-b1af-261876e11793,北京市,北京市,西城区,西城区前海北沿迤东,39.943714,116.399819,39.935488,116.385688,1
1101002010B11267,55dfc4dc-1d06-4071-9117-61f818571ccf,北京市,北京市,通州区,通州区宋庄镇,39.973118,116.706248,39.9401,116.724984,1
1101002010B11398,0539c1d3-ace1-4dc4-9282-d4c3506940b6,北京市,北京市,朝阳区,朝阳区小营北路南侧（3号地）,40.004154,116.444043,39.99726,116.421056,1
1101002010B11600,be7b2352-71a5-41ae-a35e-9cd5276c9aec,北京市,北京市,顺义区,顺义区牛栏山镇张家庄村,40.215656,116.674708,40.208436,116.665088,1
1101002014B01030,aa201a40-28c5-4bee-bf06-13156912de31,北京市,北京市,丰台区,朝阳区干杨树甲16号西院3号楼小营木材厂新建项目,39.845057,116.399227,39.89622,116.501392,1
1101002016B01340,c6c158bc-10bf-4dbe-9d2d-47f8f5f81740,北京市,北京市,海淀区,海淀区中关村环保园3-3-298地块,39.98727,116.344895,40.056468,116.173264,1
1101002009B07369,16e2a55a-fc74-44bd-9bc9-c1ca870b9dad,北京市,北京市,平谷区,平谷区夏各庄镇（平蓟路北）,40.184988,117.271874,40.175432,117.24352,1
1101132009B00271,3c17e903-38e8-43bb-a2b7-1d3f98aa1ab2,北京市,北京市,顺义区,顺义区仁和镇,40.123973,116.659876,40.116596,116.647568,1
1101002009B04785,6066b34e-e24b-4ae6-95c8-b0c8b06d1690,北京市,北京市,西城区,西城区西单北大街114-118号,39.919378,116.380687,39.912188,116.368056,1
1101002009B04274,2fe6d4a7-594d-4e2d-8094-7b421259dbed,北京市,北京市,房山区,房山区琉璃河地区琉璃河大街86号,39.608808,116.035489,39.59984,116.021696,1
1101002009B04303,9cb24bcf-670f-49a3-bdd7-40f6ecb9ea2a,北京市,北京市,房山区,房山区良乡地区良乡中路117号,39.73757,116.146695,39.7035,116.146232,1
1101002008B06135,3eac14d8-eec9-4987-b8c7-53fd53dc76b6,北京市,北京市,海淀区,海淀区复兴路12号,39.912927,116.329639,39.905652,116.317512,1
1101002014B00467,dd3bd178-c08f-4799-b4a5-9d9013d62f65,北京市,北京市,顺义区,顺义区赵全营镇镇中心区E1-01 E2-01 E3-01等地块,40.221679,116.556276,40.085732,116.751248,1
1101002013B00307,90228b73-212c-4a8d-8791-d73b9e9587c1,北京市,北京市,海淀区,海淀区北下关街道皂君庙甲33号,39.965541,116.343483,39.95672,116.332576,1
1101002013B00184,0062f3e4-8976-4f1e-aab8-6794b1a5620e,北京市,北京市,西城区,西城区广莲路甲5号1幢,39.899524,116.332907,39.892136,116.319896,1
1101002008B01306,a60102ba-d613-4de5-8f1e-1f965170981f,北京市,北京市,顺义区,顺义区天竺镇府前路南侧,40.159388,116.833016,40.05988,116.57184,1
1101002008B01319,f4b78847-9b7c-46fc-aa13-c8a980103ba3,北京市,北京市,顺义区,顺义区天竺镇府前路南侧,40.159388,116.833016,40.05988,116.57184,1
1101002013B00196,53853830-5d26-438c-9e84-8cd104d52f2c,北京市,北京市,西城区,北京市西城区西四东大街18号,39.930067,116.3816,39.92264,116.368872,1
1101002015B00411,5f004fcb-4e1d-4962-9e3d-028e45fd5f0b,北京市,北京市,顺义区,顺义区赵全营镇板桥村F2-01 ,40.212864,116.520436,40.216632,116.521344,1
1101002013B03650,ab563522-48aa-4b65-b866-f5eef2f72569,北京市,北京市,海淀区,海淀区学院南路62号,39.963113,116.344196,39.955872,116.330368,1
1101002016B01569,cb4a886a-2d9f-4afc-a1a1-1dab4233e088,北京市,北京市,朝阳区,朝阳区崔各庄乡东郊农场保障性住房C地块(棚户区改造定向安置房),40.031625,116.533526,39.9967,116.447216,1
1101122011B00175,fa0c7d7e-f87e-48ab-8423-56b04790cbf1,北京市,北京市,通州区,通州区经济开发区东区,39.916017,116.663415,39.913256,116.65108,1
1101002014B01845,6369d9fb-dbe0-4ba4-b247-73b9a502d1ce,北京市,北京市,西城区,西城区后海西沿8号,39.950565,116.386735,39.943448,116.37416,1
1101122011B00077,491f1f94-bade-40ff-8e8d-3781dae54a9a,北京市,北京市,通州区,通州区马驹桥镇物流基地,39.743934,116.618214,39.762472,116.573536,1
1102282011B00047,2388e991-98a3-4a2a-8d22-e92f42b5ca8f,北京市,北京市,密云县,密云经济开发区云西经济开发中心西统路西侧,40.368034,116.818956,40.355448,116.816424,1
1102282015B00139,ec3f4b24-5777-4347-b824-2a8b309243cc,北京市,北京市,密云县,北京密云经济开发区科技路30号,40.368034,116.818956,40.35174,116.811432,1
1101002014B03079,cb7b2a11-c41c-4160-b356-8ec970ad30a7,北京市,北京市,西城区,西城区四环胡同4号,39.947105,116.384942,39.940088,116.371432,1
1101002014B03048,a1fb43fe-4962-4176-8d32-2d4ca6f72f13,北京市,北京市,海淀区,海淀区海淀大街1号,39.988448,116.321979,39.9815,116.309536,1
1101002010B12589,9f01fc44-3423-49c9-b325-0cf76052cc98,北京市,北京市,东城区,东城区朝阳门内南小街233-1号,39.923315,116.432745,39.917244,116.420512,1
1101002013B01682,ceaf93bc-4241-4475-9ee2-acd07b70c8b6,北京市,北京市,西城区,西城区马连道胡同1号,39.886074,116.337632,39.87866,116.322768,1
1101002018B00530,9f797229-83ae-4be1-902d-e60f09d64677,北京市,北京市,怀柔区,北京市怀柔区,40.322618,116.638386,40.314899,116.6259,1
1101002011B15601,73042903-479e-41a9-81d6-8de8f912e277,北京市,北京市,东城区,东城区西园子三巷4号,39.896498,116.421231,39.888912,116.40836,1
1101112012B00119,74e88d37-d105-4dcf-ae05-a2a984a4edbd,北京市,北京市,朝阳区,北京石化新材料科技产业基地核心区东区B2-24-01地块,39.988281,116.489573,39.72548,115.958232,1
1101002014B00511,fb5fac22-72f3-4503-bfa9-94b7e039276c,北京市,北京市,顺义区,北京市顺义区赵全营镇板桥村F1-01地块商业金融用地,40.212864,116.520436,40.216632,116.521344,1
1101002015B00497,d623deb0-5905-4107-9271-f8af712c9c4c,北京市,北京市,朝阳区,朝阳区东柳西里双桥铁路住宅小区(3号地块)定向安置房项目,39.906985,116.577982,39.9051,116.47084,1
1101002008B01526,46f490c3-3ca6-48bd-aad2-899c5dfacd53,北京市,北京市,通州区,通州区车站路9号通州区车站路9号,39.913832,116.668295,39.90456,116.656272,1
1101002008B01043,ae90a0b7-b815-4622-bed8-aca995cc4552C,北京市,北京市,朝阳区,朝阳区定福庄北街甲15号院5号楼,39.927445,116.55968,39.920532,116.547648,1
1101002009B06211,6450a95c-6881-43ea-8c60-b92cd5180981,北京市,北京市,东城区,东城区黄化门街21号,39.936926,116.40593,39.929228,116.393304,1
1101002008B03788,85935036-f933-441f-a73e-41cc1c440979,北京市,北京市,怀柔区,怀柔区南大街2号,40.319022,116.643623,40.31152,116.631984,1
1101002009B01328,dd1b541c-b822-4fe3-8b75-c40f1c7a912c,北京市,北京市,大兴区,北京经济技术开发区49#街区49C1地块,39.801131,116.513005,39.78916,116.491544,1
1102282008B00048,a09880a2-f934-450b-994b-fcdba71a735e,北京市,北京市,密云县,密云县密云镇华远市场东侧,40.532843,117.001201,40.366,116.851792,1
1101002008B02268,b12a6bb9-b8a7-478b-9253-efbc3ac8792e,北京市,北京市,朝阳区,朝阳区立水桥朝阳区北苑南区,40.03445,116.427719,40.045296,116.405896,1
1101002008B02246,ecdc4a41-4955-45c9-8904-7ebf0c8f9ba2,北京市,北京市,大兴区,大兴区黄村镇兴丰北大街71号,39.738588,116.345839,39.741968,116.33404,1
1101172012B00017,50e17b75-0a04-4dee-abb6-2ca67b3d0272,北京市,北京市,平谷区,北京市平谷区新城北部产业用地M2-8区6号,40.146951,117.127379,40.133568,117.110288,1
1101172011B00118,c2a07d8d-3331-4fbe-97fb-89ba29eec628,北京市,北京市,平谷区,北京马坊工业园区内,40.051923,117.015662,40.04438,117.002296,1
1101112011B00227,802cac34-fa7a-4cbe-88cf-ac2ea237e936,北京市,北京市,房山区,房山区阎村镇焦庄村 大董村,39.729663,116.050006,39.72364,116.049048,1
1101002010B08709,1e1e07f0-aea7-42d0-9792-34b5dd721737,北京市,北京市,通州区,通州区梨园镇半壁店村,39.888465,116.638476,39.882128,116.632088,1
1101172009B00074,6402d330-8020-4729-a810-941d3fece246,北京市,北京市,平谷区,北京市平谷区马坊工业园区,40.051923,117.015662,40.042096,116.997024,1
1101002009B04683,7647d4a5-0d1e-4636-a999-5dddc06a73de,北京市,北京市,东城区,北京市东城区金鱼胡同18号,39.92146,116.420971,39.913848,116.40816,1
1101172009B00049,9a103e8f-abc1-420d-9ccd-feb9a1674a1d,北京市,北京市,平谷区,北京市平谷区马坊镇英城村北侧,40.089466,117.019199,40.081924,117.006504,1
1101122009B00071,dc541f8a-a9bb-48a1-8264-444305a3d2c9,北京市,北京市,通州区,北京市通州区马驹桥镇金桥科技产业基地,39.741869,116.563226,39.7284,116.55828,1
1101002009B03887,73467f99-1103-4855-a2de-f700661fd36b,北京市,北京市,海淀区,海淀区香山门头村礼王坟5号,39.977728,116.219693,39.970792,116.206968,1
1101002009B04880,7ce081b7-9cf2-4961-b091-73f7fcb18fad,北京市,北京市,西城区,宣武区铁树斜街13号,39.900431,116.397037,39.88616,116.383472,1
1101002008B00648,afda50f8-d089-405b-8b96-5ef2f6e6f012,北京市,北京市,石景山区,石景山区高井,39.950048,116.140481,39.93496,116.129696,1
1101002008B00626,128d9e91-59b3-4834-9edd-a026726a114e,北京市,北京市,石景山区,石景山区高井,39.950048,116.140481,39.93496,116.129696,1
1101002008B03752,7ae1dbff-820c-4ca4-9f55-84635f51f248,北京市,北京市,东城区,东城区东四北大街14号,39.946094,116.423474,39.931072,116.411016,1
1101002009B06565,82cd1ad5-8036-4d5e-9736-9c478b17f662,北京市,北京市,朝阳区,朝阳区姚家园114号商业金融用地,39.937975,116.522006,39.92532,116.478832,1
1101002012B21134,a348b1d5-ad61-4696-9cc0-421ed9987e0c,北京市,北京市,门头沟区,北京经济技术开发区路东区E16街区E16C1-1 E16C1-2地块,39.899985,116.125949,39.78916,116.491544,1
1101002011B15309,4735daf8-07d9-4dfe-9566-a26077ff9415,北京市,北京市,门头沟区,门头沟区公路分局琉璃渠料库,39.976751,116.095641,39.969892,116.081896,1
1101002008B04608,75f88c0a-19f1-457c-aee2-ebd6e982cf3f,北京市,北京市,昌平区,昌平区东小口镇,40.06461,116.414784,40.07964,116.36068,1
1101002009B06788,99cdb649-2596-4b94-8c00-04128e9d9b01,北京市,北京市,丰台区,丰台区丰台镇西刘庄子87号,39.865119,116.291415,39.84674,116.27468,1
1101002012B20199,b14a9c0d-10fc-4107-8de0-25fcb4247044,北京市,北京市,昌平区,昌平区回龙观镇西城区旧城保护定向安置房二期738地块,40.086467,116.354052,40.073828,116.314496,1
1101002012B20287,01c36a74-ca2f-4a74-843e-ed0b46b00b39,北京市,北京市,门头沟区,门头沟区黑山地区-2号26-308地块,39.946147,116.107604,39.940804,116.08704,1
1101002012B20305,f0e3a2e6-b21f-4611-9485-ff682d162e0d,北京市,北京市,西城区,西城区阜成门内大街219号,39.929841,116.368427,39.922612,116.355656,1
1102282011B00094,ac765ea3-b5c5-4961-9a2f-2e4f6abf040c,北京市,北京市,密云县,北京密云经济开发区兴盛南路13号,40.368034,116.818956,40.35174,116.811432,1
1101002012B19776,c0a86669-c715-4201-8cce-4bbdcc13df4a,北京市,北京市,丰台区,房山区房山线长阳西站5号地01-06-02等二类居住 商业金融用地,39.845578,116.251598,39.76934,116.181088,1
1101002014B03219,0ffca534-57ea-4518-980d-b03829a8ab71,北京市,北京市,延庆县,北京市延庆县旧县镇三里庄村西北地块C8旅游设施用地,40.573264,116.071375,40.57056,116.062664,1
1101112011B00059,92904c88-8818-476c-8404-90c4f33534bf,北京市,北京市,房山区,房山区阎村镇,39.715224,116.106686,39.731144,116.088936,1
1101002011B15285,e966512e-5a09-484b-9eba-6c61d5c18af2,北京市,北京市,大兴区,北京市大兴区生物医药基地东配套10号地二类居住用地项目,39.507914,116.322221,39.686192,116.316288,1
1101002013B00757,cf5638c3-00d2-4b1b-99c1-80c80f717fe2,北京市,北京市,东城区,北京市东城区崇文门路口东南角,39.934827,116.422401,39.899472,116.414776,1
1101002014B01173,95894150-828c-4b67-97c5-755d59517868,北京市,北京市,东城区,东城区南门仓胡同22号迤北,39.93533,116.438227,39.927732,116.422288,1
1101002009B06422,cd1c2c35-5810-420c-92eb-8896aa777beaC,北京市,北京市,大兴区,大兴区新城北区22号地-1地块,39.732555,116.348625,39.756648,116.305352,1
1101002008B03704,042f4040-4c81-4a8f-b6ba-b2f3141336a1,北京市,北京市,朝阳区,朝阳区北苑路大羊坊6号院,40.043436,116.428338,40.034652,116.412112,1
1101002011B00269,1a94fd9e-77e2-499d-aba7-898e9ea22c38,北京市,北京市,朝阳区,朝阳区东三环北京商务中心（CBD）核心区,39.988281,116.489573,39.925272,116.454016,1
1101002011B16745,30a1a912-0752-444b-82c2-9f6bbe30fe4c,北京市,北京市,丰台区,丰台区卢沟桥乡,39.866134,116.256215,39.866,116.2886,1
1101002008B02378,627b4b43-f751-4cf1-9173-90899281ac95,北京市,北京市,海淀区,海淀区中关村东路106号,39.979201,116.341243,39.972452,116.327984,1
1101002012B18287,fd65f76a-c019-4e9b-b6a0-754e8892c4ff,北京市,北京市,东城区,东城区东四十一条28号,39.940134,116.431398,39.932988,116.415408,1
1101122012B00069,eb886689-2170-4b49-9e4f-1641689fbba7,北京市,北京市,通州区,通州区马驹桥镇金桥科技产业基地,39.741869,116.563226,39.7284,116.55828,1
1101122009B00136,56aeba39-b5da-435b-b1ab-2b466b3cdf02,北京市,北京市,通州区,通州区经济开发区东区,39.916017,116.663415,39.913256,116.65108,1
1101002011B15566,3a0c77f3-f11b-4eb9-bf8e-b3f9d758dc4e,北京市,北京市,朝阳区,北京市朝阳区管庄,39.920029,116.596516,39.9013,116.580048,1
1101002009B00090,6edeb17b-9628-4f0a-95fb-37ca1af58e5e,北京市,北京市,东城区,崇文区永建里6号,39.873845,116.397113,39.865848,116.385456,1
1101002009B00041,b0ad90ef-7593-419c-9f8f-2b5c623610be,北京市,北京市,西城区,宣武区宣武门西大街2号楼东（加油站）,39.905473,116.378692,39.897932,116.366896,1
1101002009B00639,1e2d77a3-163e-4dc6-83d7-131c4e68a4eb,北京市,北京市,朝阳区,朝阳区呼家楼北街乙4号,39.928232,116.47415,39.921188,116.46176,1
1101002009B04575,4965d90c-152b-4ba0-8ee9-d1733343eef8,北京市,北京市,西城区,西城区西四北八条39 41号,39.937421,116.379552,39.888052,116.324872,1
1101002016B01140,d01428fb-cc5e-4547-be80-0d5f013ea6ba,北京市,北京市,昌平区,昌平区流村镇北流村,40.180375,116.083396,40.181424,116.057976,1
1101142013B00014,5183456d-4bef-4767-bef9-0ead97ff0606,北京市,北京市,昌平区,昌平区沙河镇,40.14046,116.287711,40.12244,116.320608,1
1101002009B07470,ca505c02-667b-463b-b71e-0d408d1a25de,北京市,北京市,朝阳区,朝阳区酒仙桥北路9号,39.993706,116.498124,39.986808,116.486384,1
1101002008B03096,3af727b4-f722-4c53-b224-aa7207a90d80,北京市,北京市,昌平区,昌平区东小口镇CY-09地块昌平区东小口镇陈营村,40.054592,116.408167,40.046448,116.393064,1
1102292012B00059,91dcca9d-b9c3-4b3d-9c3c-fad3a8eee22f,北京市,北京市,延庆县,延庆县白莲路西侧,40.545156,116.169735,40.460208,115.995304,1
1101002012B19578,fe681a47-f3da-401a-9f57-9a032a062a35,北京市,北京市,门头沟区,北京市门头沟龙泉镇F1住宅混合公建用地项目,39.962089,116.116387,39.94902,116.106888,1
1101002012B18708,0661df20-0cce-4343-9888-206e3ba9dd35,北京市,北京市,昌平区,昌平区回龙观镇回龙观村,40.07771,116.320395,40.073492,116.29928,1
1101002016B00914,8e4a2e12-4889-4d50-b07c-05517d4d28ac,北京市,北京市,房山区,房山区长阳镇独义村“碧岸澜庭”合作建房遗留项目02-1-04地块,39.805644,116.221193,39.797176,116.214248,1
1101002008B03633,a6ed4ac1-acd0-42ed-af2e-c9de41d576e3,北京市,北京市,房山区,房山区窦店镇田家园小区,39.664214,116.072835,39.655808,116.06064,1
1101002012B20121,f9c6eb11-886e-4112-b38f-dddaf0a57340,北京市,北京市,朝阳区,朝阳区东坝三岔河大队（东苇路东侧）,39.974866,116.578838,40.001516,116.559952,1
1101002013B01339,2c4ad60e-3e26-4678-9a51-8c751a827c97,北京市,北京市,海淀区,海淀区苏家坨镇前沙涧北区,40.113411,116.155687,40.102808,116.142736,1
1101002010B09534,8ea68d79-7718-4be2-a7ec-3644d24afecf,北京市,北京市,昌平区,昌平区小汤山镇土沟村(北京低碳能源研究所及神华技术创新基地C6区C地块),40.167469,116.253207,40.1277,116.467968,1
1101002010B09428,77fce85b-0434-4b8e-842d-ee03e07fb979,北京市,北京市,西城区,北京市宣武区宣武门西大街28号院,39.903354,116.359974,39.895948,116.348256,1
1101002010B09497,ccd78b87-9eb4-41e6-8292-8189dced651a,北京市,北京市,丰台区,丰台区北大地四里12号楼,39.863915,116.289833,39.868376,116.431656,1
1101002010B09500,5a6cebf0-0a1f-4462-be71-ee7bce8affd5,北京市,北京市,昌平区,昌平区沙河镇巩华城大街8号,40.128839,116.27527,40.148012,116.28408,1
1101002010B09484,bf3f6164-25c3-4a81-ac23-dc74d2a730f0,北京市,北京市,平谷区,平谷区新平北路77号,40.152043,117.13632,40.1446,117.123264,1
1101132009B00141,93f1cb94-9da8-47b4-baf8-037bcabc7c69,北京市,北京市,顺义区,高丽营镇,40.163052,116.545931,40.169,116.47588,1
1101002008B02436,e1da4f3a-cbfc-457b-b671-6074b5bd16c3,北京市,北京市,海淀区,海淀区昌运宫17号,39.946096,116.31566,39.93862,116.305888,1
1101002012B17628,f88ef835-2ead-4fb0-9a0f-46a27c2c83f7,北京市,北京市,门头沟区,北京市门头沟区,39.946147,116.107604,39.939078,116.095132,1
1101002009B07969,226f9cba-3abe-4a9b-8db5-024c191245ac,北京市,北京市,朝阳区,朝阳区洼里乡,40.019222,116.368813,40.022796,116.387424,1
1101002008B01988,2962cf07-51a1-45d3-a150-314f8a8968cf,北京市,北京市,房山区,房山区良乡黄土坑77号,39.741621,116.159602,39.7035,116.146232,1
1101002012B20149,79b50102-278d-47cb-97e8-4fb21cf7fd7c,北京市,北京市,东城区,东城区东四七条73号,39.937737,116.426512,39.914408,116.42324,1
1101002012B20250,08f6e3a2-ec70-4c52-aac9-dadf62279e13,北京市,北京市,朝阳区,朝阳区松榆南路36号,39.876738,116.481507,39.86966,116.46876,1
1101112013B00186,7a2d11b7-aa46-49b8-88c8-d45620e455ab,北京市,北京市,房山区,北京市房山区窦店产业用地03街区J区工业用地,39.66241,116.07711,39.6503,116.06176,1
1101002016B01229,b324e272-4a7c-4d2f-a783-84145837ee7c,北京市,北京市,西城区,西城区前马厂胡同45号,39.950446,116.398556,39.942236,116.38556,1
1101002016B01234,7ccbd783-7dae-49e1-b156-7756ae07c55e,北京市,北京市,东城区,北京经济技术开发区路东区B10M1地块,39.910925,116.413384,39.78916,116.491544,1
1101002012B21117,a4408f48-7645-477f-854d-7aa340b74f5f,北京市,北京市,朝阳区,朝阳区奥体南区OS-02地块A座,39.991799,116.410558,39.906572,116.435472,1
1101002012B20729,ddf10435-4ae9-40f1-91b9-035a8d5c63b1,北京市,北京市,通州区,通州区永顺镇范庄村,39.945302,116.667072,39.9362,116.656504,1
1101082016B00013,e1e6a4d4-f2cb-4ec4-b7f5-34640f14f430,北京市,北京市,海淀区,北京市海淀区丰德东路9号,40.087675,116.248938,40.080428,116.23632,1
1101002012B20936,9190556a-0d64-4c1f-900e-a3797bfbb37d,北京市,北京市,东城区,东城区东四十四条75号,39.933542,116.426793,39.933056,116.413952,1
1101002011B16644,e0ac4066-544c-46ed-8d9c-3c448c258e6e,北京市,北京市,顺义区,顺义区新城22街区,40.136351,116.661424,40.123092,116.65048,1
1101002011B00597,11474848-49d2-4040-87f6-786d11958de6,北京市,北京市,大兴区,大兴区新城北区,39.732555,116.348625,39.725506,116.335301,1
1101002011B17526,012268b8-5754-42a4-a823-5947fc7ee7d8,北京市,北京市,房山区,房山区城关街道兴房大街5号,39.703912,115.998754,39.69698,115.985896,1
1101002009B05609,5a857a98-efb9-4c2b-a076-6a6535b0672e,北京市,北京市,密云县,密云县密云镇滨河路,40.377482,116.845007,40.36822,116.833456,1
1101002008B03475,cf4d6a7f-50e4-4b07-9663-5821ba61d9cd,北京市,北京市,西城区,西城区新文化街甲62号,39.909706,116.372617,39.904052,116.364864,1
1101002008B03039,16bec027-cf34-4c5f-9e63-58c97c053dcc,北京市,北京市,朝阳区,朝阳区安慧里三区10号楼,39.997271,116.41507,39.98972,116.404584,1
1101002009B07079,fff3036e-0ba0-41ff-b74e-c844d1a0f08eC,北京市,北京市,朝阳区,朝阳区王四营乡,39.879726,116.540797,39.882092,116.53748,1
1101132014B00091,aecde659-fd9d-4fa7-b609-f8d788821915,北京市,北京市,顺义区,中关村临空国际高新技术产业基地,40.175518,116.581709,40.071736,116.232952,1
1101002008B03040,78592d24-d93d-4937-a22b-df8a46e06abe,北京市,北京市,丰台区,丰台区育菲园东里4号,39.853553,116.328191,39.812932,116.402896,1
1101002008B02879,2bbff287-04c4-4872-841b-df3c70c4a8fc,北京市,北京市,顺义区,顺义区首都机场,40.054439,116.597531,40.069208,116.57084,1
1101002009B05349,a61c37d2-8061-428e-9a88-5af8a9490ced,北京市,北京市,昌平区,昌平区昌平镇府学路5号,40.228078,116.266303,40.221808,116.21424,1
1101002012B20928,e01e8b17-02af-4c51-922e-e5f69b614fa5,北京市,北京市,朝阳区,朝阳区三丰里7号楼,39.924808,116.443887,39.91706,116.4316,1
1101002014B00279,fed454c3-bd14-4ab5-bd1a-0019cda64a34,北京市,北京市,海淀区,海淀区北三环中路67号,39.974199,116.37434,39.966656,116.360232,1
1101002009B01411,1969da36-db6b-4269-a99e-55cd33f68d4a,北京市,北京市,延庆县,八达岭镇,40.338385,115.972998,40.36124,115.971832,1
1101122010B00069,51cdf4e9-38ff-40aa-94d2-8dffa6e21885,北京市,北京市,通州区,通州区马驹桥镇金桥科技产业基地,39.741869,116.563226,39.7284,116.55828,1
1101122010B00041,52d73f7b-38bc-4318-a762-aea65160af50,北京市,北京市,通州区,通州区马驹桥镇金桥科技产业基地,39.741869,116.563226,39.7284,116.55828,1
1101002008B01794,0e933054-5075-4305-9b36-d297aba281b5,北京市,北京市,房山区,房山区拱辰街道月华大街甲30号,39.735938,116.130256,39.729908,116.137104,1
1101002013B01773,3201b002-ad10-454e-9cfc-620d806f3414,北京市,北京市,丰台区,丰台区花乡葆台村回迁安置房A区,39.83802,116.337168,39.80762,116.290376,1
1101002013B04551,11ffa8a7-a3fb-4f93-a562-b233fe973fde,北京市,北京市,朝阳区,北京市朝阳区东坝南区1105-654 656 658号地,39.973693,116.565403,39.957388,116.541296,1
1101002010B12317,f7adfb94-a11c-4929-8a56-c78f22ac3cdf,北京市,北京市,丰台区,丰台区大井西路彩虹家园南区,39.857377,116.274738,39.86522,116.253296,1
1101002010B08046,15899bd7-cd26-4147-8845-77486b764f80,北京市,北京市,昌平区,昌平区回龙观镇科星西路39号楼,40.082707,116.362896,40.0735,116.352536,1
1101002013B04464,e625a113-cfe5-459b-a2d4-170692f32767,北京市,北京市,顺义区,顺义区北务镇珠宝屯村,40.046171,116.812331,40.035672,116.7988,1
1101002013B01530,a78ce1c3-d54c-4eff-b871-2bb444c65b34,北京市,北京市,石景山区,北京市石景山区鲁谷路C2商业金融用地（原北京市弹簧厂）项目,39.909402,116.218915,39.90576,116.207952,1
1101002013B04087,9fb686fb-1b79-451d-b3f5-1fa0b87bf2c9,北京市,北京市,昌平区,昌平区沙河镇C―X06 C―X07 C―X10地块,40.14046,116.287711,40.148012,116.28408,1
1101002013B04100,08f432ba-9944-4f19-b752-bc805201c9c5,北京市,北京市,大兴区,大兴区孙村组团居住区B-17地块R2二类居住用地项目（配建限价商品住房）,39.712727,116.402311,39.706376,116.39596,1
1101122008B00070,5164b16f-85e1-4db9-a43b-64078d41b201,北京市,北京市,通州区,通州区马驹桥镇金桥科技产业基地,39.741869,116.563226,39.7284,116.55828,1
1101002013B03706,e2f57a5e-2b04-49d4-a24e-2f854ebcc8fc,北京市,北京市,大兴区,大兴区团河地区首座御园三期北,39.760612,116.370307,39.737512,116.366968,1
1101002009B05508,23ecc711-f77e-402e-bfb7-256629f87ca8,北京市,北京市,海淀区,海淀区北太平庄路29号,39.976729,116.375721,40.0363,116.32572,1
1101002011B13175,2ba74dc7-0a33-47b7-a98d-cd758214b87c,北京市,北京市,朝阳区,朝阳区芍药居北里117号楼,39.993105,116.441047,39.9859,116.42828,1
1101002011B16269,dcd5f1af-5271-42f1-9344-838c564c3657,北京市,北京市,房山区,房山区青龙湖镇坨里村西262号,39.783389,116.041262,39.72234,116.099432,1
1101002013B00071,ba9dba58-912e-480b-a9c5-f6f6d0cb9ca3,北京市,北京市,通州区,北京市通州区永顺镇北苑商务区西区商业金融 居住及托幼项目,39.912225,116.637912,39.89,116.638736,1
1101002013B00027,faa05983-611f-495f-b053-2f11902804f6,北京市,北京市,大兴区,大兴区芦城乡狼垡三村,39.791428,116.292762,39.782292,116.283512,1
1101002013B04540,913b7fe5-bdd9-414c-beee-e91daf1b7336,北京市,北京市,朝阳区,北京市朝阳区东坝南区1105-655 657号地二类居住 小学用地（配建限价商品住房）,39.973693,116.565403,39.9641,116.545384,1
1101002012B20169,c1d981de-636b-4e19-911e-129e46e9e65b,北京市,北京市,昌平区,昌平区回龙观镇旧城保护定向安置房二期720地块综合 地下车库项目,40.086467,116.354052,40.063692,116.323384,1
1101002011B17573,7ab37f19-eea3-4c91-9a40-0b84a51f08b9,北京市,北京市,平谷区,平谷区夏各庄镇夏各庄村,40.130648,117.177097,40.127312,117.171656,1
1101002018B00846,ac2c5eef-70b3-48b6-8290-857d2eaef068,北京市,北京市,房山区,房山区拱辰街道葫芦垡村西房山理工大学站10号地公共租赁住房项目18-04-15地块,39.752511,116.152911,39.705492,116.21584,1
1101002009B00268,bd93509b-efca-45c2-bb89-12e6b141f258,北京市,北京市,海淀区,丰台区莲花西里28号,39.897517,116.309516,39.881372,116.310688,1
1101002008B01207,3d2b0a3c-3b9f-48e3-8c31-b3ec3470c71f,北京市,北京市,东城区,东城区礼士胡同77号,39.928182,116.428665,39.920648,116.41504,1
1101002009B04706,acd4b236-85df-47b3-b65b-734e7425baf5,北京市,北京市,西城区,西城区北玉带胡同5号,39.933471,116.363492,39.903004,116.377048,1
1101002009B04748,df3d679f-132a-41af-af3f-b84093c60523,北京市,北京市,西城区,西城区宏大胡同25号迤西,39.933463,116.364079,39.901228,116.37148,1
1101002010B07747,02a9bfba-9816-4664-a95b-12d60c5f1fd1,北京市,北京市,丰台区,丰台区大红门北天津庄95号商业金融项目用地,39.840472,116.385778,39.82796,116.37256,1
1101132011B00186,a8762c0f-7b14-47e0-8d35-d8d15e052d65,北京市,北京市,通州区,北小营,39.80005,116.601671,40.156716,116.74008,1
1101002011B15645,18777baa-b0eb-4c15-a154-bb1a5e33a11c,北京市,北京市,通州区,通州区马驹桥镇,39.743934,116.618214,39.760476,116.609976,1
1101002011B15865,e7f014e4-5833-483a-b688-480974707be7,北京市,北京市,朝阳区,朝阳区姚家园,39.947437,116.529458,39.936688,116.51572,1
1101002018B00939,a4df6d10-9bb4-4b8c-83fa-a5023ef0522f,北京市,北京市,东城区,东城区板桥南巷18号2幢,39.945139,116.424117,39.93704,116.4112,1
1101002018B00958,e2115e0e-f8d4-4916-94e7-59c6a4148c46,北京市,北京市,朝阳区,朝阳区东四环大郊亭4号广华新城居住区615和621地块职工安置住宅（615地块）,39.889192,116.498958,39.881824,116.493832,1
1101002013B04782,1fb6e817-a3cc-4074-ba02-713ea3dfe52d,北京市,北京市,东城区,北京经济技术开发区路南区N15街区N15M1 N15F1地块,39.910925,116.413384,39.78916,116.491544,1
1101002013B04797,afa90f8b-3e11-4e3f-8bb7-4eb18d827986,北京市,北京市,东城区,北京经济技术开发区路南区N16街区N16M1 N16F1地块,39.910925,116.413384,39.78916,116.491544,1
1101002010B10214,c8fd55b0-11ec-4fc8-a1d6-b60ff8d41657,北京市,北京市,东城区,东城区东四北大街398号,39.934246,116.423959,39.931072,116.411016,1
1101002015B00746,72041488-dd74-4c46-86d6-9e71ba3544ac,北京市,北京市,东城区,东城区隆福寺街75号,39.931938,116.421115,39.886924,116.425136,1
1101002013B04371,253969dc-90af-4d7e-af76-2fde9f614308,北京市,北京市,通州区,北京市通州区,39.916017,116.663415,39.908925,116.650929,1
1101002010B12991,5e486837-5c82-4a8d-aa15-008607c404be,北京市,北京市,石景山区,石景山区西黄村西口,39.938589,116.204098,39.904384,116.21696,1
1101002010B13006,183acdd2-1bb0-4f0b-992e-240c8627b188,北京市,北京市,东城区,东城区美术馆后街61号,39.936809,116.415127,39.930964,116.403152,1
1101002012B20041,87c1eb78-262c-4fae-b425-92a0055a5379,北京市,北京市,朝阳区,朝阳区大黄庄南里16号楼,39.918762,116.55342,39.894272,116.4892,1
1101002012B18149,7603a00b-5db7-4c51-bf66-4a1f8d45b3ac,北京市,北京市,西城区,西城区煤市街88号,39.901194,116.401238,39.89346,116.388552,1
1101002011B13676,edb8a260-a78d-4b69-9cb4-f0e74893086a,北京市,北京市,西城区,西城区德胜门内大街219 甲219号,39.945015,116.385563,39.93972,116.372976,1
1101002013B04911,446b6eb0-dd41-4294-83d1-0931cff7544e,北京市,北京市,丰台区,丰台区南苑乡石榴庄南里7号,39.843237,116.432037,39.80198,116.3766,1
1101002009B01546,0b2723a3-23a3-48c8-b07a-d8a595a7d513,北京市,北京市,海淀区,常营二期经济适用房,39.996293,116.345868,40.083612,116.350248,1
1101002009B04773,77b77074-4bd5-47f1-87e8-431b8769ab66,北京市,北京市,顺义区,顺义区顺高公路南侧（金属结构厂）,40.167119,116.838749,40.1602,116.826248,1
1101002009B05626,0fdbbaba-c491-4f55-8b4b-fd6dbac8d0c4,北京市,北京市,门头沟区,石门营经济适用住房二期居住用地3配套商业,39.896573,116.114428,39.889488,116.10148,1
1101002011B14628,83214b40-af73-42a7-8725-9c397ed39aba,北京市,北京市,平谷区,平谷区马坊,40.061252,117.014643,40.056696,116.961896,1
1101002011B14475,c717f509-9c12-4157-ac9b-6cda6ddf6f6d,北京市,北京市,东城区,东城区方家胡同19号 21号,39.950438,116.419323,39.942748,116.406536,1
1101122012B00070,07f4267f-2de8-4801-b257-25a4630f0bc9,北京市,北京市,通州区,通州区马驹桥镇金桥科技产业基地,39.741869,116.563226,39.7284,116.55828,1
1101152011B00416,55b49750-d67c-4dfd-88b8-27b35754e498,北京市,北京市,大兴区,中关村科技园区大兴生物医药产业基地,39.697969,116.325793,39.69086,116.31296,1
1101002016B00527,a1194fb8-3476-44d1-8c21-9f2fcefe4218,北京市,北京市,海淀区,海淀区环保园3-3-289地块,39.96549,116.305434,40.056468,116.173264,1
1101152012B00106,b07a3ffa-98a7-4c3c-9864-e30dd627aefd,北京市,北京市,大兴区,北京市大兴区黄村镇孙村组团,39.706174,116.389949,39.706376,116.39596,1
1101002016B00087,17614a3e-3db3-46ad-bb14-f71553f0dd0b,北京市,北京市,密云县,密云县密云镇站西路南侧密云云北小区二期经济适用房经营性配套用地项目,40.406524,116.858043,40.39796,116.845832,1
1101002016B00079,11b6c18a-e18d-42f3-8166-6668bc20c431,北京市,北京市,延庆县,延庆县张山营镇韩郝庄京能北京八达岭太阳能综合试点工程用地,40.534294,116.015984,40.52696,116.0032,1
1101002009B07129,670eac64-f5d0-4308-a6a9-5fe181f31ed2,北京市,北京市,朝阳区,朝阳区东坝乡朝阳新城E组团用地,39.954846,116.56107,39.94994,116.550464,1
1101002016B01094,b2129ba7-5222-49cb-8d2e-666067fbbe16,北京市,北京市,房山区,北京市房山区拱辰街道FS00-LX07-0097地块B4综合性商业金融服务业用地,39.752511,116.152911,39.730352,116.137864,1
1101002009B00696,5b8ad598-1bfe-47b6-9dfc-3f3f3bc82d44,北京市,北京市,朝阳区,朝阳区西坝河西里10号楼,39.971292,116.444245,39.894272,116.4892,1
1101002013B01744,ee796b5a-be82-4e63-9865-86851dda330b,北京市,北京市,石景山区,石景山区铸造村,39.931481,116.159629,39.9238,116.14708,1
1101002013B04347,0fda5daf-a9fc-4376-bcb8-3662724ae64f,北京市,北京市,延庆县,延庆县旧县镇旧小路4号,40.555526,116.091985,40.54822,116.078944,1
1101002015B01606,2d9281a7-4dc0-4268-a278-53c624cc9149,北京市,北京市,房山区,房山区拱辰街道16-01-07等地块,39.752511,116.152911,39.729908,116.137104,1
1101002009B07021,18c6b8b2-7e71-4352-b118-85525ff960ab,北京市,北京市,朝阳区,朝阳区劲松三区326号楼,39.888621,116.464995,39.910832,116.55228,1
1101002014B03408,d28b21e6-8b55-4b46-8e46-74eff709f522,北京市,北京市,朝阳区,北京市朝阳区东坝南区11505-659 029地块二类居住 商业金融用地,39.973693,116.565403,39.957388,116.541296,1
1101002009B06762,f087345e-1903-4057-9569-b72ee866ebb2,北京市,北京市,西城区,西城区新街口北大街108号,39.948372,116.379159,39.94084,116.366416,1
1101002010B10011,81cfc8e4-8852-4556-8bfc-2fef4303a49c,北京市,北京市,朝阳区,朝阳区安立路78 80号,40.051944,116.418435,40.003692,116.402136,1
1101002010B10116,4196b842-c289-45e2-a038-88cc3f6c04b8,北京市,北京市,大兴区,土地座落： 大兴区黄村镇团河路北侧 ,39.77233,116.387099,39.766208,116.554072,1
1101002010B10036,e9fac7b2-3254-4be5-a4e6-d25ebacc5045,北京市,北京市,丰台区,大兴区旧宫镇万源北路万源小区,39.808686,116.432696,39.80318,116.420056,1
1101002010B16290,119185c7-652b-4f93-bd80-0141cbb8d80e,北京市,北京市,东城区,北京经济技术开发区路东区B6街区B6M4地块,39.910925,116.413384,39.78916,116.491544,1
1101002012B20816,bfa68817-7836-47e8-ba48-e177e17289ca,北京市,北京市,通州区,通州区潞城镇东杨庄村TZ0505-52地块,39.91989,116.712281,39.916528,116.69712,1
1101002012B20783,4c984c7c-44e1-4dce-bcb6-584d1a70d7b2,北京市,北京市,海淀区,海淀区中关村软件园,40.054472,116.298938,40.051208,116.290456,1
1101112014B00034,fa404597-99ac-47f0-948c-5eb70da0c8a0,北京市,北京市,房山区,北京市房山区窦店产业用地01街区01-01至01-08地块B区二期工业用地,39.66241,116.07711,39.6503,116.06176,1
1101002014B02982,4641061c-cd99-423b-959d-7767ebcba101,北京市,北京市,海淀区,海淀区清华东路9号院,40.007496,116.36933,39.924772,116.281488,1
1101002015B01276,29fdfb49-6ee7-4321-a816-c31404dd55b2,北京市,北京市,朝阳区,朝阳区东土城路5号,39.962505,116.438543,39.955452,116.424744,1
1101002015B01293,c4db3103-e291-40f0-93fd-5347e1ebd3f6,北京市,北京市,昌平区,昌平区沙河镇创新基地C-18地块,40.167469,116.253207,40.0952,116.283016,1
1101002016B00374,35e75f08-0c64-43e0-a977-1b0c6ee0edb4,北京市,北京市,昌平区,昌平区回龙观镇国际信息产业基地E2地块,40.117132,116.302841,40.109508,116.29052,1
1101002011B16511,6c919308-8b51-4717-be79-bfb3e6e86c01,北京市,北京市,房山区,房山区长阳镇军留庄村,39.771469,116.209287,39.76442,116.1966,1
1101002018B01298,b25a6cf6-09b7-47d4-8f08-3c72d3757e64,北京市,北京市,门头沟区,门头沟区永定镇石门营村,39.897948,116.115376,39.898652,116.0972,1
1101002018B01230,a35c3bbe-c052-42bf-ace7-a99282ce0070,北京市,北京市,西城区,西城区横二条2号6层1-37,39.918039,116.383168,39.886208,116.358008,1
1101112013B00238,43cfd252-df17-4b9e-97de-885f41675d5f,北京市,北京市,房山区,北京市房山区窦店产业用地03街区H区工业用地,39.66241,116.07711,39.6503,116.06176,1
1101002014B00305,5e4b8fe1-2e90-4765-9e0a-a79ba512fb7c,北京市,北京市,怀柔区,怀柔区青春路56号,40.331106,116.641399,40.3127,116.624704,1
1101142012B00229,30975a7f-29df-499d-b72a-a8b9045a3c85,北京市,北京市,昌平区,昌平区科技园区超前路35号,40.210391,116.261359,40.205504,116.235,1
1101152013B00233,9fa93a9c-4937-40f0-abbe-125965c28077,北京市,北京市,大兴区,大兴区西红门镇,39.771681,116.38875,39.79294,116.341168,1
1101002010B09971,ce6a3728-5719-4526-be99-923fb93cae58,北京市,北京市,顺义区,顺义区板桥创意天承,40.229962,116.519175,40.245844,116.691032,1
1101002013B02428,7d510c3e-e8b9-45d3-84c0-32ecde826ad4,北京市,北京市,朝阳区,朝阳区平房乡姚家园10号,39.938609,116.523413,39.935628,116.5244,1
1101002008B02975,4f34d410-ff3f-429a-a85c-d4a0a6b4b37e,北京市,北京市,西城区,宣武区虎坊路22号楼1-1号,39.89197,116.394602,39.88616,116.383472,1
1101002008B03028,9fb76663-b1e6-4a21-80be-d5c254118b8c,北京市,北京市,海淀区,海淀区复兴路乙11号,39.916266,116.326922,39.909292,116.314104,1
1101002016B01209,f420a07c-7fb2-440c-b765-8418dd9723f8,北京市,北京市,大兴区,北京经济技术开发区河西区X52M1地块,39.801131,116.513005,39.78916,116.491544,1
1101002009B06701,7b864b5b-ee46-4c1e-91ad-33814b407a77,北京市,北京市,朝阳区,朝阳区西坝河东里83号楼,39.971049,116.450829,39.894272,116.4892,1
1101002012B18391,0a28b579-aaf8-4085-9fc4-accef4c7d058,北京市,北京市,西城区,北京市西城区广安门南滨河路31号,39.886702,116.355276,39.879212,116.342336,1
1101002012B18403,ebe6a3a0-ce9a-454c-9e25-51b97b810b47,北京市,北京市,西城区,北京市西城区广安门南滨河路31号,39.886702,116.355276,39.879212,116.342336,1
1101002013B02699,f0c01dc4-41ec-42af-9b54-bd57ee5e2df3,北京市,北京市,海淀区,海淀区万泉庄10号楼,39.97569,116.310105,39.968448,116.297504,1
1102282010B00147,6429dd8d-2626-4814-8a2d-79049febbc14,北京市,北京市,密云县,北京密云经济开发区东吉路12号,40.360409,116.828173,40.37754,116.841112,1
1102282010B00158,f9c17825-d2cb-40ea-92bb-5a6c03ecc103,北京市,北京市,密云县,北京密云经济开发区强云路5号,40.368034,116.818956,39.797964,116.515704,1
1101002011B14277,001d34d3-61b9-4505-a71d-d87b5636e934,北京市,北京市,朝阳区,朝阳区朝来绿色家园A区17 18 33号楼商业及地下车库部分项目,40.037973,116.447921,40.0325,116.43124,1
1101002013B04316,b4adfddf-a3e1-45a5-9624-04e6eaf7c64d,北京市,北京市,西城区,西城区新街口东街30号,39.948559,116.382816,39.880276,116.327952,1
1101002009B07724,4ada9023-1ad1-4497-9f23-1181340d49d3C,北京市,北京市,门头沟区,北京经济技术开发区路东区D3街区D3C2地块,39.899985,116.125949,39.802328,116.497896,1
1101002012B18959,49695727-7b10-4ed3-89d8-39a85ea851f9,北京市,北京市,密云县,密云县密云镇白石岭路2号,40.407751,116.861223,40.400488,116.848728,1
1101002012B18509,305e3cf0-8a19-42dc-8527-d36b42cfb7a5,北京市,北京市,丰台区,丰台区卢沟桥乡丽泽金融商务区D-03 D-04地块商务金融项目,39.866134,116.256215,39.8663,116.332096,1
1101002012B18806,feffa599-e9be-459f-b80f-4c51cb5d175c,北京市,北京市,朝阳区,朝阳区双桥京桥1号地,40.048392,116.500746,39.926908,116.60676,1
1101002012B18947,7076ee89-3915-4eee-b1f4-3a0109424a3a,北京市,北京市,东城区,东城区东公街甲64号楼迤北,39.948989,116.413574,39.941,116.400864,1
1101002008B02528,8dfecd04-a880-4cf9-a32f-98f63b80edfd,北京市,北京市,朝阳区,朝阳区芍药居东区,39.988028,116.441573,39.981024,116.426592,1
1102282008B00079,ef122c04-34f5-4b80-8357-01f618926237,北京市,北京市,密云县,中国共产党北京市密云县委员会党校南侧,40.532843,117.001201,40.39946,116.8474,1
1101002011B17445,a296074f-8be7-4894-b259-eab505f27b21,北京市,北京市,朝阳区,朝阳区农展南路5号,39.939955,116.476488,39.9342,116.481,1
1101002009B01367,1a17aaf6-eb99-42be-882f-94a7b70a38e6,北京市,北京市,大兴区,北京经济技术开发区路东区G8U1-1地块,39.801131,116.513005,39.78916,116.491544,1
1101002008B00602,7a9e7152-4e90-4f30-ad0e-681595a65c12,北京市,北京市,石景山区,石景山区石景山路45号,39.911354,116.229613,39.904384,116.21696,1
1101002008B00569,941af7b6-2234-42b9-8e7a-d6a37c3d1570,北京市,北京市,密云县,密云县高岭镇放马峪村,40.603492,117.140869,40.59556,117.127688,1
1101132009B00046,91ed5298-6f10-44bb-9bed-2a53a18bb55b,北京市,北京市,顺义区,后沙峪镇,40.10578,116.537035,40.10382,116.53828,1
1101002008B05228-1,db55b005-a560-470d-ab5e-73a5fc508704,北京市,北京市,昌平区,昌平区小汤山镇昌平区龙脉花园,40.183574,116.409458,40.177828,116.397344,1
1101002008B05208,59da2024-93d1-4ee9-873c-3b22dc70aa86,北京市,北京市,海淀区,海淀区高梁桥,39.949487,116.353526,39.945344,116.337224,1
1101002008B05266,5bf49c26-7211-4c6f-80af-c779d5bbb574,北京市,北京市,朝阳区,朝阳区望京（B15）,40.00241,116.489347,39.949008,116.444016,1
1101002008B05069,7b15f002-0ef0-4b84-88e3-44eb414dc56f,北京市,北京市,海淀区,海淀区中关村甲3号,39.995526,116.339903,39.928252,116.226736,1
1101002013B01953,b3faae3e-2a36-4d65-ba2d-5a23e95cf580,北京市,北京市,海淀区,海淀区清河永泰庄甲19号,40.043621,116.366476,40.021864,116.295512,1
1101002008B03675,508a9bd6-9b0a-47de-b70b-7d79861a9ac5,北京市,北京市,大兴区,大兴区旧宫镇,39.806259,116.466385,39.81462,116.43104,1
1101002011B15138,1e1b4fdc-30b8-4a24-8c62-262ed975d386,北京市,北京市,通州区,北京市通州区宋庄镇C-06地块居住用地,39.973118,116.706248,39.9401,116.724984,1
1101002009B05686,a028d7a8-c476-4e71-b1aa-a2685e678538,北京市,北京市,平谷区,顺义区南法信顺平路北侧商业金融项目,40.151209,117.090502,40.1162,116.608728,1
1101002009B04935,bc97c744-be08-46e7-b30e-1549205a6193,北京市,北京市,海淀区,中关村国际生命医疗园B-6c地块,39.985687,116.322533,40.004928,116.482144,1
1101002010B09346,46b2ff3d-1c99-45bf-a304-9d7111153291,北京市,北京市,朝阳区,朝阳区百子湾路14号,39.906313,116.494731,39.949008,116.444016,1
1101172010B00014,70ad43f1-4f7a-4e5a-885f-060878a250a9,北京市,北京市,平谷区,北京市平谷兴谷经济开发区北侧,40.168766,117.138526,40.157972,117.117976,1
1101002010B08910,9ec8815b-e40b-49eb-b636-b62849095f59,北京市,北京市,海淀区,海淀区中关村环保科技示范园B-06地块西部,40.066866,116.181394,40.05564,116.180128,1
1101002008B02123,03d17922-10d0-4312-9705-1e5f25aeb681,北京市,北京市,昌平区,昌平区昌盛路18号,40.208224,116.257744,40.200512,116.245192,1
1101132009B00200,fb9c663d-f839-4de2-bc8e-3e7031ea7b61,北京市,北京市,顺义区,南法信镇,40.130746,116.609135,40.1245,116.611088,1
1101132009B00216,756abfcf-86df-4529-85a0-66302ab772e7,北京市,北京市,顺义区,南法信镇,40.130746,116.609135,40.1245,116.611088,1
1101132009B00226,fd090cbb-5a46-4f0b-b7b4-00884ebc3994,北京市,北京市,顺义区,南法信镇,40.130746,116.609135,40.1245,116.611088,1
1101002009B00918,a5aec67d-8d22-450a-ba8d-b6af8ac1c8b7,北京市,北京市,朝阳区,朝阳区湖光中街九号,40.003168,116.472917,39.996168,116.459672,1
1101002011B13766,36756d43-950d-4bf1-a0a5-2fbc42fbd068,北京市,北京市,西城区,西城区文昌胡同42号城镇住宅用地,39.911303,116.370951,39.903952,116.358248,1
1101132011B00424,2c0632fe-bbff-4242-9d8c-29da0c1c923d,北京市,北京市,顺义区,北务,40.069115,116.834753,40.037808,116.793192,1
1101132011B00436,12b3bbe3-b3b8-47f6-8270-de9ffecaddaf,北京市,北京市,顺义区,北务,40.069115,116.834753,40.037808,116.793192,1
1101002011B17376,7e0111e8-997e-474c-8e51-308c8fed2d19,北京市,北京市,大兴区,北京市大兴区黄村镇新城北区0302-040地块,39.706174,116.389949,39.7765,116.318744,1
1101002010B12177,812e8a47-c9fc-41d0-8e5f-6322bfdaa585,北京市,北京市,海淀区,海淀区厂洼3号院,39.958678,116.311306,39.95716,116.300088,1
1101002010B11187,33b7d265-db9a-454d-b87d-8f9ca52a63b0,北京市,北京市,石景山区,石景山区五里坨,39.958416,116.129725,39.95496,116.119648,1
1101002008B04957,a5ad26a9-4e66-42b0-af88-8df8f05bf360,北京市,北京市,朝阳区,朝阳区北四环东路干杨树甲16号院8号楼,39.995648,116.425741,39.984496,116.436656,1
1101002008B00098,0eb18ee1-8955-4165-bf21-8319e90bf168,北京市,北京市,大兴区,大兴区采育镇育仁街北侧蓝天花园住宅小区,39.625891,116.64123,39.653948,116.63036,1
1101002013B01040,c7038f23-29c5-4119-b586-4aff6fb8b634,北京市,北京市,西城区,西城区南礼士路46号院,39.921128,116.360253,39.910728,116.344416,1
1101002008B02729,778c9336-8aa9-4660-a9d2-4a01b78e4ae2,北京市,北京市,通州区,通州区梨园镇砖厂村北,39.875892,116.703257,39.870224,116.69664,1
1101002008B02935,5aaad72e-279f-4794-826a-74ab10aeac36,北京市,北京市,密云县,密云县溪翁庄镇,40.532843,117.001201,40.473776,116.847688,1
1101002013B00334,def10c0d-9727-4f0b-ba87-c1951c9ed7d4,北京市,北京市,海淀区,海淀区八宝庄40号,39.929137,116.298693,39.90044,116.258232,1
1101152013B00043,a402f0c0-138b-46c9-9bc5-48a1683ad831,北京市,北京市,大兴区,大兴区西红门镇,39.771681,116.38875,39.79294,116.341168,1
1101002011B14516,073b6a6b-51e0-4a30-b5df-ae88e26d1ca5,北京市,北京市,东城区,东城区北剪子巷2号,39.943637,116.418737,39.94746,116.429384,1
1101052018A00088,4ca2c68b-a2e6-4ba8-9597-8b9aaffce88d,北京市,北京市,朝阳区,朝阳区豆各庄乡,39.868903,116.574501,39.858036,116.558776,1
5331032007B01360,7eaa1bfa-dbca-4e7f-9406-5fafb3ff5d4d,北京市,北京市,朝阳区,华侨农场一分场三队,40.031598,116.538037,39.90312,116.401,1
,1ae589a1-3cbb-44a3-8427-9f1423b6b0fe,北京市,北京市,东城区,芒市遮放农贸市场东侧 贡米大道以南,39.910925,116.413384,39.901036,116.574616,1
1101002007B05717,8fd96d28-1ded-4a81-9dbc-468f11109ed2,北京市,北京市,丰台区,丰台区岳各庄居住东区1号,39.886256,116.291958,39.879176,116.277112,1
1101002007B01205,9527b715-d125-405f-9763-338f7d14f417,北京市,北京市,通州区,通州区梨园镇九棵树14号,39.895699,116.668567,39.865436,116.657344,1
1101002007B06473,0d607098-423e-418e-bacc-dcfd2811d8ae,北京市,北京市,密云县,北京经济技术开发区路东新区A12号街区,40.381414,116.857438,39.78916,116.491544,1
1101002007B04906,903b0238-cc07-4f96-ad6b-bfa6ef1a9fc8,北京市,北京市,大兴区,大兴区黄村镇孙村组团内,39.716612,116.407739,39.706376,116.39596,1
1101002007B01640,86cf4837-4eb5-4bcb-adf0-fa175074ca3b,北京市,北京市,朝阳区,朝阳区花家地南里5号楼,39.984917,116.475266,39.894272,116.4892,1
1101002007B06416,d2cb91bf-e650-4257-b90c-080b50ef61b2,北京市,北京市,密云县,北京经济技术开发区路东新区A9号街区,40.381414,116.857438,39.78916,116.491544,1
6608122007A00048,5104f43d-bdfb-4485-8f96-53806df66ea8,北京市,北京市,朝阳区,二分场三连,40.025368,116.528715,39.90312,116.401,1
,15efbd3e-4f0b-48bc-a111-8da2fbdbec24,北京市,北京市,东城区,东邻2016-90号宗地 西邻2016-92号宗地 南邻2016-49号宗地 北邻路集村土地。,39.910925,116.413384,39.90312,116.401,1
,732412ac-dab9-49fa-9123-e41438af8d74,北京市,北京市,东城区,七里城区东端南台堡村一组，七里镇中学西侧，规划南台二路东侧，白七路南侧,39.910925,116.413384,39.909296,116.346184,1
1101002007B00705,27e70286-43b4-485c-9006-ebed72123e8d,北京市,北京市,朝阳区,朝阳区曙光里45号,39.972777,116.461578,39.98096,116.406,1
1101002007B00971,8fca67dd-3a4b-473c-996d-96d3f39a8629,北京市,北京市,海淀区,海淀区西翠路5号,39.906933,116.288539,39.90052,116.27648,1
1101122010B00090,fe4d24d0-ecaa-4e3f-9c0a-7b1d259d50a6,北京市,北京市,通州区,通州区经济开发区东区,39.916017,116.663415,39.913256,116.65108,1
1101002007B02247,e0bc1842-df64-49e8-8ef2-58b8d53f8191C,北京市,北京市,东城区,东城区东四西大街26号,39.930264,116.422633,39.92304,116.407864,1
1101172007B00088,65b4830d-a765-4e29-8944-d6104c0a5b25,北京市,北京市,平谷区,北京马坊工业园区,40.051923,117.015662,40.04438,117.002296,1
6602162007B00185,de3e4e78-525c-4dde-a36b-f645309071ff,北京市,北京市,东城区,36团315国道南侧,39.910925,116.413384,39.90312,116.401,1
3206002007B00878,40AD2DA8E7D54CFCAA41111BB878E8E7,北京市,北京市,海淀区,青年中路南 方大花苑北 中诚大厦西 假日广场东(原群力针织厂 皮件厂及周边),39.986927,116.382408,40.221028,116.258616,1
,667a4455-bbaa-4e82-8f55-ed5bdcdde1ca,北京市,北京市,东城区,141团北野镇6号小区,39.910925,116.413384,39.779516,116.333144,1
,cec33205-5831-4c26-b80e-a0b4177689c4,北京市,北京市,东城区,顺安镇境内，铜芜路以南，金旭路以东，其他二面临东垅村地界范围内的土地。,39.910925,116.413384,39.908456,116.519656,1
1101002013B03433,35ad5218-cb71-4a87-b222-60481d2fe46f,北京市,北京市,海淀区,海淀区上庄镇中心区B-08 B-18 B-19地块,40.124239,116.212153,40.100956,116.214096,1
1101002009B05260,f4113cbf-196d-4981-85f5-82018e5e1148,北京市,北京市,朝阳区,朝阳区高家园小区311号现状商业,39.985095,116.486485,39.977632,116.476784,1
1101132008B00082,d6f97610-8d95-457a-903f-fe4cc2427bb1,北京市,北京市,顺义区,顺义区高丽营镇文化营村北,40.154608,116.587622,40.149332,116.564312,1
3717282016B00375,f0d0a1fc-676e-4524-b468-fd0b89dc0c35,北京市,北京市,房山区,东邻城关街道办事处北关社区居委会，西邻解放路，南邻秋水路，北邻鲲鹏路。,39.699654,115.988933,39.94916,116.332496,1
1101002007B02788,755f8020-ff9f-4113-bb8a-56621c48c9a0,北京市,北京市,大兴区,大兴区旧宫镇西广德村北,39.792692,116.436034,39.78416,116.4212,1
1101002007B06364,4cfe31c0-c759-4bae-9c42-bdfb86b9fdc5,北京市,北京市,大兴区,北京经济技术开发区55号街区,39.801131,116.513005,39.802328,116.497896,1
3708262016B00070,4b27f884-1367-4b9b-be89-e8d725c82572,北京市,北京市,朝阳区,微山县经济开发区境内，东 西 北均临苏园社区土地，南临城后路 苏园社区土地；,39.990539,116.50268,39.797964,116.515704,1
1101002007B06517,aedec4e0-c6df-4efe-9cee-872b11e82617,北京市,北京市,密云县,北京经济技术开发区路东新区A2号街区,40.381414,116.857438,39.78916,116.491544,1
,324b27a5-6a44-48de-9cb8-1db97b2ca362,北京市,北京市,东城区,红旗农场农九连居民点,39.910925,116.413384,39.90312,116.401,1
1101002008B03815,fc75b279-82a9-472e-b97b-6cee1470859f,北京市,北京市,昌平区,昌平区南口镇交通中街南侧,40.261581,116.095297,40.232028,116.132144,1
1101002009B07061,ff2367b0-b3cc-4305-8650-ca1a5b9e04a1C,北京市,北京市,房山区,房山区长阳镇（长阳镇起步区1号地）,39.753844,116.181678,39.748348,116.168,1
1101002008B04068,37ed2c50-c310-4586-b75c-bf6293619a0d,北京市,北京市,朝阳区,朝阳区华威里10号楼,39.878499,116.465988,39.949008,116.444016,1
1101132011B00175,8ba865ab-6b7f-45b5-b190-8bf9d8403a40,北京市,北京市,顺义区,北石槽镇,40.255612,116.547242,40.14382,116.595304,1
1101002007B04470,e1a8016b-9a7f-416b-9903-bd70db87d35b,北京市,北京市,东城区,东城区东绦胡同2号,39.954481,116.407322,39.94668,116.394864,1
1101002008B06357,db401654-20e7-4b7e-8a9e-92ec15c3f3c8,北京市,北京市,朝阳区,朝阳区广渠门外大街29号,39.899766,116.455887,39.949008,116.444016,1
1101122008B00023,15f3ccf9-9305-483c-ad64-95a5bbb9b3aa,北京市,北京市,通州区,通州区马驹桥物流基地兴贸二街,39.769416,116.585443,39.757192,116.603768,1
1101122009B00054,0f5daa12-4e6a-4ee9-9aa7-7a2aaf95a382,北京市,北京市,通州区,通州区马驹桥物流基地兴贸一街,39.77116,116.581207,39.757192,116.603768,1
1101002008B00734,9ab00648-f4c5-4cba-8388-f3755c703e01,北京市,北京市,顺义区,顺义区义宾北区北侧（便民集贸市场）,40.139591,116.655616,40.131204,116.644464,1
1101002008B00659,9b0ca8fb-4c27-438d-a218-30bbc15d6b27,北京市,北京市,西城区,西城区后海北沿43号,39.950061,116.392151,39.942408,116.379504,1
1101002007B03565,110e9348-6ce4-4749-8354-9be07f72b934,北京市,北京市,朝阳区,朝阳区芍药居中谷成生活基地,39.988028,116.441573,39.981024,116.426592,1
1101002007B03665,2e6cea53-4d7b-4878-9112-714ad5e44ac9,北京市,北京市,丰台区,丰台区张郭庄甲1号,39.860313,116.207804,39.878804,116.27448,1
3708302007A00070,3d87eeef-2326-467b-9e8a-aeea7fd3f72f,北京市,北京市,平谷区,位于汶上镇南门社区土地以东 市政路以南 环城南路以北 辛王庄社区耕地以西,40.145557,117.102384,39.83046,116.36748,1
1101122018A00033,dca7e7f7-5395-483a-9e17-3ad6fbcc32ef,北京市,北京市,通州区,通州区于家务乡,39.724627,116.710466,39.717388,116.698512,1
6606172007B00048-1,872b636e-22e8-44ca-91c3-b74798b388fa,北京市,北京市,顺义区,红旗农场友谊路西侧,40.202854,116.616229,39.90312,116.401,1
1101002007B00384,43bb63a6-6676-4fa6-b2f9-0c4987c27442,北京市,北京市,东城区,东城区东不压桥地区玉河北区,39.941808,116.405121,39.9238,116.407808,1
1101002007B00374,b095497d-e7ff-4ddb-b6fe-baad13ae7e36,北京市,北京市,朝阳区,朝阳区八王坟通惠家园D区（惠生园）,39.91595,116.514241,39.907628,116.504848,1
1101002007B00131,5380e711-4c00-4f9c-bfa4-5ffdd0d38906,北京市,北京市,东城区,东城区北京站东街6号,39.910778,116.439283,39.9032,116.426816,1
1101002007B00186,3e355b51-83c7-45c4-bbd4-6673d0a3b010,北京市,北京市,昌平区,昌平区昌平镇水库路53号,40.253011,116.11004,40.221808,116.21424,1
1101002007B05904,365cb89e-00b6-462f-858a-95b3021244a9,北京市,北京市,丰台区,丰台区成寿寺世纪风景住宅小区,39.861075,116.447869,39.85418,116.432904,1
1101002009B05252,dc61eaa6-406e-4f05-80ff-c78c276584e8,北京市,北京市,朝阳区,朝阳区管庄西里甲32号线状商业,39.921571,116.597499,39.949008,116.444016,1
1101002007B04294,badc9f7d-7346-47ee-b3c2-c316ee7e303a,北京市,北京市,朝阳区,朝阳区垡头翠成馨园E区1#楼,39.861921,116.511949,39.854376,116.498992,1
1101002007B02997,3334ce14-caa6-4274-83f7-77631613bb4d,北京市,北京市,昌平区,昌平区沙河镇西沙屯村,40.174763,116.262617,40.16504,116.234848,1
6207242007B00058,9ac03d8c-85e0-408d-a43d-e8569b46746c,北京市,北京市,丰台区,宣化镇高桥村一社 南华镇面岔村 合黎乡五二村一社 骆驼城乡九座窑 罗城乡河西村,39.797879,116.15035,40.68672,117.145728,1
1101002007B03124,b14e0668-c89b-4c6b-9e2d-d4a925b3a7cd,北京市,北京市,海淀区,海淀区北蜂窝4号,39.904114,116.340635,39.8971,116.32724,1
1101002007B04937,1140db8b-25be-4ae9-b5fb-3d96eea09f02,北京市,北京市,东城区,崇文区前门大街及东片地区B-8地块,39.905108,116.404243,39.897184,116.391848,1
1101002014B00676,1a98f0f0-61f1-49b4-b297-217c90eabd79,北京市,北京市,西城区,西城区小齐家胡同6 8号,39.901834,116.402527,39.894004,116.388848,1
1101002007B00889,0c3763ab-a951-44bb-80a7-ef02a84984e0,北京市,北京市,昌平区,昌平区南口镇东大街52号东门外,40.243505,116.142734,40.2348,116.129184,1
1101002007B00914,b078e7fe-1d92-4e0a-98cf-7a8af063a301,北京市,北京市,昌平区,昌平区南口镇八达岭路东侧,40.261581,116.095297,40.228088,116.1408,1
,9378aecb-89f7-4943-9bac-c34dee5872c1,北京市,北京市,海淀区,中捷高新区，东至规划花园路，西至国有空地，北至B-2016-40号地块，南至规划高新路,39.983526,116.372222,39.793972,116.500496,1
1101142010B00099,9ab8d1e6-2373-4b2c-b3e6-eddb2d20dea3,北京市,北京市,昌平区,昌平区回龙观镇北京国际信息产业基地C2地块（立业路13号）,40.115285,116.305383,40.10774,116.291816,1
1101142010B00117,e935acf9-bc07-415a-809a-dc083a7f017e,北京市,北京市,昌平区,昌平区科技园区超前路37号,40.210463,116.263242,40.205504,116.235,1
1101002018B01157,f7529d34-4332-42c6-9672-4b1a6df4c667,北京市,北京市,西城区,西城区东中胡同4号7幢,39.907848,116.394023,39.900176,116.379832,1
1101002018B01120,e2b48f30-ac21-4fc9-9afe-efd49e58c05e,北京市,北京市,东城区,东城区西仓门胡同10号6幢1层,39.944599,116.426403,39.936472,116.413128,1
1101002013B04949,dfc2512c-8237-4650-add2-da45cf5469e1,北京市,北京市,大兴区,北京经济技术开发区路东区X13R1地块,39.801131,116.513005,39.78916,116.491544,1
1101002010B09354,d4c9d9a8-2e30-4b9e-8751-cd7f075890b9,北京市,北京市,海淀区,海淀区东升乡蓟门桥北,39.973379,116.360308,39.96564,116.3428,1
1101002014B02408,95847159-0977-46d8-98b4-b1f3736ceff1,北京市,北京市,朝阳区,朝阳区华威里18号,39.881608,116.465127,39.949008,116.444016,1
1101002007B00453,dd3c8a78-d6e1-46f5-851f-940ddd1fdce5,北京市,北京市,朝阳区,朝阳区东核桃园5号,39.929419,116.464281,39.949008,116.444016,1
1101002007B04985,3c028497-dc56-4caa-8756-435ef4f778f7,北京市,北京市,东城区,崇文区前门大街及东片地区B-3地块,39.905108,116.404243,39.897184,116.391848,1
1101002007B00506,12a6ed16-6d24-49e9-860d-41231c57c1b8,北京市,北京市,朝阳区,朝阳区管庄288号,39.915627,116.59459,39.91804,116.585296,1
1101002007B01639,59fc8283-9df3-4c98-abc6-91f1c71844a9,北京市,北京市,丰台区,丰台区张仪村16号院,39.882474,116.232591,39.846748,116.307088,1
1102282007B00067,dcc22b60-00ae-42df-b108-24f532452508,北京市,北京市,密云县,北京市密云县溪翁庄镇走马庄村,40.467068,116.860988,40.46064,116.854536,1
1101082007B00183,13afa592-8e5e-4182-9391-3da81b65a77f,北京市,北京市,海淀区,中关村永丰高技术产业基地I-22地块,39.98727,116.344895,40.075468,116.234408,1
1101092007B00104,17d2bf7a-6aeb-4228-9138-d56537955cee,北京市,北京市,东城区,北京市石龙经济技术开发区三期内,39.910925,116.413384,39.793968,116.48236,1
1101152007B00200,7c87acf5-c42a-4ad4-a1d2-9e0def8a181b,北京市,北京市,大兴区,大兴区西红门镇新建工业区,39.736548,116.439544,39.73084,116.429024,1
1101002007B00870,fa57cff2-b2c2-426e-bf65-0101fef6ec54,北京市,北京市,东城区,东城区石雀胡同16号,39.946375,116.426062,39.938728,116.413568,1
1101002007B05249,794b4999-ab17-4032-be8a-06726069e9d4,北京市,北京市,朝阳区,朝阳区双桥路,39.894279,116.578168,39.888496,116.56624,1
,9003bbad-dd14-4527-8aef-35121728fc9f,北京市,北京市,昌平区,东镇路东侧，东镇路交北环路东北侧，地块北侧 东侧为咸富楼社区居民委员会土地,40.235306,116.239653,39.95714,116.409504,1
1101132009B00233,dd4314ec-b979-4149-ad7d-4e3a1862e3ac,北京市,北京市,顺义区,南法信镇,40.130746,116.609135,40.1245,116.611088,1
1101132013B00087,8815f192-4708-479b-921f-211e259fa0ac,北京市,北京市,顺义区,顺义区牛山镇,40.207819,116.671542,40.208436,116.665088,1
1101172013B00024-2,0c1b5c54-1f0e-4e4c-a6ca-7fee919186f7,北京市,北京市,平谷区,北京市平谷区马坊镇北部物流区内（WL-12地块）,40.073723,117.017391,40.053632,117.002824,1
1101002008B00200,6989b39f-6830-475f-aa41-45a96b4f799a,北京市,北京市,密云县,密云县密云镇白石岭村西,40.532843,117.001201,40.367612,116.834512,1
1101002008B00266,96aa1475-14bc-4a60-95c4-4661514b2953,北京市,北京市,通州区,通州区里河沿14号,39.922279,116.674458,39.913256,116.65108,1
1101002008B00576,a93386d0-569f-4801-a63a-eab1fda18ca6,北京市,北京市,东城区,东城区东华门大街52-76号,39.921357,116.410692,39.913632,116.398104,1
1101002008B03552,946151b7-4bfb-4f37-818f-a973a68189b2,北京市,北京市,西城区,宣武区黑窑厂街22号,39.886402,116.388496,39.878792,116.375816,1
1101002008B03278,794c1301-75a4-40c8-8c38-d914c3ef786b,北京市,北京市,东城区,东城区东直门内大街177号,39.938529,116.428704,39.939516,116.419616,1
1101132010B00096,29330dee-9d02-4515-84aa-3b6483323d75,北京市,北京市,顺义区,顺义区马坡镇聚源工业区,40.184084,116.621442,40.17,116.622192,1
1101002010B08675,3593e793-0995-4f64-ab54-fec12fdf4a87,北京市,北京市,通州区,通州区永顺镇（商务园B1地块）商业金融项目,39.940765,116.674041,39.939412,116.640752,1
1101002010B09157,73f6ee45-2e91-41af-a4e4-abe73c6205a9,北京市,北京市,东城区,东城区地安门东大街两侧玉河北段住宅商业项目,39.939729,116.409123,39.89084,116.394528,1
1101002010B09149,60f66e42-3d37-4e97-b016-c3685cf7d4bd,北京市,北京市,昌平区,昌平区常兴庄,40.181717,116.426105,40.174344,116.41428,1
1101002012B17851,5bf7f6db-4e93-417c-b403-3620aa2c2590,北京市,北京市,门头沟区,门头沟区龙泉雾石灰石矿地块1,39.946147,116.107604,39.982104,116.080224,1
1101142009B00026-1,7cade65c-376e-44f8-a123-deede10d04a0A,北京市,北京市,昌平区,昌平区回龙观镇北部,40.086467,116.354052,40.0832,116.328976,1
1101172011B00019,03d67344-7dd4-4b93-af03-4028fe3e90ae,北京市,北京市,平谷区,兴谷开发区M2-4号区,40.166418,117.133521,39.899848,116.634176,1
1101002010B10566,c38bf1ca-8b2c-4b41-83a8-5e2dc4265990,北京市,北京市,大兴区,大兴区西红门路6号,39.799789,116.371737,39.79258,116.359032,1
1101002009B05304,72490e13-519a-400b-8f83-5842ab1e2809,北京市,北京市,东城区,丰台区东铁匠营横三条2号3 4号楼,39.88882,116.444317,39.851408,116.414968,1
1101002012B17815,65f79818-faa8-4917-bc45-9a93faa8bcfd,北京市,北京市,石景山区,石景山区京原路68号,39.899798,116.185882,39.904384,116.21696,1
1101002008B06878,b11e97b6-8415-4adc-989a-28f9459245ee,北京市,北京市,密云县,北京经济技术开发区南部新区X14号街区,40.381414,116.857438,39.78916,116.491544,1
1101172011B00027,f0d8caa3-35c7-4b4c-8ddd-187896bb857e,北京市,北京市,平谷区,平谷区兴谷开发区M2-1区3号地块,40.166418,117.133521,40.152888,117.117856,1
1101002008B06232,cdf48184-3a98-40af-804a-8b86f90cc795,北京市,北京市,石景山区,石景山区五里坨街道,39.972178,116.1544,39.95496,116.119648,1
1101002008B06363,82bfb2b7-633a-4c9e-901e-7164ba43bc24,北京市,北京市,西城区,宣武区菜市口狮子店胡同11号,39.895751,116.377293,39.93806,116.371936,1
1101002014B03061,76def12c-82b0-46d3-8235-8654d6271707,北京市,北京市,东城区,东城区交道口北二条19号,39.949015,116.421427,39.9413,116.407032,1
1101162012B00017,25933111-9446-4016-affe-ac8dc17e5f1a,北京市,北京市,怀柔区,怀柔区北房经纬工业开发区,40.322618,116.638386,40.355148,116.677904,1
1101152009B00107,8bd983df-86d7-40fb-965f-fed23d3fad51C,北京市,北京市,大兴区,大兴区黄村镇,39.706174,116.389949,39.7527,116.320568,1
1101002011B16967,25938274-a86a-4472-a295-378685d3712b,北京市,北京市,朝阳区,朝阳区平房乡牛角地福林家园定向安置房项目东北地块,39.941994,116.548709,40.0228,116.522216,1
1101002011B00524,bedfabf2-4c85-40e2-b653-5c055c7b263f,北京市,北京市,海淀区,海淀区万柳居住区,40.003811,116.264051,39.989188,116.289384,1
1101002013B02081,4903e117-c05b-40fc-a6cc-346c1b0048c2,北京市,北京市,海淀区,海淀区中关村软件园二期(西扩)F-1地块东软北京研发中心建设项目,40.053222,116.287601,40.045952,116.275104,1
1101002013B03139,d926e276-a303-48cd-96c9-1a9889156a5d,北京市,北京市,西城区,西城区白纸坊西街18号楼,39.883432,116.363991,39.87694,116.35612,1
1101002012B20467,9dc4508e-188e-4035-8210-0b0c49b7e526,北京市,北京市,朝阳区,朝阳区安慧里二区2号楼（2-3）,40.000968,116.41809,39.894272,116.4892,1
1101002012B20491,41d9d2a9-d6df-4a1e-ac64-8f1397e6a97d,北京市,北京市,东城区,东城区细管胡同38号,39.943057,116.420562,39.920648,116.41504,1
1101002010B09120,8423e3b9-a04e-4893-b149-fd1c4d44f619,北京市,北京市,朝阳区,朝阳区崔各庄乡大望京村环境整治土地储备项目1号地,40.00809,116.503001,39.99982,116.492832,1
1101132014B00044,30ea26e6-d751-4078-a459-0b24d78828f3,北京市,北京市,顺义区,顺义高丽营镇,40.163052,116.545931,40.158568,116.497872,1
1101002010B08038,caa4b7a4-8bb2-4f73-a6b2-b7782c4b8029,北京市,北京市,昌平区,昌平区回龙观镇科星西路33号楼,40.082707,116.362896,40.075552,116.35224,1
1101002010B08057,9616d60d-735d-4d88-8181-628e29928a55,北京市,北京市,昌平区,昌平区回龙观镇科星西路47号楼,40.082707,116.362896,40.071812,116.3524,1
1101002011B13394,79da9313-ee5a-41a4-b360-4f90798e8cc1,北京市,北京市,通州区,通州区运河核心区IV-03多功能用地,39.916017,116.663415,39.89162,116.667824,1
1101132012B00244,a4b27372-0162-4cfc-ad93-f597a4492302,北京市,北京市,顺义区,马坡,40.175911,116.654968,40.176028,116.651744,1
1101002008B01157,349bf2f4-42f8-428d-805b-36517006e3cd,北京市,北京市,丰台区,丰台区西四环南路56号,39.873308,116.290187,39.865812,116.277544,1
1101002011B14815,59cfc6f5-012b-417c-8c4f-943034865775,北京市,北京市,丰台区,丰台区卢沟桥乡张仪村,39.887552,116.233625,39.873752,116.21912,1
1101002011B14200,4de32ed9-9ef2-4b20-be3d-719992ab438b,北京市,北京市,朝阳区,北京市朝阳区东坝乡单店西村南原北京光华木材厂项目,39.973859,116.555302,39.95862,116.527992,1
1101002015B01753,91a0de47-137b-4311-b2db-36a89c21c800,北京市,北京市,海淀区,海淀区北四环中路283号2幢,39.992694,116.347822,39.9859,116.3392,1
1101002010B12878,422f0fb2-30cb-431b-b197-f2a778b30cbd,北京市,北京市,通州区,通州区金桥科技产业基地B1-2-3 B1-2-4地块,39.741869,116.563226,39.7284,116.55828,1
1101002009B07447,b9f86f1c-26e0-411d-8b99-a98e6f98e820,北京市,北京市,门头沟区,门头沟区门头沟路55 59 63号,39.949527,116.106326,39.939148,116.09572,1
1101002011B00231,2dbfa86c-3233-48f9-9137-d348f0c84080,北京市,北京市,大兴区,大兴区北臧村镇生物医药基地东配套6号及7号0505-053 0505-062地块,39.681899,116.263764,39.686192,116.316288,1
1101002010B11400,2fe8bf04-52a6-47f0-be52-41991c682063,北京市,北京市,西城区,西城区西长安街17号图书大厦二期,39.913932,116.3834,39.90648,116.370752,1
1101002009B01305,772e42d9-cda8-4d26-bd91-24ebd2250ff7,北京市,北京市,密云县,北京经济技术开发区南部新区X19-1号街区X19-1F2地块,40.381414,116.857438,39.78916,116.491544,1
1101002011B13658,d6f369a8-3f2d-4728-9c52-52b460934032,北京市,北京市,朝阳区,朝阳区大屯北辰东路东侧（地块1）,40.001345,116.407389,39.9973,116.394552,1
1101002011B16615,d0e8854e-ecb5-495d-b837-343d8a86bfee,北京市,北京市,顺义区,顺义区后沙峪中心区,40.111767,116.551449,40.11114,116.538464,1
1101002008B05971,42453a38-5033-43bd-8ba2-b82240d0651e,北京市,北京市,昌平区,昌平区回龙观镇回龙观村,40.07771,116.320395,40.073492,116.29928,1
1101002008B09188,c7ea275c-f728-40b1-a416-691e575c62a4,北京市,北京市,密云县,"北京经济技术开发区南部新区X30号街区,编号X30R1",40.381414,116.857438,39.78916,116.491544,1
1101002008B04980,364aaea5-6ac4-4e69-9e18-a5f218a70455,北京市,北京市,丰台区,丰台区吴家村路2号院,39.895062,116.257449,39.888112,116.243792,1
1101002008B00828,2659f0b3-f0e5-4d2f-876a-0223a12d9e86,北京市,北京市,通州区,通州区西集镇东北京市通州燕牧机引犁厂,39.811522,116.865465,39.913256,116.65108,1
1101002008B04871,a910ec37-2470-42be-a1bc-d320f53b0ee5,北京市,北京市,朝阳区,朝阳区平房乡姚家园村,39.945047,116.523193,39.936648,116.511608,1
1101002009B11414,ec950dc0-5791-4606-addc-e78c11c2ccbc,北京市,北京市,延庆县,延庆县城西五公里延农路北侧,40.462343,115.959996,40.454972,115.899368,1
1101002011B16127,8fac2c0d-36c9-4b0e-a794-93a2d3f87b6e,北京市,北京市,西城区,西城区益民巷96号,39.888696,116.372317,39.881352,116.35964,1
1101002011B00507,644a69fd-edd9-40dd-8a77-6d78c814fbfa,北京市,北京市,朝阳区,弘善家园P区一段28 29 30号楼底商及地下车库,39.875551,116.461584,39.86822,116.44884,1
1101002013B02520,1e35ec95-615c-4366-a2e7-f048bc7bdbbc,北京市,北京市,通州区,通州区梨园镇小街村,39.878797,116.69097,39.87188,116.678424,1
1101002009B06799,0b5f7253-4dc4-4774-9fe9-8c8a2ca2b5db,北京市,北京市,海淀区,海淀区永泰西里2号楼,40.039882,116.362371,40.03226,116.349856,1
1101002014B00647,095a7a98-b94e-47b9-9721-57c605c33c54,北京市,北京市,大兴区,大兴区黄村镇天河北路18号,39.697822,116.356611,39.741968,116.33404,1
1102282010B00116,db9db601-d37d-4c3c-9f68-cb5ec1aaa0e4,北京市,北京市,密云县,北京密云经济开发区科技路1号,40.368034,116.818956,40.35174,116.811432,1
1101002011B17354,26fd8e9e-f064-485d-986b-b929fe775499,北京市,北京市,东城区,东城区安定门外大街地坛公园13号,39.957509,116.422248,39.901248,116.4066,1
1101002011B17393,c6872122-4cc8-4f3d-a49f-4f77fe012d65,北京市,北京市,丰台区,丰台区七里庄路24号,39.865173,116.29577,39.857652,116.2844,1
1101002011B17496,94441c2a-3e98-4a59-b86b-958f36c1ef46,北京市,北京市,海淀区,海淀区（市容监察所东侧）学院南路,39.963758,116.355586,39.956764,116.340808,1
1101002011B16189,a5c10c8f-3574-4988-97b8-69687a9466a8,北京市,北京市,顺义区,顺义区马坡镇良正卷村福兴路甲五条12号,40.178973,116.604637,40.167024,116.596568,1
1101002012B19628,98b655a1-01e0-4042-8c77-123b96443249,北京市,北京市,通州区,通州区永顺镇（商务园C2地块西区）居住及经营性办公用地项目,39.940765,116.674041,39.939412,116.640752,1
1101002011B17346,14047690-9bdb-416a-b830-1b615893d2c9,北京市,北京市,丰台区,丰台区丰台路青塔东里7号,39.897917,116.277353,39.870736,116.268528,1
1101002016B00785,458964ca-225e-40c5-8484-e74b9fb7f8fa,北京市,北京市,朝阳区,朝阳区金盏乡北马房村,39.993529,116.574268,40.002264,116.563008,1
1101002016B00813,3d64e3ce-9d89-4ce3-874e-20ebb53f3c08,北京市,北京市,昌平区,昌平区流村镇瓦窑村北,40.144051,116.022164,40.136712,116.009624,1
1101172012B00088,a990222a-6e35-43d2-8702-356216ee28d0,北京市,北京市,平谷区,北京市平谷区新城北部产业用地M2-3区2号,40.146951,117.127379,40.144676,117.117608,1
1101002008B04515,ab5699bc-62b5-452f-a920-353d6d255477,北京市,北京市,海淀区,海淀区学院南路55号,39.963643,116.34117,39.956,116.328328,1
1101002008B04272,5089b49d-e173-4103-b4cb-8dba02976e9d,北京市,北京市,昌平区,昌平区二毛环岛西侧,40.226413,116.237618,40.21326,116.224136,1
1101092018A00090,7c1838d7-e5f5-4276-a3ca-346f40fd1a7a,北京市,北京市,门头沟区,门头沟区永定镇,39.906329,116.115575,39.905472,116.097192,1
1102282012B00148,844b2c53-c148-4884-bdff-c9ff28a8e312,北京市,北京市,密云县,密云经济开发区科技路甲48号,40.368034,116.818956,40.31272,116.769736,1
1101002008B00886,1510e025-88f6-49a5-9f5e-5a9da55a8937,北京市,北京市,石景山区,石景山区八角西街229号,39.917452,116.205192,39.911328,116.192712,1
1101002008B06122,4fab8b75-cf3f-4f0c-b06f-d9b8bd3339f4,北京市,北京市,昌平区,昌平区阳坊镇工业南区,40.150364,116.14024,40.137008,116.133264,1
1101002008B03954,ae8c3a41-f09b-498d-b289-6eba03965a05,北京市,北京市,延庆县,延庆县永宁镇西街,40.545156,116.169735,40.52768,116.156808,1
1101002008B04046,cf51ea42-63d6-43ec-b839-d0e7e6999bb6,北京市,北京市,昌平区,昌平区南环路环岛西侧,40.219327,116.277674,40.211696,116.273392,1
1101002008B04096,fb10e02d-5cd0-4cd1-8da3-55ae991c9280,北京市,北京市,大兴区,大兴区黄村镇东芦城村,39.760094,116.308138,39.7527,116.29564,1
1101002008B05145,d2a363bd-01a6-4a17-af56-e155520caaee,北京市,北京市,海淀区,海淀区东升乡马坊村,40.036668,116.373827,40.02824,116.360808,1
1101002008B04781,b6f3b123-62d6-4597-86b2-d89336aa92da,北京市,北京市,海淀区,海淀区环保科技示范园M08地块,40.060841,116.191752,40.05564,116.180128,1
1101002008B05528,283c57e0-11d0-4158-b850-bc7165083978,北京市,北京市,朝阳区,朝阳区三环东路26号楼,39.926375,116.449559,39.910832,116.55228,1
1101002011B13355,8fdf5521-2573-48d7-97f9-5d5f4e2f9c82,北京市,北京市,大兴区,大兴区黄村镇小营村轨道交通大兴线枣园站定向安置房项目,39.732003,116.339115,39.752128,116.326144,1
1101002013B00016,e0625110-ec33-466e-952b-f22a1602572d,北京市,北京市,石景山区,石景山区京原路7号,39.904811,116.21707,39.896696,116.203712,1
1101002010B12794,8e12acef-c1eb-46c4-9f11-7efbdc45c0fc,北京市,北京市,顺义区,顺义区张镇,40.156204,116.949193,40.14692,116.939192,1
1101002010B13054,bb3d97a2-6ba5-4886-a432-e194bc736e11,北京市,北京市,丰台区,房山区长阳镇（长阳西站3号地）,39.845578,116.25159,39.76934,116.181088,1
1101002012B18715,a8394722-ad4c-42aa-8ec1-d4d5168568a9,北京市,北京市,通州区,通州区新城西北端温榆河畔,39.952508,116.64966,39.92664,116.65164,1
1101172012B00094,12318fbe-b185-470d-bf84-2fd86904c8e7,北京市,北京市,平谷区,北京市平谷区新城北部产业用地M2-8区7号,40.146951,117.127379,40.138188,117.095368,1
1101002012B19901,8c88ed81-45de-4736-b6d8-eb44abe9a4d5,北京市,北京市,平谷区,平谷区金海湖镇胡庄南环路60号,40.185787,117.260211,40.178612,117.260192,1
1101002011B14420,b37617a9-5763-49dd-831a-66a7ece295db,北京市,北京市,西城区,西城区地安门西大街49号,39.940253,116.399482,39.93268,116.386728,1
1102282010B00194,7fea676d-d7a6-4b43-b6b6-1e894eba3798,北京市,北京市,密云县,北京密云经济开发区科技路31号,40.368034,116.818956,40.35174,116.811432,1
1101172011B00174,c0e59626-02fd-4668-b81a-0a5b328883a4,北京市,北京市,平谷区,兴谷开发区11号区,40.170072,117.145957,39.90312,116.401,1
1101002014B03397,b7a5a996-ef7c-4812-9a49-32bdd461cb79,北京市,北京市,昌平区,昌平区沙河镇西沙屯南侧局部地块,40.172398,116.25671,40.165884,116.241336,1
1101002017B02256,831bd762-0511-4089-ab6b-83f0b111b5e0,北京市,北京市,昌平区,北京市昌平区北七家镇东三旗村011地块R2二类居住用地,40.095151,116.42056,40.079544,116.320432,1
1101002017B02210,7e465463-21f2-472c-b4ec-e2a708d31e3b,北京市,北京市,大兴区,北京市大兴区,39.732555,116.348625,39.725506,116.335301,1
1101002009B04025,bd32d86e-b028-47e6-8fc9-4a273e76abc1,北京市,北京市,东城区,东城区安外大街8号楼,39.967752,116.414617,39.886912,116.425136,1
1101002009B00343,6ec6b106-86e1-4604-b675-276f2f0a2f73,北京市,北京市,密云县,密云县河南寨镇政府南侧,40.337157,116.833693,40.330268,116.820992,1
1101002011B14234,c0bfe29d-6c94-4ad5-8c5e-621b358df2dd,北京市,北京市,海淀区,海淀区海淀南路15号楼,39.982145,116.312247,39.90044,116.258232,1
1101002011B14185,a4a48971-7093-42e8-b43c-8e0086438a26,北京市,北京市,海淀区,海淀区东北旺西路8号,40.051701,116.299001,40.051448,116.290048,1
1101002011B14240,d2685285-e7c9-4de0-aa5f-377885f22ec0,北京市,北京市,海淀区,海淀区香山路西小府22号,40.004247,116.23183,40.045172,116.33204,1
1101002011B13545,a96a15bb-2d35-4bca-b2a0-d6574ea010a6,北京市,北京市,西城区,西城区民康胡同13号,39.92889,116.368412,39.921384,116.354272,1
1101002008B02467,a670602c-9a06-440d-8555-d6f6b2e0a9e4,北京市,北京市,朝阳区,朝阳区平房乡黄渠村63号,39.9303,116.57914,39.93868,116.529712,1
1101002008B02492,2df493b9-e497-4e76-bd46-0b6f2c1fd80b,北京市,北京市,海淀区,海淀区成府路,39.998612,116.343567,39.99346,116.329112,1
1102282013B00280,b7cf0c96-39ca-4a29-b74a-ba0a4619f4b8,北京市,北京市,密云县,北京密云经济开发区科技路55号,40.368034,116.818956,40.35174,116.811432,1
1101152011B00176,c2015911-4233-4d42-8e6c-ef948a25b88e,北京市,北京市,大兴区,中关村科技园区大兴生物医药产业基地,39.697969,116.325793,39.69086,116.31296,1
1101152011B00161,a04a5003-94ac-40cc-9c17-ee47deac37f7,北京市,北京市,大兴区,大兴区孙村组团,39.732555,116.348625,39.706376,116.39596,1
1101152018A00060,d59be854-192f-4095-b389-0921a35c40e7,北京市,北京市,大兴区,北京市大兴区,39.732555,116.348625,39.725506,116.335301,1
1101152007B00020,424f6421-0408-40bb-a5ed-d02ff6f7bcd5,北京市,北京市,大兴区,北京大兴经济开发区,39.732555,116.348625,39.90312,116.401,1
1101002007B00398,02884676-d27c-4661-b4ea-4ffe8d4b60c7,北京市,北京市,东城区,东城区西营房胡同9号院4号楼地下一层,39.958137,116.409505,39.918672,116.425688,1
1101002007B00176,c6b1db9d-b21d-4197-adef-ce8df12e9463,北京市,北京市,昌平区,昌平区长陵镇下口村,40.34982,116.246846,40.344044,116.240344,1
1101002007B00087,0758ced4-f73f-45b9-a8ae-afdf55fda1da,北京市,北京市,昌平区,昌平区长陵镇下口村,40.34982,116.246846,40.344044,116.240344,1
1101002007B00155,cdc44fb3-8533-433e-ab59-be0202a552ab,北京市,北京市,昌平区,昌平区长陵镇下口村,40.34982,116.246846,40.344044,116.240344,1
1101002007B00250,0e711d35-4b9c-4edd-9d8a-6bb901ba61da,北京市,北京市,东城区,东城区东四七条9号,39.937636,116.43136,39.933056,116.413952,1
1101002007B00167,78a2c727-67b2-4959-8162-bbfa4458d48b,北京市,北京市,东城区,东城区福祥胡同15号,39.940625,116.407574,39.919988,116.418088,1
1101002007B05043,ad934d83-e4f6-45ea-b121-0ab6bf62b31b,北京市,北京市,东城区,崇文区前门大街及东片地区A-14地块,39.905108,116.404243,39.897184,116.391848,1
1101002007B05086,4bd46fd0-f68a-4198-b5cc-4363def5f2ab,北京市,北京市,东城区,崇文区前门大街及东片地区A-16地块,39.905108,116.404243,39.897184,116.391848,1
3303272007B03404,5766a531-a570-44e5-922b-9b1b3168213e,北京市,北京市,东城区,龙港镇龙港大道以北 柳南路以南 现状河流以东 新华大楼后 龙港镇流浦村,39.910925,116.413384,39.554888,116.428296,1
1101002015B01947,e41d803a-5fbd-41a3-90e8-456817f6fc0a,北京市,北京市,昌平区,北京市昌平区,40.226413,116.237618,40.219406,116.225187,1
1101002008B06479,f990f081-fa3c-4c3b-9d95-747909c7c186,北京市,北京市,密云县,北京经济技术开发区南部新区X62M2号街区,40.381414,116.857438,39.78916,116.491544,1
1101002014B02426,92b963e1-751f-4290-ab84-13a37274aaf4,北京市,北京市,东城区,东城区赵府街49号,39.95239,116.403129,39.944504,116.390584,1
1101002007B03225,6b2e0415-91b1-48de-a2b3-02879f7f455d,北京市,北京市,西城区,西城区旧鼓楼大街51号,39.951111,116.400128,39.9432,116.387544,1
1101002007B05626,7f8e000d-37af-4cc1-ad69-8ea1768b2ce9,北京市,北京市,朝阳区,朝阳区常营乡,39.925755,116.590154,39.86036,116.468096,1
1101002016B00228,ca6d1369-1acd-4d65-8dfe-6716ec70cb15,北京市,北京市,朝阳区,北京市朝阳区,39.926375,116.449559,39.92052,116.43734,1
1101112015B01241,bc78a9f0-e717-4d1e-8183-b1a71171ad51,北京市,北京市,房山区,房山区城关街道前 后朱各庄村,39.716073,115.998545,39.558152,115.879112,1
1101002010B09801,e4add90a-94ea-4c59-aa5a-feca9b7718d3,北京市,北京市,大兴区,北京经济技术开发区路东区D7号街区D7M3地块,39.801131,116.513005,39.802328,116.497896,1
1101002010B08219,90dd089b-44e0-4e20-a804-dc69519d8bba,北京市,北京市,房山区,房山区迎风街道杏花西里57号,39.724773,115.965463,39.7236,115.94732,1
1101132007B00017,1acc2577-3b39-42a7-bbd9-a576d022d937,北京市,北京市,顺义区,顺义区林河工业区,40.055892,116.674288,40.049468,116.699144,1
1101002009B07153,eda92031-d25b-49ff-90de-39c088b30abaC,北京市,北京市,朝阳区,朝阳区小红门乡南辛庄,39.837446,116.461865,39.831784,116.455096,1
1101002011B00829,c8898646-782b-4790-9d22-9413aee3bdbe,北京市,北京市,丰台区,丰台区花乡四合庄1516-19地块,39.806607,116.319673,39.840512,116.321,1
1101002011B15374,758a3ecf-28db-490e-b89d-28f25e0c77f8,北京市,北京市,大兴区,北京经济技术开发区河西区X82街区X82R1地块,39.801131,116.513005,39.78916,116.491544,1
1101132011B00361,e6de1dd6-c693-42a3-92fc-dd13df8d20dc,北京市,北京市,顺义区,北务镇,40.069771,116.839609,40.068908,116.823032,1
1101002014B02021-2,5d3f13c4-4410-43f5-98e9-827307724398,北京市,北京市,大兴区,北京经济技术开发区路东区G1街区G1R1地块,39.801131,116.513005,39.78916,116.491544,1
1101002011B16679,4eecaecb-2ba3-4b18-a53d-8e21e25e1368,北京市,北京市,延庆县,北京市延庆县新城街区01-004西侧地块居住项目,40.545156,116.169735,40.468572,115.978544,1
1101002010B10996,5f5bcd26-9ec1-424d-83bf-b3bf37eb77f2,北京市,北京市,西城区,西城区百万庄大街甲2号,39.933731,116.361894,39.926572,116.349184,1
1101002011B13518,f6140404-65ee-41e9-889b-6e6caeb22007,北京市,北京市,丰台区,丰台区小屯路149号,39.881634,116.263028,39.889412,116.247272,1
1101002011B13509,edb6f0c7-d4b3-4aa0-910e-fe0307fcd073,北京市,北京市,西城区,西城区西楼巷胡同36号,39.939229,116.401412,39.931736,116.38876,1
1101002010B09205,209ee64e-4cce-4411-9b61-7565220c5f02,北京市,北京市,东城区,东城区藏经阁胡同17号,39.934827,116.422401,39.937532,116.406776,1
1101152018B00095,01aa238b-04d1-4576-9545-b31c06e2dd28,北京市,北京市,大兴区,大兴区庞各庄镇,39.615955,116.302532,39.633644,116.317824,1
1101002011B00677,06369c82-ddeb-475d-8632-e116ea3abd24,北京市,北京市,大兴区,大兴区黄村镇大庄,39.70918,116.337444,39.75202,116.286328,1
1101002009B06614,a37219e2-153c-4da6-abfb-26df440dae21C,北京市,北京市,大兴区,大兴区瀛海镇镇区改造项目回迁安置用房,39.750415,116.467538,39.76016,116.445568,1
1102282010B00016,4ac2028c-86af-4a8a-847b-c82d804a20ba,北京市,北京市,密云县,密云县西田各庄镇雁密路南侧,40.373116,116.76538,40.36778,116.831888,1
1101002010B10306,07e90e27-cc9b-4510-8a21-085799996025,北京市,北京市,顺义区,顺义区马坡东侧,40.175911,116.654968,40.1328,116.624744,1
1101002018B00579,e98a4ed4-55f6-4ecb-8fb7-1d488de90bcc,北京市,北京市,西城区,西城区正觉夹道25号,39.946106,116.380399,39.96212,116.377248,1
1101002011B14376,582f0c71-5862-4d63-8c0c-acb452ebebc0,北京市,北京市,海淀区,海淀区中关村软件园二期西扩起步区J-3地块,40.054472,116.298938,40.048092,116.267584,1
1101002010B10270,31f656bb-a062-446c-a291-a791d377efcd,北京市,北京市,大兴区,大兴区黄村镇,39.706174,116.389949,39.7527,116.320568,1
1101002008B01442,5543ffdf-a105-4cff-a79a-51eb8aa1208e,北京市,北京市,海淀区,海淀区海淀大街27号,39.988389,116.312462,39.98152,116.30108,1
1101002008B00430,71e4d8c0-aa34-4c0a-a827-3bcd823bc87cC,北京市,北京市,朝阳区,朝阳区幸福一村十巷2号,39.940748,116.4523,39.949008,116.444016,1
1101012008B00043,63c0361e-2723-484c-b536-87d27848ebd9,北京市,北京市,东城区,东城区小取灯胡同8号院1号楼1-14,39.935227,116.4142,39.918092,116.42572,1
1101132012B00155,9a5f8361-3e7f-456d-bc9e-31279ff9d771,北京市,北京市,通州区,北小营,39.80005,116.601671,40.156716,116.74008,1
1101002009B05182,6ca0b7c4-5a1b-4571-adc7-3d6391a02edf,北京市,北京市,房山区,房山区拱辰街道办事处东杨庄村,39.737491,116.149973,39.727532,116.15924,1
1101132009B00617,5d2d35b0-ecaf-40c6-a607-c32d71c2b7bb,北京市,北京市,顺义区,顺义区北小营镇后鲁各庄村北,40.194907,116.744652,40.18766,116.73992,1
1101112013B00224,057b7adb-62de-4f4f-922b-f2ad7a7f6cf9,北京市,北京市,房山区,北京市房山区窦店产业用地03街区B区工业用地,39.66241,116.07711,39.6503,116.06176,1
1101112014B00133,45505644-49be-4627-a890-53768c4c4a47,北京市,北京市,房山区,房山区城关街道办事处前 后朱各庄村,39.699654,115.988933,39.70422,116.00788,1
1101112014B00123,2b182c16-b6f3-49e8-b35c-c85024b629e6,北京市,北京市,房山区,房山区城关街道办事处前 后朱各庄村,39.699654,115.988933,39.70422,116.00788,1
1101112014B00115,54f080fa-e6c9-443b-971e-d13f0a504d0d,北京市,北京市,房山区,房山区窦店镇,39.65876,116.104146,39.612752,116.028672,1
1101002011B13383,80157a11-7d3e-4372-8654-cb7fe066688c,北京市,北京市,通州区,通州区运河核心区IV-02多功能用地,39.916017,116.663415,39.89162,116.667824,1
1101002011B15253,99769288-aeee-4dbc-875b-19909981a03f,北京市,北京市,朝阳区,朝阳区东三环南路25号,39.876503,116.466795,39.869528,116.45408,1
1101002012B20071,4d138542-d30e-455f-9c2f-62956962f028,北京市,北京市,丰台区,丰台区花乡六圈新村回迁房（富锦嘉园三期）,39.823945,116.290287,39.815224,116.283848,1
1101002012B19014,2219c3bd-0c13-4529-9763-feea23417a36,北京市,北京市,东城区,东城区安定门外大街60 62号,39.96546,116.414119,39.9618,116.402032,1
