electr_supervise_no,id,province,city,district,location,bd_lat,bd_lon,tdt_lat,tdt_lon,flag
"6209022010B00145","71de9bf8-924b-414f-9ad1-12c60e3ffa0c","甘肃省","酒泉市","肃州区","清水镇清水村六组南侧",39.369457,99.051055,39.356828,99.046768,1
"6209822015B00025","075c3a19-2118-4b9c-ba40-4105133abf0b","甘肃省","酒泉市","瓜州县","215国道南侧、秦家湾道路西侧戈壁",40.796940,95.206795,39.737112,98.493920,1
"6209002012B00118","c38e41b4-f22b-4a61-a3e0-49d2ebc55575","甘肃省","酒泉市","肃州区","新城区飞天路交阳关路西北角",39.761802,98.465667,39.761104,98.428552,1
"6209002013B00117","e8178383-a6b5-408c-9545-6a3ca3da6681","甘肃省","酒泉市","肃州区","新城区二期风电大道南侧、文体路西侧",39.750309,98.491456,40.137936,94.674472,1
"6209222016B00150","9607e82c-c25a-40a1-abd3-bb0dec102d56","甘肃省","酒泉市","肃北蒙古族自治县","高铁沿线布隆吉至红柳河",41.034499,96.437164,40.529504,96.542728,1
"6209212011B00226","55f3ef3a-78e5-49b9-8f46-fda581ade854","甘肃省","酒泉市","金塔县","金塔县金鑫工业区",39.990029,98.908368,39.951528,98.892368,1
"6209242015B00098","56ebb073-6aa1-4deb-aea8-c761b2d9064d","甘肃省","酒泉市","肃州区","北防风林带北侧、马厩东侧",39.738469,98.500685,39.731704,98.493280,1
"6209022015B00339","42d46bf0-037e-4d5c-b26c-cfa08be0b7ee","甘肃省","酒泉市","肃州区","总寨工业园区",39.738469,98.500685,39.645648,98.663048,1
"6209022015B00298","016491bd-3cc0-4bd4-8f75-22ddb17b8b47","甘肃省","酒泉市","肃州区","总寨工业园区",39.738469,98.500685,39.645648,98.663048,1
"6209212014B00028","32a31d15-2d4f-4949-b088-17e9a31cc24d","甘肃省","酒泉市","金塔县","金塔县金鑫工业区建材园",39.990029,98.908368,39.951528,98.892368,1
"6209222008B00115","7eb43e23-dcfa-4f79-a7df-c4129a02ea78","甘肃省","酒泉市","瓜州县","渊泉镇公园街以北、南大街以西",40.524170,95.788949,39.739532,98.509368,1
"6209822011B00178-1","564f5604-2d59-4656-8e32-b8e77c14120b","甘肃省","酒泉市","敦煌市","原敦煌市面粉厂大门西北侧",40.147867,94.668527,40.150864,94.664544,1
"6209222015B00510","1bd91d06-fcf8-44ea-a8dd-77acb86b1bd9","甘肃省","酒泉市","瓜州县","广至乡新堡村主干道路南侧、广至水管所东侧",40.522116,95.812064,40.410152,95.571984,1
"6209812008B00161","b24c73a6-1433-46a1-993a-141c9daafb09","甘肃省","酒泉市","玉门市","永宁路南侧，铁人路西侧",40.291910,97.044444,40.286668,97.038976,1
"6209222013B00069","4474a035-6803-492c-98f6-41f4bbc4da24","甘肃省","酒泉市","肃南裕固族自治县","柳沟物流园",39.395363,98.619450,39.778192,97.368496,1
"6209212010B00068","68e69c6d-acc1-49b3-9328-09722fc62fc1","甘肃省","酒泉市","金塔县","金塔县金鑫工业区",39.990029,98.908368,39.951528,98.892368,1
"6209822008B00092-1","40c7089f-ee38-459b-b0eb-185b7d750d8eA","甘肃省","酒泉市","敦煌市","敦煌市",40.147867,94.668527,40.141544,94.660904,1
"6209822016B00238","bcf29e44-d4ca-415a-b74e-b9971bb30c83","甘肃省","酒泉市","肃州区","314线南侧、晨辉石材厂对面",39.738469,98.500685,39.731704,98.493280,1
"6209222011B00598","ef51d644-2e4c-413d-8c82-788c28a64c68","甘肃省","酒泉市","瓜州县","瓜州新区",40.526106,95.788736,39.731704,98.493280,1
"6209812011B00528-2","067100e5-4d92-4188-98e6-0ca88e399cc6","甘肃省","酒泉市","肃州区","312国道西侧，拟建汽摩一条待南侧",39.767711,98.437567,40.290380,97.026624,1
"6209022018B00493","d73d80b9-87ee-4740-af09-6c68ee6f81af","甘肃省","酒泉市","肃州区","北大河北岸",39.754054,98.464297,40.310952,99.381952,1
"6209002014B00029","d4b6d4ed-404d-4d0b-b813-4f013d1291ae","甘肃省","酒泉市","肃州区","瓜州路西侧、敦煌路南侧",39.733585,98.503852,39.733568,98.476120,1
"6209822010B00525","cd3beb87-f67c-4763-abce-5027afb02202","甘肃省","酒泉市","肃州区","飞天嘉园东北侧",39.738469,98.500685,40.133808,94.667912,1
"6209222014B00387-1","51b1c0b2-ca6b-4ec2-acc4-5cde35e6a78a","甘肃省","酒泉市","瓜州县","瓜州工业园区",40.526106,95.788736,40.550108,95.781312,1
"6209222012B00299","0c02ceaf-aec5-4be1-88df-4d5658e7c081","甘肃省","酒泉市","瓜州县","瓜州新区",40.526106,95.788736,39.731704,98.493280,1
"6209232010B00118","3a202d33-2aa9-442c-a46e-8fb28b6bfbe3","甘肃省","酒泉市","肃北蒙古族自治县","马鬃山长流水",41.276392,95.854892,41.269224,95.844456,1
"6209022013B00392-1","3229f417-d2e7-4f2e-886a-29e41efd2612","甘肃省","酒泉市","肃州区","肃州区果园建材工业园",39.751246,98.514322,39.722768,98.509424,1
"6209212016B00078-5","4ebec576-1566-47dc-8541-2f0dd2aa942a","甘肃省","酒泉市","金塔县","金塔县潮湖林场四站",39.974923,98.897367,40.027844,98.931152,1
"6209212009B00052-1","87681652-a446-4d2a-ab2d-03dc278989c7A","甘肃省","酒泉市","金塔县","金塔县金鑫工业区",39.990029,98.908368,39.951528,98.892368,1
"6209212009B00032-1","844ef717-55da-431c-adf7-84d7f8cbce03A","甘肃省","酒泉市","金塔县","金塔县金鑫工业区",39.990029,98.908368,39.951528,98.892368,1
"6209022010B00427","e6ecc043-6865-4a48-8d6a-8eb267c80d2f","甘肃省","酒泉市","肃州区","果园乡中所沟旧村委会",39.792747,98.516889,39.784748,98.501280,1
"6209022012B00833","879a3f4a-2ffc-483b-b0b5-9e273421ae0a","甘肃省","酒泉市","肃州区","丰乐乡大庄村10组",39.374827,98.859331,39.373320,98.847136,1
"6209212010B01329","16e4b910-69f0-4467-af51-6df73c3546db","甘肃省","酒泉市","金塔县","航天镇西和村",40.398911,99.653823,40.392368,99.645880,1
"6209222013B00083","bdfe4012-335b-4452-b330-cf513a0f59c9","甘肃省","酒泉市","肃南裕固族自治县","柳沟物流园",39.395363,98.619450,39.778192,97.368496,1
"6209822009B00189","c09ab431-cb6f-4be1-8b12-e7aab06594b3","甘肃省","酒泉市","敦煌市","党河西路西侧、莫高东路南侧",40.152845,94.661731,40.140540,94.653752,1
"6209002008B00118-1","4a21f6ec-7b05-4d1a-a606-fb2eefbff11bA","甘肃省","酒泉市","肃州区","酒泉市新城区飞天路西侧、规划道路南侧",39.761802,98.465667,39.729308,98.496144,1
"6209222013B00135","386d866f-607a-47e2-8259-bb651052dbce","甘肃省","酒泉市","肃南裕固族自治县","柳沟物流园",39.395363,98.619450,39.778192,97.368496,1
"6209222013B00100","b026a63a-5733-49db-8168-234fb66a9d07","甘肃省","酒泉市","肃南裕固族自治县","柳沟物流园",39.395363,98.619450,39.778192,97.368496,1
"6209212010B01022","0cfa3bd0-56cc-4de7-bf76-1bffecf68556","甘肃省","酒泉市","金塔县","金塔县金鑫工业区",39.990029,98.908368,39.951528,98.892368,1
"6209822010B00377","70ed650d-87d8-4d42-bf09-08beb2281051","甘肃省","酒泉市","敦煌市","七里镇工业园区",40.098967,94.594950,39.695388,98.494552,1
"6209222017B00409","77998844-4d05-41b1-81c0-911a43c3b74a","甘肃省","酒泉市","肃州区","河东乡桥湾312国道南侧",39.767711,98.437567,40.570156,96.740856,1
"6209212013B00139-1","b581875e-6bdb-4176-a8a6-836d6fd408c1","甘肃省","酒泉市","金塔县","金塔县大庄子乡二墩滩",40.221659,99.067954,40.214936,99.060016,1
"6209022013B00037-1","eb456085-60cc-4100-a5f8-1868a3b5f884","甘肃省","酒泉市","肃州区","甘肃酒泉工业园区（南园）",39.770195,98.417875,39.761800,98.410112,1
"6209822014B00309-2","db769088-b1cf-40ac-8dae-0913165e4ab8","甘肃省","酒泉市","瓜州县","215国道东侧、万盛建材市场南侧",40.796940,95.206795,39.734056,98.529040,1
"6209232016B00122","06f49e84-ada7-4f78-9f3d-9cae37a2d73a","甘肃省","酒泉市","肃北蒙古族自治县","石包城乡",39.815843,96.027447,39.809816,96.020728,1
"6209222016B00118","2d814ae8-6df9-4336-8ae4-8a4fb987910b","甘肃省","酒泉市","敦煌市","敦煌铁路围栏25米北侧",40.147867,94.668527,40.167760,94.784168,1
"6209222011B00088","755abf96-ba7f-435d-865f-9530fbba758c","甘肃省","酒泉市","肃州区","北大桥工业聚集区",39.759292,98.487543,40.544448,95.806800,1
"6209222011B00030-1","1e6cbb0a-f4e9-4993-821f-a5b2f79dd91e","甘肃省","酒泉市","瓜州县","瓜州北大桥工业集聚区",40.526106,95.788736,39.731704,98.493280,1
"6209212011B00352-1","94b81aca-c313-4dc5-a95e-f1c364f4f0da","甘肃省","酒泉市","金塔县","金塔县北河湾工业区",40.280815,99.095205,40.273780,99.087336,1
"6209822010B00439","2e42e9dd-a276-412f-9c48-b20b48a79c21","甘肃省","酒泉市","肃州区","省道314线北侧、光明汽修厂东侧",39.738469,98.500685,39.731704,98.493280,1
"6209022018B00299","f6595a63-a26a-49e8-a14f-630afd25c324","甘肃省","酒泉市","肃州区","酒泉经济技术开发区（南园）泰安路西侧、酒泉通达路桥公司用地北侧",39.738469,98.500685,39.739520,98.506520,1
"6209812011B00355-1","c3852a1f-3a8d-4c5d-852d-c24943601d9d","甘肃省","酒泉市","玉门市","玉门市石油大道东侧、永吉路南侧",40.297620,97.051712,40.285468,97.048896,1
"6209822014B00544","e047a202-dc9b-4125-8486-8fcfc1a39b82","甘肃省","酒泉市","肃州区","祁连路北侧，解放军某部西侧",39.731434,98.542033,39.751732,98.494392,1
"6209022012B00963","f7cd56b2-6f08-432d-9f60-4416a8d3d361","甘肃省","酒泉市","肃州区","清水镇马营村以东6KM处",39.327172,99.223614,39.321036,99.216168,1
"6209222014B00797","f15cf523-477e-46d3-90a3-54f77514ba7e","甘肃省","酒泉市","肃州区","安北第六风电场A区",39.738469,98.500685,39.741716,98.503832,1
"6209242010B00134","5d89df1c-8088-4b84-9f58-42993dcba69f","甘肃省","酒泉市","阿克塞哈萨克族自治县","阿克塞县阿勒腾乡当金山南7.8公里处",38.790971,94.262387,39.330892,94.254496,1
"6209822012B00018","9bf33a14-e78d-4012-8827-eb6dfe6c9d85","甘肃省","酒泉市","敦煌市","敦煌市福来德航空俱乐部南侧",40.147867,94.668527,40.141544,94.660904,1
"6209222016B00080","b1f3eb6f-13ff-422e-9024-5f18aa063cfa","甘肃省","酒泉市","瓜州县","广至藏族乡洮砚村社区东侧",40.410150,95.646089,40.410196,95.576568,1
"6209812010B00056","26325b1e-a900-420a-acef-271205e918b5","甘肃省","酒泉市","玉门市","玉门市新市区铁人路东侧",40.292530,97.046025,40.286668,97.038976,1
"6209822013B00116","f8e9cf88-87ae-4899-bea9-1d05eb73c864","甘肃省","酒泉市","敦煌市","敦煌山庄西侧",40.111314,94.675822,40.105092,94.670152,1
"6209002009A00025-2","372bf4e9-6aac-482e-a558-9ff60aa756baAA","甘肃省","酒泉市","肃州区","新城区西关路北侧；地块编号为B05南地块",39.751893,98.500086,39.755908,98.450984,1
"6209002009A00030-2","1b3821c1-4d21-44c6-b0c4-948feb4d9ec4AA","甘肃省","酒泉市","肃州区","肃州区金泉路交建设路西南角",39.745170,98.528337,39.722768,98.509424,1
"6209242012B00053","a55b9358-7039-4f3e-b371-e9a7861954c5","甘肃省","酒泉市","阿克塞哈萨克族自治县","阿克塞县红柳湾镇东北、国道215线阿克塞收费站东侧约90米处",39.658021,94.371782,39.651328,94.363728,1
"6209212008B00260","a480c056-82f2-4c86-99ab-bbecccec46d1","甘肃省","酒泉市","金塔县","金塔县金鑫工业区",39.990029,98.908368,39.951528,98.892368,1
"6209222012B00158","d0760196-9e86-4bba-93c4-630759d367bc","甘肃省","酒泉市","瓜州县","瓜州新区",40.526106,95.788736,39.731704,98.493280,1
"6209812016B00047","fde206fe-672e-46f3-a896-d0f0b0e2837c","甘肃省","酒泉市","玉门市","玉门市花海镇金湾村玉花路北侧",40.222769,97.735776,40.213532,97.728576,1
"6209222016B00260","ccf04a58-f902-43d7-98b8-9e7bc6acfd6a","甘肃省","酒泉市","肃州区","双塔乡镇集镇、政府北侧",39.751166,98.514421,39.646120,98.664160,1
"6209022015B00587","6537cd08-c16d-4ee1-ac14-41bd162ff369","甘肃省","酒泉市","肃州区","肃州区银达镇拐坝桥村二组居民点北侧",39.802599,98.588115,39.801588,98.566912,1
"6209232011B00139","c6296281-345d-4fde-9111-4b08ef6b5997","甘肃省","酒泉市","肃北蒙古族自治县","肃北县马鬃山镇",41.816461,97.035192,39.511892,94.875816,1
"6209022016B00440","ec6e948b-2835-409d-8f78-444d64c23086","甘肃省","酒泉市","肃州区","肃州区西洞镇新地公路东侧、酒泉中心粮库南侧",39.578796,98.408524,39.745784,98.502848,1
"6209812011B00614-1","39dc4f87-6c40-4a8d-8100-c263f39b77aa","甘肃省","酒泉市","肃州区","柳河路南侧、石油大道东侧、规划风光大道西侧",39.763219,98.412186,39.744552,98.491536,1
"6209812010B00108-1","272c3add-c6af-4b90-bc48-65ac94319f0c","甘肃省","酒泉市","肃州区","步行街南端，中心加油站东侧",39.694163,98.606596,40.283248,97.033240,1
"6209232012B00401","19089448-d234-4237-98a3-26b657688761","甘肃省","酒泉市","肃北蒙古族自治县","肃北县党城工业园区",39.509602,94.902968,39.516108,94.872728,1
"6209212015B00066-1","35f01cba-3dd6-4d09-9fb8-82d34aac6aac","甘肃省","酒泉市","金塔县","金塔县三合乡红星村四组",40.096324,98.954779,39.983524,98.900976,1
"6209812012B00117","b3442791-f37f-4634-95e6-812ecd1d2119","甘肃省","酒泉市","玉门市","花海镇、低窝铺等处",40.516593,97.819684,40.137100,97.233272,1
"6209822016B00396-1","724de13b-88c3-41fd-9c60-a2fd6b7ec3ab","甘肃省","酒泉市","敦煌市","敦煌市国道215线南侧，秦家湾西路西侧",40.054422,94.553684,40.066708,94.548944,1
"6209812014B00132-1","86605ca6-b1e2-4a3c-81c2-cce6bb184e5d","甘肃省","酒泉市","肃州区","循环经济产业园酒泉路以南、浩海焦化项目东侧",39.738469,98.500685,39.793464,97.908048,1
"6209212012B00025","554f736f-dc33-49c8-bc90-8bb5c1986d65","甘肃省","酒泉市","金塔县","金塔县金大支渠东",40.035752,98.961449,39.969552,98.906008,1
"6209822011B00358","2257efda-b4b9-42a0-850a-4a26a336fe2a","甘肃省","酒泉市","敦煌市","敦党河水库坝址以上30公里处",39.957544,94.338880,39.952896,94.329600,1
"6209822015B00300","190fa9da-389e-4716-99e2-fb5c2510b133","甘肃省","酒泉市","敦煌市","敦煌市314线，原五墩加油站旧址",40.147867,94.668527,40.103712,94.582368,1
"6209222009B00015-3","d818ad18-0c17-4fa2-b050-38a1b2d1803bAAA","甘肃省","酒泉市","瓜州县","瓜州新区",40.526106,95.788736,39.731704,98.493280,1
"6209022015B00243","0e35201e-8783-4c91-ac8e-511fadc02324","甘肃省","酒泉市","肃州区","总寨工业园区",39.738469,98.500685,39.645648,98.663048,1
"6209212015A00328","7c7520e6-71c6-4018-98a7-676f67e53a9d","甘肃省","酒泉市","金塔县","金塔县东坝镇小河口村",40.161830,99.043389,40.160388,99.038008,1
"6209812014B00225-1","0ba5bc18-bfef-4866-9681-f27e0abc1115","甘肃省","酒泉市","肃州区","新城区312国道西侧，敦煌种业北侧",39.767711,98.437567,39.734832,98.511944,1
"6209242012B00185","1c987d53-3d6c-4a68-8dd5-54a90dd06a1d","甘肃省","酒泉市","阿克塞哈萨克族自治县","阿克塞县阿勒腾乡原海子215国道线",38.508204,94.493054,40.322340,97.108120,1
"6209812015B00165","a184938a-0089-49fd-ba79-191914d3e084","甘肃省","酒泉市","玉门市","玉门新市区312国道西侧，顺兴加注一站两侧",40.044494,97.426798,39.722256,98.491648,1
"6209212011B00748","cdb1dffb-0263-4681-b16b-1d374954ff69","甘肃省","酒泉市","金塔县","金塔镇胜利村",40.044428,98.955392,40.028000,98.936944,1
"6209212011B00797","78273521-d397-45f2-8cde-600bd18be6ce","甘肃省","酒泉市","金塔县","中东镇旧寺墩村村",40.126102,98.824455,40.237212,98.923712,1
"6209812013B00047-2","3b7d8bb5-63b4-4b15-b127-5922ae2402eb","甘肃省","酒泉市","玉门市","嘉安高速公路",40.354181,97.050755,40.540256,95.833112,1
"6209822011B00108","52a1ed21-7b10-495e-a00b-abb2163c4113","甘肃省","酒泉市","敦煌市","杨家桥佛爷庙湾道路北侧",40.132053,94.671104,40.113208,94.708584,1
"6209222011B00102","bfddb43d-5950-4076-a791-36b9a48a5f5f","甘肃省","酒泉市","瓜州县","瓜州新区",40.526106,95.788736,39.731704,98.493280,1
"6209232009B00132-1","733909fc-bdf6-4863-ae35-e6d7519ed86f","甘肃省","酒泉市","肃州区","马鬃山",39.738469,98.500685,41.587688,96.874808,1
"6209212015B00167","21fac426-e734-4884-ab32-0785eaa21198","甘肃省","酒泉市","金塔县","金塔县金鑫工业园区",39.963111,98.899243,39.983524,98.900976,1
"6209222011B00148","2cec1f52-c3e0-4ad7-a4c0-d94427aecaa8","甘肃省","酒泉市","瓜州县","瓜州新区",40.526106,95.788736,39.731704,98.493280,1
"6209212013B00033-1","4f0e2490-3411-4bd7-a41d-db13ddc67205","甘肃省","酒泉市","金塔县","金塔县城区中山街南，酒航路东",39.985703,98.904305,40.016132,98.921936,1
"6209022015B00063","e2f52ab9-a536-4f82-b6bd-fe3e57ca3c10","甘肃省","酒泉市","肃州区","酒泉经济技术开发区（南园）",39.738469,98.500685,39.723816,98.497592,1
"6209232016B00176-1","3593eb8c-2289-4eaa-8404-3760a16e8f78","甘肃省","酒泉市","肃北蒙古族自治县","马鬃山镇",41.816461,97.035192,41.809000,97.027856,1
"6209212016B00165","24955512-0119-45d5-adb6-e161d18e2d6a","甘肃省","酒泉市","金塔县","金塔县北河湾循环经济产业区",40.280815,99.095205,40.273780,99.087336,1
"6209002013B00358","51d4347a-93dd-416a-9e7f-3274a5ea00fd","甘肃省","酒泉市","肃州区","肃州区东郊富强路西侧",39.746526,98.530249,39.743692,98.540184,1
"6209822010B00388","41927dc6-3e97-4f82-8110-6f4c258a3169","甘肃省","酒泉市","肃州区","雅丹棉业有限责任公司西侧",39.738469,98.500685,40.143640,94.696792,1
"6209812010B00578","749ade73-7000-4bf4-be67-dd03d65d05c0","甘肃省","酒泉市","玉门市","玉门镇老城区光明路以东，电影院以南",40.285456,97.032151,0.000000,0.000000,1
"6209222014B00604-1","bc154ace-aae2-4cbf-83e9-b8b2696d6711","甘肃省","酒泉市","瓜州县"," 祁连街北侧、文昌路东侧，光明苑佳苑西侧",40.517498,95.784017,40.510416,95.779208,1
"6209212011B00329","65d718d8-58b9-4070-b5e9-87d3670d10cd","甘肃省","酒泉市","金塔县","航天镇政府驻地",40.379241,99.641829,39.737288,98.488072,1
"6209222011B00845","8ab3ed4a-3211-49c1-a88a-542c3babf110","甘肃省","酒泉市","瓜州县","瓜州新区（敦煌铁路北侧）",40.526106,95.788736,40.167760,94.784168,1
"6209212015B00132","f61acaa9-79c2-4267-89c8-ebc528937ce8","甘肃省","酒泉市","金塔县","金塔县北河湾工业园区",40.280815,99.095205,40.273780,99.087336,1
"6209232016B00184-2","579042e4-da50-4975-a8d3-9f65aef2e9dc","甘肃省","酒泉市","肃北蒙古族自治县","党城湾镇党河上游",39.091388,95.889036,40.107340,94.636528,1
"6209212014B00089-1","c509261f-2944-4399-9151-e12e732dd024","甘肃省","酒泉市","金塔县","金塔县航天镇东岔村二组东滩",40.418838,99.713696,40.411764,99.705784,1
"6209222018A00270","87087437-2607-46e3-9109-c22386dedfeb","甘肃省","酒泉市","瓜州县","锁阳城镇集镇西北侧、破城子遗址西侧1.6公里处",40.313860,95.770456,40.307188,95.906984,1
"6209232015B00177","6f91ab14-79ae-4a38-a5dc-d1981aecebfb","甘肃省","酒泉市","肃北蒙古族自治县","肃北县马鬃山",39.518330,94.883692,39.519216,94.838944,1
"6209822013B00361","c92d3670-e256-4bb4-af45-588fa4db0c66","甘肃省","酒泉市","敦煌市","阳关中路、农机公司综合楼北侧",40.147137,94.658993,39.731704,98.493280,1
"6209222008B00185-1","12d40ac4-0b59-49ed-8259-c4572d18a3f7A","甘肃省","酒泉市","瓜州县","瓜州新区",40.526106,95.788736,39.731704,98.493280,1
"6209212011B02408","07b8fcd5-56a4-4938-b24a-0fba00ea64ec","甘肃省","酒泉市","金塔县","金塔县古城乡新光村",40.188936,98.873869,40.138180,98.861968,1
"6209822014B00285-1","7762d129-f0e6-4d47-849f-3207508b1772","甘肃省","酒泉市","敦煌市","敦煌市工业园区内",40.147867,94.668527,40.201412,94.553672,1
"6209242010B00015","2896c7d7-f175-4143-8e7f-2122dc43ead9","甘肃省","酒泉市","阿克塞哈萨克族自治县","阿克塞县商业街以东、天然气公司南",39.638302,94.353460,39.629700,94.343232,1
"6209812012B00644","01f9c3ca-0448-48fc-bfa7-a4309eb454e9","甘肃省","酒泉市","玉门市","玉门市农牧业局南侧，西河坝东侧",40.286668,97.030532,40.280000,97.023272,1
"6209812016B00251","2112e587-77cc-4fe2-9a03-d7096e895207","甘肃省","酒泉市","玉门市","玉门市风光大道以南、光彩新能源西侧",40.297620,97.051712,40.278120,97.042088,1
"6209812015B00385","b6f9a8b1-6ef0-4753-bfbd-6fd68397e81d","甘肃省","酒泉市","玉门市","玉门市经济开发区玉关北路以东，柳河路以南",40.310724,97.053804,40.307808,97.038616,1
"6209812010B00270","ee83c6e9-4393-486b-b159-840e80398472","甘肃省","酒泉市","玉门市","玉门河西恒煜公司北侧、甘来选矿厂东侧",40.297620,97.051712,39.720208,97.233264,1
"6209212012B00102","69aaaeee-7d28-488b-980c-6f02d77cfa98","甘肃省","酒泉市","金塔县","金塔县金鑫工业集中区金航大道北侧、酒金公路东",39.990029,98.908368,39.955264,98.943360,1
"6209812011B00640-1","610a13a9-09aa-46db-a1b9-57238bd597cc","甘肃省","酒泉市","肃州区","拟建风光大道西侧、石油大道东侧、312国道北侧",39.763219,98.412186,40.079300,94.477120,1
"6209812018B00132","34671ef4-f5a9-47b3-84be-836b640ed18e","甘肃省","酒泉市","玉门市","花海镇大畅河红柳泉沙化土地封禁保护区大畅河管理站西侧",40.516593,97.819684,40.219192,97.870352,1
"6209022015B00096","d339f3db-722e-4fb7-8608-ccaf4e85fef5","甘肃省","酒泉市","肃州区","酒泉经济技术开发区（南园）",39.738469,98.500685,39.723816,98.497592,1
"6209022010B00484","72772459-9cdd-4f35-9cfd-64ce9cd8b5e4","甘肃省","酒泉市","清水河县","酒航公路西侧、清水河以北 ",39.926334,111.653576,39.753736,98.541896,1
"6209022010B00352","59048bee-f820-4f63-9b73-51446a63f3f5","甘肃省","酒泉市","肃州区","泉湖乡卫生院西侧",39.754900,98.570558,39.748480,98.563608,1
"6209822012B00289","212c146d-0074-407a-963a-f631ddfb8215","甘肃省","酒泉市","敦煌市","敦煌市七里镇工业园区石棉仓储加工区内",40.098967,94.594950,40.131668,94.679856,1
"6209022016B00178","c1899373-1e48-4464-824a-970c393ac4fd","甘肃省","酒泉市","肃州区","总寨工业园区",39.738469,98.500685,39.645648,98.663048,1
"6209022016B00260","eeeacc44-4384-4a93-9e1f-ffe0fc40c98e","甘肃省","酒泉市","肃州区","总寨镇工业园区",39.696742,98.603558,40.198620,94.548584,1
"6209822010B00260","e8e68570-d1d2-44b7-8d0c-8f1ef986b867","甘肃省","酒泉市","敦煌市","敦煌市南门外鸣山路130号",40.141919,94.668721,40.141544,94.660904,1
"6209822015B00118-1","0536d3aa-4ff6-4899-96d0-9d79e47899cf","甘肃省","酒泉市","肃州区","祁连路东侧、环城北路南侧",39.731434,98.542033,39.720988,98.547232,1
"6209222014B00639-1","18a0e7d3-0388-49ec-8652-c95107f2d3f0","甘肃省","酒泉市","肃州区","北大桥、粮食仓库对面",39.759292,98.487543,39.752584,98.480080,1
"6209242018B00109","c203373b-5b4b-4ca2-9705-12d848b28686","甘肃省","酒泉市","阿克塞哈萨克族自治县","阿克塞县北防风林带北侧、阿克塞县建筑安装有限公司西侧",39.640045,94.346760,39.778576,98.524584,1
"6209822014B00710","3f3ff0e7-df42-4b61-b4f5-c7efebc08563","甘肃省","酒泉市","敦煌市","七里镇秦家湾道路西侧",40.054422,94.553684,40.072860,94.557896,1
"6209022018B00458","949eff11-f654-4321-8754-37389753ef23","甘肃省","酒泉市","肃州区","北大河北岸",39.754054,98.464297,40.310952,99.381952,1
"6209232009B00098","1f2555d5-3a1d-4c5e-8a01-b92b400900b3","甘肃省","酒泉市","肃州区","马鬃山",39.738469,98.500685,41.587688,96.874808,1
"6209002012B00049","1f94c9bf-3e18-4fef-8963-2e3993855966","甘肃省","酒泉市","肃州区","新城区会丰路南侧",39.759077,98.498397,39.750948,98.481912,1
"6209812011B00365-1","25ffd951-a510-456d-aeb3-7e7a6173e950","甘肃省","酒泉市","肃州区","312国道西侧，玉布路南侧",39.767711,98.437567,40.480524,96.777576,1
"6209222011B00172","4c183c22-b294-46f2-9b01-765cf9d6373d","甘肃省","酒泉市","瓜州县","桥湾收费站东北处",40.585737,96.744434,40.578620,96.737480,1
"6209812011B00131","b5f655c0-15d9-4282-b231-e32e574c35c5","甘肃省","酒泉市","玉门市","玉门市赤金镇人民政府旧广场",40.021288,97.433322,40.014480,97.425992,1
"6209022017A00459","ee5d134a-b925-4ca1-ba67-7b88d1021941","甘肃省","酒泉市","肃州区","北新街南侧",39.756636,98.519876,39.731704,98.493280,1
"6209002012A00036","00e35368-0c01-46ae-bb44-c424b7ab91ee","甘肃省","酒泉市","肃州区","肃州区祁雪路东侧",39.751246,98.514322,39.739080,98.530744,1
"6209232008B00049-1","3b7e9b18-ae89-4f2a-984c-bd98c4d6ef7bAA","甘肃省","酒泉市","肃北蒙古族自治县","马鬃山镇",41.816461,97.035192,41.809000,97.027856,1
"6209232014B00201-1","c92a4390-0971-43dd-8c2a-d07790d0d869","甘肃省","酒泉市","肃北蒙古族自治县","肃北县马鬃山镇",41.816461,97.035192,39.511892,94.875816,1
"6209212016B00177","24ece39e-ce99-4cce-8833-0a4ed3f87598","甘肃省","酒泉市","金塔县","金塔县羊井子湾乡大泉湾村村委会南",40.029505,99.005117,40.033308,99.019720,1
"6209022017B00418","4b12627e-dfb8-4d59-9d57-6a44dad547b3","甘肃省","酒泉市","肃州区","酒泉经济技术开发区（南园）",39.738469,98.500685,39.723816,98.497592,1
"6209212011B00966","e59eaec9-fb19-481e-8ae7-4c5f5e11aa83","甘肃省","酒泉市","金塔县","金塔县金塔镇上杰村",39.996244,98.910129,39.989968,98.899848,1
"6209022012B00278","fb75e7af-d325-4a24-a363-82716d5a9adb","甘肃省","酒泉市","肃州区","泉湖乡泉湖村六组",39.750182,98.543543,39.743308,98.535984,1
"6209222018B00137","d6c21132-bc79-4b4c-a255-5ce5ee49af4a","甘肃省","酒泉市","肃州区","宏祥棉业北侧、薛吉成宅院西侧",39.738469,98.500685,40.499488,95.778248,1
"6209812010B00625-1","fa2eed7c-b3ab-458e-919f-1d12d0d13dea","甘肃省","酒泉市","玉门市","玉门市赤金镇",40.021288,97.433322,40.007496,97.427160,1
"6209222016B00187","3f783e03-97ba-4f44-aa8c-f251fcb5a014","甘肃省","酒泉市","瓜州县","瓜州县安简棉业南侧",40.526106,95.788736,40.482260,95.779464,1
"6209212009B00388","69355c41-dcef-483d-9a7c-6841c3bdb358","甘肃省","酒泉市","金塔县","金塔县西川工业区",39.990029,98.908368,39.951528,98.892368,1
"6209022014A00861-1","04f859fd-23cb-4818-bd63-75db0cf1a49f","甘肃省","酒泉市","肃州区","甘肃酒泉工业园区（南园）",39.770195,98.417875,39.761800,98.410112,1
"6209822011B00245","f3ec6f92-e686-4352-a48a-8658884446b5","甘肃省","酒泉市","敦煌市","建荣市场南侧、房管局经济适用住房东侧",40.145592,94.682018,39.731704,98.493280,1
"6209812011B00769-3","6c32ebd5-d724-487a-99c6-e1b86a7d0be6","甘肃省","酒泉市","玉门市","玉门昌马特许权风电场中控楼东侧",40.297620,97.051712,39.854380,96.773856,1
"6209822011B00425","7ce0f053-daa0-4588-861a-3e31f182ecdc","甘肃省","酒泉市","肃州区","三元沟",39.738469,98.500685,39.731704,98.493280,1
"6209222013B01062","724d7369-e505-47cb-b9e9-460da2dbfd05","甘肃省","酒泉市","肃州区","柳园石材园区",39.738469,98.500685,39.731704,98.493280,1
"6209222014B00329-1","326c2a15-533c-4d5f-984e-067765cdbf37","甘肃省","酒泉市","瓜州县","瓜州县南市街南侧、广德路东侧",40.522227,95.800785,40.512732,95.780928,1
"6209212015B00250","5dbcd125-2314-40e3-b96d-32a914759413","甘肃省","酒泉市","金塔县","金塔县航天镇西和村",40.398911,99.653823,40.392368,99.645880,1
"6209002009B00065-1","b0a24974-2c84-455f-87c5-19e2a4ed5d18A","甘肃省","酒泉市","肃州区","酒泉市烟草公司盘旋东路22号",39.742269,98.519530,39.735192,98.512528,1
"6209222015B00054-1","2a6d9d15-0fb5-41fd-b2c2-b438d1cb71f8","甘肃省","酒泉市","肃州区","北大桥、中电科耀塔筒厂东侧",39.759292,98.487543,39.752720,98.480064,1
"6209212012B00469","9183984e-6ac4-49c9-a41f-cdd7a0a94c65","甘肃省","酒泉市","金塔县","金塔县航天镇双城村",40.421481,99.691901,40.414712,99.683936,1
"6209812012B00488-1","ad732efb-8b73-4736-abad-c9a1448fcfb5","甘肃省","酒泉市","玉门市","玉关路东侧，靖西路西侧,柳河路北侧",40.313740,97.054790,40.308488,97.048088,1
"6209812012B00500-2","6415d081-6614-475f-b67c-be2332ac9574","甘肃省","酒泉市","玉门市","玉关路东侧，靖西路西侧,柳河路北侧",40.313740,97.054790,40.308488,97.048088,1
"6209812008B00206","a9404845-9634-421d-ba5c-03950666ee3e","甘肃省","酒泉市","肃州区","赤金甘店子高速公路北侧",39.738469,98.500685,40.034072,97.424816,1
"6209222012B00321","bd3048fa-14df-442c-8815-eeed212a332e","甘肃省","酒泉市","肃州区","柳园石材园区",39.738469,98.500685,39.731704,98.493280,1
"6209222012B00314","a4714f81-bc6b-44b1-86b5-a1497916997c","甘肃省","酒泉市","肃州区","柳园石材园区",39.738469,98.500685,39.731704,98.493280,1
"6209812012B00192","8af97f5e-1223-4e45-b011-afd39aacd407","甘肃省","酒泉市","玉门市","柳河路南侧，看守所北侧",40.310724,97.053804,40.302928,97.051880,1
"6209812011B00208","d0d070c2-d528-4aa2-aced-aebf61efbc46","甘肃省","酒泉市","玉门市","玉门市通安路南侧",40.288969,97.045151,40.282068,97.038328,1
"6209222014B00280-1","c60a50b6-e051-49a2-833e-bde32a4fb7c8","甘肃省","酒泉市","肃州区"," 双塔乡政府东侧、加油站南侧",39.751166,98.514421,40.463272,96.497064,1
"6209002011A00201","5a0f6474-ec5c-40c4-a49e-f58ced6125c7","甘肃省","酒泉市","肃州区","富康路交莫高路西南角",39.738343,98.504293,39.731384,98.497608,1
"6209222011B00687","3b8da4a4-17ad-46ce-93c9-f278fd674b4d","甘肃省","酒泉市","肃州区","干河口西",39.738469,98.500685,40.553036,95.527040,1
"6209002013B00048","a1f0e635-a888-486d-8400-52c313898e49","甘肃省","酒泉市","肃州区","肃州区解放路以东、肃北路南侧",39.712293,98.507693,39.725944,98.511832,1
"6209222014B00800-1","a6bfe19f-d7a2-4505-bf00-4f0161f5384d","甘肃省","酒泉市","肃州区","安北第六风电场",39.738469,98.500685,39.714596,98.540896,1
"6209242015A00020","de625ee6-38c6-4f55-a3d1-a2dca910062c","甘肃省","酒泉市","阿克塞哈萨克族自治县","阿克塞县西防风林带二期西侧",39.640045,94.346760,39.632868,94.338816,1
"6209812011B00077","ce6f6c65-a958-415d-b499-8ec4d5f233d7","甘肃省","酒泉市","玉门市","玉门市工业园区玉宏建材厂西侧",40.297620,97.051712,40.282760,97.027656,1
"6209222011B00810","0e24ba9b-d361-497e-8c1e-0ddb4c84a059","甘肃省","酒泉市","敦煌市","渊泉街延伸段以南、总干渠以东南",39.986777,94.380771,40.092288,94.632264,1
"6209222012B00058","fc8f67a4-82a2-4b2e-afc0-f20d916d0a2e","甘肃省","酒泉市","瓜州县","瓜州县县城西北约57公里处",40.526106,95.788736,40.264852,95.982544,1
"6209812014B00307-1","4be51c76-dbd3-4c2d-bd25-d6701600cb62","甘肃省","酒泉市","玉门市","玉门经济开发区柳河东路北侧、农机交易市场东侧",40.297620,97.051712,39.733000,98.497088,1
"6209212011B02465","f4788138-a428-4f26-81fd-e9cdcedfd26e","甘肃省","酒泉市","金塔县","金塔县光电园区",39.990029,98.908368,39.983524,98.900976,1
"6209222013B00893","dc7536ba-faef-484f-93e7-4e186ea5dfbe","甘肃省","酒泉市","瓜州县","腰站子乡政府南侧",40.479876,96.733680,40.472376,96.724208,1
"6209232011B00186","43046438-3008-4ebd-b7f9-b891179fc4e4","甘肃省","酒泉市","肃州区","马鬃山",39.738469,98.500685,41.587688,96.874808,1
"6209242016B00060","a1d9dde0-21af-43bf-9fee-fcb8af5222e1","甘肃省","酒泉市","阿克塞哈萨克族自治县","阿克塞县光伏产业园内、省道314线南侧",39.640045,94.346760,39.632868,94.338816,1
"6209232011B00152","1dc43156-e62a-4e5e-a31a-bb404c7dc1f1","甘肃省","酒泉市","肃北蒙古族自治县","肃北县马鬃山镇",41.816461,97.035192,39.511892,94.875816,1
"6209812012B00436","19ae2e84-2e42-4dd7-8336-7c1e4ec50317","甘肃省","酒泉市","瓜州县","玉门市新市区工业园区内，连霍高速公路以西",40.577139,96.676098,39.911984,97.769616,1
"6209002013A00026-1","0f97b038-fe1a-4cfc-b62e-552dc70ba9f5","甘肃省","酒泉市","肃州区","肃州区肃州路加油站东侧",39.721248,98.506575,39.733220,98.499896,1
"6209822016B00110","8a204aa9-a233-434e-895f-33f707807199","甘肃省","酒泉市","肃州区","国道215线西侧，过境公路南侧",39.738469,98.500685,39.731704,98.493280,1
"6209002011B00088","44ebe5e2-9ada-4879-9b14-cbcbbb31f692","甘肃省","酒泉市","肃州区","肃州区规划酒嘉城际一级公路北侧，甘肃丝绸之路博物馆东侧",39.777096,98.440241,39.757716,98.442232,1
"6209822011B00050-2","1a0a12f7-7f8a-4289-b5e1-6722e1f485c9","甘肃省","酒泉市","敦煌市","阳关西路北侧、敦煌公园对面",40.142652,94.646653,40.137772,94.638648,1
"6209812012B00732-3","996c79e7-913f-4772-ba81-2d00ce3b0950","甘肃省","酒泉市","玉门市","玉门东镇循环经济产业园",39.811776,97.930174,39.813780,97.923208,1
"6209242010B00058","3c1affb0-c4b3-45f8-bb0f-fb656b69cbe8","甘肃省","酒泉市","阿克塞哈萨克族自治县","阿克塞县建设路南、文化路东、和平路西、南环路北",39.636824,94.342730,39.509212,94.881392,1
"6209222013B00797","7a02e666-6dfc-4480-bc39-bec5a68c44b5","甘肃省","酒泉市","肃州区","安北第六风电场",39.738469,98.500685,39.714596,98.540896,1
"6209022013B00669-1","718731fe-c9f1-4cf3-a745-39dbe20d1501","甘肃省","酒泉市","肃州区","肃州区上坝镇营尔滩",39.581374,98.752503,39.574348,98.745304,1
"6209812013B00377-1","5385b6b1-30d9-4917-8c32-7ca5394421c4","甘肃省","酒泉市","玉门市","玉门市独山子乡人民政府东侧",40.297620,97.051712,40.290808,97.044680,1
"6209812013B00264-1","d14c08c2-2f00-4085-85d9-f1148124afe2","甘肃省","酒泉市","玉门市","玉门市玉门镇南门村（原北门片三组）、312国道西侧",40.128161,97.282658,40.270488,97.042584,1
"6209222013B00472","9ba6ff60-180d-430c-89b1-8cb02054caf8","甘肃省","酒泉市","肃州区","柳园通达加油站南侧、广电通信基站北侧",39.738469,98.500685,41.101180,95.471152,1
"6209242013B00136","10506876-8000-4ce4-aec8-c87bcc8155ed","甘肃省","酒泉市","阿克塞哈萨克族自治县","阿克塞县商业街东侧，加气站南",39.638302,94.353460,39.629700,94.343232,1
"6209212012B00030","dc1b4f9e-d666-45ef-9d01-977afe63ae1c","甘肃省","酒泉市","金塔县","金塔县金鑫工业集中区",39.990029,98.908368,39.951528,98.892368,1
"6209822011B00097-1","3f98562f-c917-47bf-8dfa-0c74622a42d1","甘肃省","酒泉市","敦煌市","三危路南侧",40.146695,94.693338,39.731704,98.493280,1
"6209822011B00229-1","ffe62277-a157-4ebc-bdb2-310ef804c204","甘肃省","酒泉市","肃州区","方山口地区明水河",39.738469,98.500685,41.237748,94.398760,1
"6209212009B00025-1","a1d0300c-6a86-4f2b-9f0c-48b460260a04A","甘肃省","酒泉市","金塔县","金塔县金鑫工业区",39.990029,98.908368,39.951528,98.892368,1
"6209022011B00199","06ce16e8-39bf-41de-8b45-0fa713395c29","甘肃省","酒泉市","肃州区","总寨工业园区程科元脱水菜厂东侧",39.738469,98.500685,40.198620,94.548584,1
"6209812016B00064","5943c274-ccac-42e5-b5d9-9f10df4c234d","甘肃省","酒泉市","玉门市","玉门市花海镇集镇北环路以北",40.516593,97.819684,40.298196,97.714464,1
"6209812015B00020","86b2f360-d600-4009-bfe6-0d051a0d731a","甘肃省","酒泉市","玉门市","玉门东镇建化工业园区",39.811776,97.930174,40.198620,94.548584,1
"6209022011B00362","9a1d5a7a-628a-47fe-98ee-999c82d1d2cf","甘肃省","酒泉市","肃州区","总寨业园区转盘西南侧",39.738469,98.500685,40.198620,94.548584,1
"6209022011B00344","c5a17da0-4253-45bf-a435-4aca34775a5e","甘肃省","酒泉市","肃州区","果园乡原屯庄堡村一组居民点以西",39.786784,98.487474,39.794984,98.504344,1
"6209002016B00036","14096fef-ba36-4b3d-8887-58a6ca141ceb","甘肃省","酒泉市","肃州区","肃州区祁连路北侧、春光七路东侧",39.731434,98.542033,39.734432,98.528096,1
"6209812011B00757","bc700165-556b-4036-967b-59dfb51efd0d","甘肃省","酒泉市","玉门市","玉门市再生资源市场以西，规划路以北",40.297620,97.051712,40.290808,97.044680,1
"6209822011B00372","077e4fe4-d832-4a07-99f1-d945bffafb76","甘肃省","酒泉市","肃州区","方山口地区北山区域",39.877288,98.607205,41.237748,94.398760,1
"6209812018B00196-2","55e9145c-e053-46ea-b67b-f1465f740d8d","甘肃省","酒泉市","玉门市","玉门市新市区风光大道东侧，永吉路南侧",40.297620,97.051712,40.301000,97.079800,1
"6209242016B00108","c171c988-3e38-4f45-bf82-ca2a6bd8808b","甘肃省","酒泉市","阿克塞哈萨克族自治县","阿克塞县工业园区甘肃恒亚水泥有限公司西侧",39.601487,94.320243,39.594428,94.312496,1
"6209222015B00490","884389e6-3587-41c2-a14b-c948f8d3491c","甘肃省","酒泉市","瓜州县","西环路西侧、祁连街西延伸段北侧",41.107471,95.503345,40.510416,95.779208,1
"6209002013B00237","76fab1f1-6e89-4d92-8243-951d652e3d50","甘肃省","酒泉市","肃州区","宝泉西路南侧、瓜州路西侧",39.735849,98.497165,39.728972,98.483280,1
"6209212014B00068-1","05d14a83-c331-4817-95c0-a3df72f8d0e9","甘肃省","酒泉市","金塔县","金塔县金鑫工业园区",39.963111,98.899243,39.983524,98.900976,1
"6209022013B00283-1","10c5489a-8987-42a9-a475-2a1eefee5fcb","甘肃省","酒泉市","肃州区","果园乡北闸沟村",39.779588,98.525697,39.772272,98.523184,1
"6209022010A00179","aa6ce572-91e2-4e05-ae39-b12513addf7d","甘肃省","酒泉市","肃州区","清水镇清水村西湾三组",39.369457,99.051055,39.362616,99.047152,1
"6209822012B00297","e51919ae-dd63-48f3-b7b7-bd1a52e5994c","甘肃省","酒泉市","敦煌市","敦煌市七里镇工业园区纬一路南侧",40.098967,94.594950,40.198620,94.548584,1
"6209002009B00170","6c4870f9-0bad-4465-89e5-14cf1817316f","甘肃省","酒泉市","肃州区","共和街北侧,卫生街西侧",39.752231,98.520904,39.745220,98.513048,1
"6209222018B00040","f740fcee-839e-412a-9681-ca267527bac5","甘肃省","酒泉市","瓜州县"," 南市街南侧、祁连街北侧、原西环路西侧",40.519500,95.789828,40.510416,95.779208,1
"6209232018B00012","125367ad-dd85-4fd9-87a0-1db36d70f6a0","甘肃省","酒泉市","肃北蒙古族自治县","肃北县党城湾镇党河东岸",39.091388,95.889036,39.731704,98.493280,1
"6209022012B00606","f4461767-fbce-4fb9-a76c-cfb61b7c335f","甘肃省","酒泉市","肃州区","果园乡中所沟村六组北侧",39.790714,98.519344,39.785108,98.512016,1
"6209022018A00115","bd9490c3-e088-4729-a00c-49641a85e279","甘肃省","酒泉市","肃州区","肃州区总寨工业园区西片区",39.751246,98.514322,39.695388,98.494552,1
"6209822012B00437","4de00f00-1c08-4189-a6c7-6e96338a14ba","甘肃省","酒泉市","敦煌市","215线东侧、转渠口镇漳县村二组",40.164586,94.680820,40.153696,94.670272,1
"6209222015B00330","81e49330-aa78-4864-8ce6-4a89df5a6829","甘肃省","酒泉市","瓜州县","瓜州乡公路北侧福利液化气站东侧",40.471402,95.678913,39.731704,98.493280,1
"6209212012B00808","b5cec6af-81e6-45b9-b02b-ebb005174651","甘肃省","酒泉市","金塔县","金塔县三分水闸西",40.002003,98.887598,39.995032,98.880520,1
"6209222012B00508","22274c74-6e10-4e76-85a6-1c0b8596f2ec","甘肃省","酒泉市","瓜州县","瓜州新区",40.526106,95.788736,39.731704,98.493280,1
"6209222016B00024","e77c9842-55ca-4ca3-a146-ef5dd606e082","甘肃省","酒泉市","肃州区","柳园高载能产业园",39.738469,98.500685,39.776928,98.480488,1
"6209212009B00272","8f07e49b-1d94-4cea-805a-6ec9b5b86cc8","甘肃省","酒泉市","金塔县","金塔县航天镇永胜村",40.365418,99.610819,40.359252,99.603104,1
"6209022012B00906","1c450d52-a463-4b17-81e2-723a3a8024bc","甘肃省","酒泉市","肃州区","金佛寺镇上三截村居民点西北角",39.437600,98.795594,39.430904,98.789216,1
"6209022008B00051","11312ce9-0a18-43f7-9dac-d711ad104414","甘肃省","酒泉市","肃州区","清水镇屯升办事处市场北侧",39.305600,99.182474,39.722848,98.486208,1
"6209022008B00106","fc310e65-e8f9-4612-b3b1-55898e413c04","甘肃省","酒泉市","肃州区","清水镇屯升办事处市场北侧",39.305600,99.182474,39.722848,98.486208,1
"6209212014B00304-1","0d59d19e-49b4-43d5-90ea-fc8ccd9ffed4","甘肃省","酒泉市","金塔县","金塔县北河湾工业园区",40.280815,99.095205,40.273780,99.087336,1
"6209212018B00032","25cd1edc-6fbf-4f10-92f9-997d890b208d","甘肃省","酒泉市","金塔县","金塔县北河湾循环经济产业园",40.280815,99.095205,40.273780,99.087336,1
"6209812012B00180-1","6212b43c-fa2b-42cf-9143-512a7b6d05fb","甘肃省","酒泉市","玉门市","柳河路南侧，看守所北侧",40.310724,97.053804,40.302928,97.051880,1
"6209022018B00019","698c50e1-b431-45ea-8e94-b92b3159b706","甘肃省","酒泉市","肃州区","酒泉经济技术开发区（南园）  ",39.738469,98.500685,39.723816,98.497592,1
"6209212012B00546","f02ad816-3edd-44d6-8b79-a64c33eba5f6","甘肃省","酒泉市","金塔县","金塔县大庄子乡集贸市场",40.239804,99.063687,40.103772,98.947304,1
"6209022013B00375-1","ca9d16e3-7991-4977-84b9-7098c69dba4e","甘肃省","酒泉市","肃州区","肃州区总寨工业园区",39.751246,98.514322,39.695388,98.494552,1
"6209222014B00293-1","359c0ed8-4db2-4dc7-a100-041358d62b79","甘肃省","酒泉市","肃州区","原312国道3164公里处",39.767711,98.437567,39.743760,98.493448,1
"6209002013A00377","06a12e88-1e62-475b-a384-5d2f17d28039","甘肃省","酒泉市","肃州区","新城区二期文体路交金塔路东南侧",39.750309,98.491456,39.736884,98.483424,1
"6209232010B00120","98d104f7-9fa1-4d0b-81b4-38e96bce4d53","甘肃省","酒泉市","肃北蒙古族自治县","鱼儿红乡境内",39.702518,97.226473,39.731704,98.493280,1
"6209822013B00191-1","d50d21fc-935f-43ce-9c6f-0bc14064220c","甘肃省","酒泉市","敦煌市","敦煌山庄西侧",40.111314,94.675822,40.105092,94.670152,1
"6209002012B00238-1","65653215-d193-428a-8ffb-3fb68fd0e06a","甘肃省","酒泉市","肃州区","肃州区富强路东侧",39.746526,98.530249,39.722768,98.509424,1
"6209222014B00244-1","b67ec81c-b0a7-450b-a202-e26bb7c8fe65","甘肃省","酒泉市","瓜州县","渊泉街南侧、水务局瓜州县抗旱防汛指挥中心东侧",40.521955,95.795762,40.514700,95.793888,1
"6209212015B00232","87d6cf24-5f40-4e1d-b945-211e899aea01","甘肃省","酒泉市","金塔县","金塔县北河湾工业园区",40.280815,99.095205,40.273780,99.087336,1
"6209812007B00085","e750c20f-85d8-439b-8332-047c41b9517d","甘肃省","酒泉市","玉门市","铁人路以东，永宁路以北",40.292530,97.046025,40.284984,97.038584,1
"6209002013B00036","a96a5b42-3823-4029-937a-fe74f001c9db","甘肃省","酒泉市","肃州区","新城区二期阳关路南侧、文体路西侧",39.747160,98.499965,39.939752,94.054768,1
"6209222016B00569","2293ac03-5ac0-4928-9724-96a988bee09a","甘肃省","酒泉市","瓜州县","锁阳城东巴兔村浪柴沟耕地东侧山坳处",40.069824,95.714925,40.063368,95.707096,1
"6209022012B00264","b50c08f2-909d-41d0-96ce-63b466f2a696","甘肃省","酒泉市","肃州区","甘肃酒泉工业园区（南园）",39.770195,98.417875,39.761800,98.410112,1
"6209212008B00218-1","981829b1-5ced-41b3-a097-3d35c15d37beA","甘肃省","酒泉市","金塔县","金塔县羊井湾乡",40.024507,98.987058,39.983524,98.900976,1
"6209022015B00077-1","9efd5edd-3598-4d8c-b4e6-29c5033004ef","甘肃省","酒泉市","肃州区","酒泉经济技术开发区（西园）",39.738469,98.500685,39.723816,98.497592,1
"6209812010B00664","6c1294a2-022f-4ad8-854b-43fcec605d43","甘肃省","酒泉市","玉门市","玉门市黑崖子",40.124543,96.918733,40.118156,96.911872,1
"6209022017B00528","3d107e69-81be-4f89-a43f-1a68014437f6","甘肃省","酒泉市","肃州区","肃州区三墩镇政府停车场北侧",39.811554,98.839592,39.782120,98.724216,1
"6209022017B00370","e137792e-b1c1-40d1-ad3b-b4a403fbcfc1","甘肃省","酒泉市","肃州区","富强路东侧、肃北路北侧",39.746526,98.530249,41.101180,95.471152,1
"6209022017B00387","d6e9bd79-16bb-4a47-a043-901f77c6691c","甘肃省","酒泉市","肃州区","肃北路南侧、春光六路西侧",39.711158,98.539073,39.507376,94.877480,1
"6209022013B00269-1","89ef28f5-fc25-4c6b-86c3-cc3aa533923d","甘肃省","酒泉市","肃州区","甘肃酒泉工业园区（南园）",39.770195,98.417875,39.761800,98.410112,1
"6209022012B00728-1","ccfca8a0-d3f9-4c7c-8161-ed803e06f926","甘肃省","酒泉市","肃州区","甘肃酒泉工业园区（西园）",39.770195,98.417875,39.761800,98.410112,1
"6209812012B00415-1","af010b9a-be97-4c04-b506-a6c994f0e070","甘肃省","酒泉市","玉门市","玉门镇西南约15公里处",40.286742,97.033686,40.277140,97.042856,1
"6209222014B00260-1","ca156b2d-9921-4d3a-937e-dcbc16fe1dcd","甘肃省","酒泉市","瓜州县","福利液化气站东侧、瓜州乡通乡公路北侧",40.471402,95.678913,39.734432,98.528096,1
"6209022013B00274-1","b336065d-c046-457a-b131-9a3740960bd2","甘肃省","酒泉市","肃州区","甘肃酒泉工业园区（南园）",39.770195,98.417875,39.761800,98.410112,1
"6209002013B00157","80017539-a0ba-4118-82db-a8df3edf8d24","甘肃省","酒泉市","肃州区","新城区二期阳关路北侧、瓜州路西侧",39.747160,98.499965,39.733568,98.476120,1
"6209822013B00551-1","eb7b302c-76db-42dd-af2e-bc8d28ffdbe8","甘肃省","酒泉市","敦煌市","宁塞路南侧、龙勒路东侧",40.139081,94.665372,40.134868,94.657728,1
"6209232016B00157","924a0966-9cbe-4f8f-8526-a7a10183b2bf","甘肃省","酒泉市","肃州区","马鬃山七角井",39.738469,98.500685,41.587688,96.874808,1
"6209812014B00395-1","23a812d3-d288-4002-9d54-f698302e3d02","甘肃省","酒泉市","玉门市","玉门市靖东路延伸段南侧，中铁十九局轨枕厂北侧",40.297620,97.051712,40.290808,97.044680,1
"6209222018B00354","1c248c9d-8645-463f-b7c3-668ea1af3f78","甘肃省","酒泉市","肃州区","玄奘大道南侧、榆林北路西侧",39.738469,98.500685,39.733152,98.516592,1
"6209222017B00508","eed154a8-8ec4-4b01-a3d3-c8d6e911d024","甘肃省","酒泉市","肃州区","桥湾新312国道北侧、桥马公路东侧",39.738469,98.500685,39.731704,98.493280,1
"6209212011B02568","2146346e-718e-4f33-a0ad-4fa31bfeb9cc","甘肃省","酒泉市","金塔县","金塔县北河湾循环经济区",40.280815,99.095205,40.267756,99.033672,1
"6209222011B00057","c28fb30e-31d1-4854-b7ed-4155fb3ae7c5","甘肃省","酒泉市","瓜州县","渊泉街北侧、公园西路西侧",40.521955,95.795762,40.515088,95.792256,1
"6209212011B00214","169ec15f-61f8-47f9-8304-ac560190417f","甘肃省","酒泉市","肃州区","金鑫工业区",39.738469,98.500685,39.951528,98.892368,1
"6209822012B00110","944b593b-b6aa-42e4-af90-851aac6d7647","甘肃省","酒泉市","敦煌市","雅丹国家地质公园景区停车场南侧",40.358079,93.871588,40.351000,93.863704,1
"6209022008B00202","6d647e24-ff92-4281-9691-597f5555d3ea","甘肃省","酒泉市","肃州区","东洞乡四号村南侧",39.621593,98.522078,39.613144,98.522184,1
"6209222012B00460","b5bb93e5-a532-467f-a00f-e071a05964b2","甘肃省","酒泉市","瓜州县","瓜州新区",40.526106,95.788736,39.731704,98.493280,1
"6209212009B00429","91019159-e9e2-4120-80e1-7be61926c491","甘肃省","酒泉市","肃州区","金塔镇酒航路加油站西侧",39.761969,98.549767,39.990224,98.902768,1
"6209212013B00020-2","f8d41396-bc02-4194-9774-7b2abe15bb37","甘肃省","酒泉市","金塔县","金塔县金航大道北侧、塔院寺西侧",39.969605,98.924965,39.959992,98.915208,1
"6209812013B00037-2","f5dbc523-e2e2-4e70-bcde-e400e30f7989","甘肃省","酒泉市","玉门市","嘉安高速公路南侧、赤金服务区商铺东侧",40.354181,97.050755,40.035096,97.427584,1
"6209222012B00552","e7428ff4-f08f-4c82-9ddb-6696c3bca8ea","甘肃省","酒泉市","肃州区","柳园石材园区",39.738469,98.500685,39.731704,98.493280,1
"6209222012B00565","12841057-22e4-4e50-8029-7115449b60d6","甘肃省","酒泉市","肃州区","沙河乡政府东面路南1公里处",39.751166,98.514421,39.745112,98.512920,1
"6209812016B00025","e8b97e50-149d-4a1b-b533-c5f7d425918c","甘肃省","酒泉市","玉门市","花海镇文化西路南侧，工商所北侧",40.308963,97.744366,40.304032,97.737568,1
"6209222013B00829","5488c65e-a844-4904-91bc-b1ef08b20292","甘肃省","酒泉市","肃州区","安北",39.738469,98.500685,41.022504,95.729760,1
"6209822012B00400","12c3536b-574e-416c-9444-e4ca4850a3ba","甘肃省","酒泉市","敦煌市","兰馨花园西南角",40.143722,94.683414,40.136752,94.676008,1
"6209822011B00210","4ad8f3cd-7190-497d-8257-d29141d4ce70","甘肃省","酒泉市","敦煌市","敦煌市阳关西路北侧",40.121008,94.604144,40.140628,94.651456,1
"6209002011B00198","bc9ab7fb-8b4c-4ede-8913-e7c9c87842e8","甘肃省","酒泉市","肃州区","世纪大道南端东侧",39.756155,98.499599,39.731704,98.493280,1
"6209222013B00838","875d77dc-ed79-47ce-8bb2-ec7d59487978","甘肃省","酒泉市","肃州区","安北",39.738469,98.500685,41.022504,95.729760,1
"6209222013B00968","c3129e2a-c50a-4b46-b68a-135faf485e59","甘肃省","酒泉市","瓜州县","瓜州县柳沟物流园",40.526106,95.788736,40.548536,95.799016,1
"6209212010B01290","570e3d0b-f5c8-470a-94b4-7e97e5af05ff","甘肃省","酒泉市","金塔县","西坝乡二分村",40.196081,98.783576,40.189060,98.776352,1
"6209812008B00115","ea8e705a-4a45-456c-8f19-9bd7f7bed821","甘肃省","酒泉市","玉门市","玉门镇柳墩湾南侧",40.286742,97.033686,40.230320,97.007288,1
"6209022008B00198","557b1aac-58c7-4e16-a183-8590f61bf466","甘肃省","酒泉市","肃州区","东洞乡小庙村北侧",39.551725,98.634100,39.731704,98.493280,1
"6209002008B00010-1","5bb55cb8-7910-43f0-a3e5-293a91dcda6eA","甘肃省","酒泉市","肃州区","酒泉市新城区解放路西侧，宗地编号为Q10号",39.712293,98.507693,39.755908,98.450984,1
"6209222011B00532","cdac66b7-2254-4b57-9b1d-c10e073e7433","甘肃省","酒泉市","肃州区","北大桥东",39.759292,98.487543,40.590040,95.887600,1
"6209812012B00327","b63548fe-2105-43bd-aa98-35d519c6d241","甘肃省","酒泉市","玉门市","柳河路南侧，看守所北侧",40.310724,97.053804,40.302928,97.051880,1
"6209232009B00077","46b17006-adc8-429d-acdf-6b656ba228b6","甘肃省","酒泉市","肃州区","马鬃山南金山",39.738469,98.500685,41.587688,96.874808,1
"6209822011B00284","be1c9754-da9a-49f5-a76b-92ef6443ede1","甘肃省","酒泉市","敦煌市","敦煌市七里镇工业园区内、原商混站南侧",40.098967,94.594950,40.198620,94.548584,1
"6209822011B00267","eb98fbaf-d806-495d-adba-e295311b97cd","甘肃省","酒泉市","敦煌市","敦煌市七里镇工业园区石棉仓储加工区内",40.098967,94.594950,40.131668,94.679856,1
"6209022010B00296","84fd9005-2411-49a9-b90b-30607865a9e1","甘肃省","酒泉市","肃州区","总寨工业园区钟云光编制袋加工厂西侧",39.738469,98.500685,39.701864,98.495840,1
"6209232012B00458","7cc1346c-84a6-4cef-8d7f-486e47a0743b","甘肃省","酒泉市","肃北蒙古族自治县","肃北县马鬃山",39.518330,94.883692,39.519216,94.838944,1
"6209232012B00472","e1b882c4-1813-4800-a868-3dbce0347ff4","甘肃省","酒泉市","肃北蒙古族自治县","肃北县马鬃山镇",41.816461,97.035192,39.511892,94.875816,1
"6209812011B00597","6a11c0a8-6e1a-4b04-b228-0af71d085de7","甘肃省","酒泉市","玉门市","玉门市小金湾乡政府以北2公里，玉花公路东侧",40.257734,97.711002,40.032152,97.742112,1
"6209812018B00034-1","f18fc1cd-46ec-4b25-9fdd-febedb81b8fe","甘肃省","酒泉市","玉门市","玉门市新市区清泉路延伸段南北两侧",40.297620,97.051712,40.281820,97.030520,1
"6209212015B00153","491b380f-c669-45c7-9f1f-54fd14ac128b","甘肃省","酒泉市","金塔县","金塔县航天镇集镇规划区",40.379241,99.641829,40.372572,99.633960,1
"6209212018B00169","7f6b94cf-fb9e-4660-86dd-36361e75c4ae","甘肃省","酒泉市","金塔县","金塔县北河湾循环经济产业园",40.280815,99.095205,40.273780,99.087336,1
"6209812012B00425","66189e45-59ef-4d0e-b5ce-d28bbc6ffb1b","甘肃省","酒泉市","玉门市","玉关路西侧，312国道南侧兰新铁路第二双线北侧",40.298721,97.040084,40.285272,97.031272,1
"6209002011B00099","4693403d-9d45-44a0-b7e3-cebe69e22088","甘肃省","酒泉市","肃州区","肃州区规划酒嘉城际一级公路北侧，甘肃丝绸之路博物馆东侧",39.777096,98.440241,39.757716,98.442232,1
"6209022008B00152","8fcaeb48-60c8-4ba7-9e65-cf511ff4e351","甘肃省","酒泉市","肃州区","泉湖乡政府东侧",39.754279,98.571512,39.747800,98.564440,1
"6209232016B00012","126d45ad-4e5a-4cb2-b1df-3b22ae446b65","甘肃省","酒泉市","肃北蒙古族自治县","党城湾镇马场村",39.437569,95.041901,39.430448,95.034224,1
"6209022015B00372","a7016efc-b020-48fe-8919-5287ad2cab8c","甘肃省","酒泉市","肃州区","总寨工业园区",39.738469,98.500685,39.645648,98.663048,1
"6209022015B00476","a8f00122-db68-422b-95db-63c8eded94e7","甘肃省","酒泉市","肃州区","总寨工业园区",39.738469,98.500685,39.645648,98.663048,1
"6209022015B00408","fb87c643-3e29-4bd5-ab63-0d5923ac0383","甘肃省","酒泉市","肃州区","总寨工业园区",39.738469,98.500685,39.645648,98.663048,1
"6209022013B00195-1","b3427434-a304-4294-8af6-567f2f85673e","甘肃省","酒泉市","肃州区","甘肃酒泉工业园区（南园）",39.770195,98.417875,39.761800,98.410112,1
"6209222012B00178","959a917c-9046-45d8-aa4e-1d79c2612f03","甘肃省","酒泉市","肃州区","安敦收费站北侧",39.738469,98.500685,40.164768,94.773488,1
"6209812013B00246","491b3016-0ddc-4e69-8c0f-aaee50a15527","甘肃省","酒泉市","玉门市","玉门三鑫煤业东侧、东北干渠北侧",40.297620,97.051712,39.733000,98.497088,1
"6209812013B00258","ed8a3adf-815f-49fd-81d8-32df2b6d947d","甘肃省","酒泉市","玉门市","玉门市玉门镇东渠村五组、312国道南侧",40.287966,97.041459,40.266860,97.064536,1
"6209222013B00315-1","f8bbc028-4d4e-48f8-b255-a7c11e63c91b","甘肃省","酒泉市","瓜州县","三幼西侧、公园街北侧",40.515782,95.789971,39.749432,98.505040,1
"6209022013B00208-1","14baa417-cf17-4144-83f6-0731fe8db145","甘肃省","酒泉市","肃州区","甘肃酒泉工业园区（西园）",39.770195,98.417875,39.761800,98.410112,1
"6209812011B00195-1","99cec4b1-9b04-45ae-bbf4-c6995ebd8f83","甘肃省","酒泉市","肃州区","铁人路延伸至国道东侧",39.727113,98.502524,40.286668,97.038976,1
"6209212010B00257","43897e3f-35e3-47f8-8df9-cec2dd303d26","甘肃省","酒泉市","金塔县","金塔县环城东路94号",39.990029,98.908368,39.983524,98.900976,1
"6209222014B00178-1","9b9da344-9966-4122-8d01-98ad6e19ab29","甘肃省","酒泉市","肃州区","安北第六风电场A区",39.738469,98.500685,39.741716,98.503832,1
"6209002017B00018","492b2a02-76cb-4f6c-bff6-803751a5652d","甘肃省","酒泉市","肃州区","新城区二期飞天路西侧、金塔路北侧",39.761802,98.465667,40.137936,94.674472,1
"6209002007B00159-1","3c546886-7580-4252-81eb-b0a551e72d87A","甘肃省","酒泉市","肃州区","城区规划阳关路南侧、神舟北路东侧，",39.747160,98.499965,39.939752,94.054768,1
"6209212017B00357","89dcb3da-42c0-4da5-bb48-159069c45356","甘肃省","酒泉市","金塔县","金塔县北河湾循环经济产业园",40.280815,99.095205,40.273780,99.087336,1
"6209812010B00347","e6975567-f4f4-4237-9dcd-e1f5ee064ef5","甘肃省","酒泉市","玉门市","疏龙制管厂南侧，玉关路北侧",40.298721,97.040084,40.285272,97.031272,1
"6209822010B00285","4abb012d-0bb7-43ce-9e75-006d585a6553","甘肃省","酒泉市","敦煌市","敦煌市国道215线南侧",40.147867,94.668527,40.141544,94.660904,1
"6209812012B00670","37661377-e89b-4ce7-b194-b55a25dda7e7","甘肃省","酒泉市","肃州区","连霍高速公路北侧桥湾处",39.529992,98.860758,39.703928,98.499200,1
"6209812011B00451-1","3958f966-62b8-49df-ab62-18c1b7fcb3d4","甘肃省","酒泉市","玉门市","玉关路东侧，公交公司北侧",40.298721,97.040084,40.285272,97.031272,1
"6209212011B00808-2","34c167bd-1f7c-4a97-903d-3f5960ee8759","甘肃省","酒泉市","金塔县","金塔县金鑫工业区",39.990029,98.908368,39.951528,98.892368,1
"6209212011B00373","452b899b-e182-4957-9a5b-02fd128d4220","甘肃省","酒泉市","金塔县","东坝镇政府驻地",40.180612,99.010684,39.737288,98.488072,1
"6209812008B00097","e8c1189b-80d7-4018-88ff-4f4bf776e419","甘肃省","酒泉市","肃州区","新东干渠北侧",39.738469,98.500685,40.168660,94.735176,1
"6209222013B00528","45027196-7ed2-4c2e-899e-f4fed94e5006","甘肃省","酒泉市","瓜州县","瓜州县柳沟物流园",40.526106,95.788736,40.548536,95.799016,1
"6209222011B00048","66c856d2-e86f-468c-ba7e-54b06d5dd192","甘肃省","酒泉市","肃州区","北大桥工业聚集区",39.759292,98.487543,40.544448,95.806800,1
"6209232010B00144","a6e568ad-e0cb-4a07-8bfa-a8f0f0a858bb","甘肃省","酒泉市","肃州区","马鬃山",39.738469,98.500685,41.587688,96.874808,1
"6209002007B00229","d6e3c3b8-df40-437c-97f2-27143d58e5a9","甘肃省","酒泉市","肃州区","飞天路西侧",39.761802,98.465667,39.731704,98.493280,1
"6209002014B00236","1bc1d317-437a-40b6-abee-e0794fd5249b","甘肃省","酒泉市","肃州区","宝泉西路南侧",39.735849,98.497165,39.728972,98.483280,1
"6209822015B00290","607884d2-62b7-4805-99e6-ba315034304c","甘肃省","酒泉市","敦煌市","敦煌市国道215过境线东侧（三危村）",40.151320,94.709452,40.141544,94.660904,1
"6209222017B00028","d599010e-9147-498c-ada7-b1ae41f4d26d","甘肃省","酒泉市","瓜州县","柳园镇五公里西",41.108516,95.507510,41.102944,95.503608,1
"6209222014B00301-1","49c59f5f-4209-4939-a303-adcf9037ed14","甘肃省","酒泉市","瓜州县","甘肃省国营小宛农场二分场七队移动基站东侧",40.517182,95.788451,40.510156,95.781048,1
"6209232018B00102","f1f1169d-df68-43d5-8c2a-3d543da69343","甘肃省","酒泉市","肃北蒙古族自治县","  肃北县马鬃山镇 ",41.816461,97.035192,39.511892,94.875816,1
"6209222012B00618","47226cbf-ad81-445d-a1ab-b1edab882375","甘肃省","酒泉市","瓜州县","广至藏族乡乡政府西侧",40.410150,95.646089,40.351920,95.518072,1
"6209222011B00528","bfcb7209-49ac-48e5-a5f2-352f8d4fa6bb","甘肃省","酒泉市","肃州区","北大桥第一、北大桥第四风电场之间",39.759292,98.487543,40.590040,95.887600,1
"6209022014B00778","94ea223a-f472-4f42-b284-bac1b3fcdc6a","甘肃省","酒泉市","肃州区","甘肃酒泉工业园区（南园）",39.770195,98.417875,39.761800,98.410112,1
"6209822012B00445","e826f617-e25f-4b82-8a52-d0f081dfbea4","甘肃省","酒泉市","肃州区","215线南侧、原大庙砖厂",39.738469,98.500685,39.731704,98.493280,1
"6209242016A00138","dcaed8ec-a1b7-4f7b-bfd6-1f9a32baa667","甘肃省","酒泉市","阿克塞哈萨克族自治县","阿克塞县红柳湾镇红柳湾村居民王发川家西侧空地",39.641749,94.346468,39.634700,94.338592,1
"6209022013B00612","c57d3a1d-46db-46e4-a34d-f140de5c2899","甘肃省","酒泉市","肃州区","甘肃酒泉工业园区（西园）",39.770195,98.417875,39.761800,98.410112,1
"6209212012B00588","c902c312-ba34-477b-8aeb-70562841f91c","甘肃省","酒泉市","金塔县","羊井子湾乡黄茨梁村",40.052130,99.048382,40.045344,99.040600,1
"6209822017B00215","f8a7f429-c764-4842-a75c-a91ea3aaf31e","甘肃省","酒泉市","肃州区","飞天大道东侧、公安局南侧",39.738469,98.500685,39.734432,98.528096,1
"6209212017B00212","3b590a6f-99a4-4b87-b11c-bd7645597aef","甘肃省","酒泉市","金塔县","金塔县北河湾工业园",40.280815,99.095205,40.273780,99.087336,1
"6209822013B00158-1","a7f226c3-aed7-4026-b7e5-d46b8509a26d","甘肃省","酒泉市","敦煌市","文昌北路东侧、原敦煌中心西北角",40.153919,94.675681,40.146428,94.668224,1
"6209212017B00133","cf7fa08c-b359-4950-aaa6-f52ca7f6cf42","甘肃省","酒泉市","金塔县","金鑫工业园区",39.963111,98.899243,39.955340,98.890952,1
"6209212015B00059-1","9d746b54-0fc7-492c-acc2-3984fe8c9798","甘肃省","酒泉市","金塔县","金塔县三合乡红星村四组",40.096324,98.954779,39.983524,98.900976,1
"6209822013B00394","0ed33b19-8b06-41dc-8358-4d652bef4911","甘肃省","酒泉市","瓜州县","215国道南侧、秦家湾村道路西侧",40.796940,95.206795,40.048544,94.548120,1
"6209822007B00216-1","0912e9d9-f5f2-45be-9a36-a08c62980c14A","甘肃省","酒泉市","敦煌市","敦煌市敦七公路北侧",40.140128,94.636899,40.130888,94.628664,1
"6209002007B00176-1","a09b25d6-3f26-4696-97f8-d71b7e673a8bA","甘肃省","酒泉市","肃州区","酒泉市新城区世纪大道西侧，宗地编号为X06-E05号",39.756155,98.499599,39.755908,98.450984,1
"6209212010B00018","0a71af22-4feb-4774-9c4d-4dfc68ea7cd0","甘肃省","酒泉市","金塔县","金塔县北河湾工业区",40.280815,99.095205,40.273780,99.087336,1
"6209812010B00140","8d3dc470-c6e3-4fc5-9dda-f931ce6fed5d","甘肃省","酒泉市","玉门市","玉门市工业园区周边",40.297620,97.051712,40.290808,97.044680,1
"6209822014B00316-1","230d4951-3712-4bc3-9644-a22fee13c25d","甘肃省","酒泉市","敦煌市","敦煌市自然博物馆西侧",40.147867,94.668527,40.141544,94.660904,1
"6209002012B00229-1","941ff25a-7520-41a0-ac6c-c25b15391b49","甘肃省","酒泉市","肃州区","东郊飞天路南侧、规划道路西侧。",39.761802,98.465667,39.761104,98.428552,1
"6209812016B00192","7a245808-fa76-4055-b84d-cbc1603fbb08","甘肃省","酒泉市","玉门市","玉门老市区玉门油田分公司炼油化工总厂液态烃站东侧",40.297620,97.051712,39.724516,98.492128,1
"6209822015B00332","d2ac1567-5dbb-4c67-85fb-1590145d2142","甘肃省","酒泉市","敦煌市","敦煌市工业园区内",40.147867,94.668527,40.201412,94.553672,1
"6209212011B00017","bba4920e-0c42-4b82-8733-31e5627e741a","甘肃省","酒泉市","金塔县","金塔县西川工业区",39.990029,98.908368,39.951528,98.892368,1
"6209212008B00285","938a4421-f96c-4951-8783-7102701c81a1","甘肃省","酒泉市","金塔县","金塔县金鑫工业区",39.990029,98.908368,39.951528,98.892368,1
"6209002008B00055-1","2c1ae9bd-5f5c-4306-aea2-043b883136bdA","甘肃省","酒泉市","肃州区","宗地坐落于肃州区富强南路东侧、仁和家园南侧",39.743645,98.532752,39.734056,98.529040,1
"6209242016B00024","1930e8ee-db17-4f19-ac1b-9ac49b9ffe9b","甘肃省","酒泉市","肃北蒙古族自治县","阿克塞县小康路西侧、市场路东侧",39.521225,94.884240,39.632868,94.338816,1
"6209222007B00179","4e47c769-5a94-4938-bb99-f646b59cc978","甘肃省","酒泉市","肃州区","双塔农场东连霍高速南50米处",39.738469,98.500685,40.560880,96.214240,1
"6209022017B00155","6f28c585-b11b-4b95-af88-654c1faf5b2e","甘肃省","酒泉市","肃州区","新城区二期文体路西侧、中建路南A-4-03地块南侧",39.750309,98.491456,39.744252,98.479552,1
"6209222018A00290","438b6e42-c844-4786-9899-b19e07efa164","甘肃省","酒泉市","瓜州县","腰站子东乡族镇北部与河东镇七道沟交界处，距腰站子东乡族镇集镇2公里处",40.532199,96.733271,40.476784,96.722248,1
"6209222010B00326-1","6923a199-78ab-4ca6-965d-81c24cf5603c","甘肃省","酒泉市","瓜州县","瓜州县电力公司东侧",40.526106,95.788736,40.519360,95.781328,1
"6209232007B00032-1","7d30c0ba-4e9d-43ad-9eaf-59f8c3d6a9feA","甘肃省","酒泉市","肃州区","马鬃山",39.738469,98.500685,41.587688,96.874808,1
"6209022012B00479","9ed9faa5-9e32-401a-9d7f-dd8c435fa8e3","甘肃省","酒泉市","肃州区","下河清乡皇城村委会东侧",39.546739,98.993996,39.731704,98.493280,1
"6209822017B00182","b1dbaf60-0781-4205-ad46-2a0d5a283d28","甘肃省","酒泉市","敦煌市","总干渠西侧、北苑小区北侧",40.159289,94.677349,40.092288,94.632264,1
"6209002007B00036-1","a32507f0-bcb2-4284-a095-e9f9906282f9A","甘肃省","酒泉市","肃州区","酒泉市肃州区北门什字街北侧",39.751246,98.514322,39.747452,98.510368,1
"6209212017B00014","9287aaec-22ac-4293-9768-0c19b7ed3782","甘肃省","酒泉市","金塔县","金塔县生地湾西核技术产业园",40.180807,98.705873,40.174312,98.698568,1
"6209022012B00499","1f2b181a-621a-4bc8-921b-82228eea9207","甘肃省","酒泉市","肃州区","总寨镇清泉村委会以东600米",39.656020,98.666601,39.649160,98.659568,1
"6209222007B00230-1","68a4977a-299d-4843-abf7-e1e520cde274A","甘肃省","酒泉市","瓜州县","安敦路东侧水管段北侧",40.518009,95.784711,39.734056,98.529040,1
"6209222017B00049-1","916ea3b2-1bef-4c40-ac95-ceed782cad21","甘肃省","酒泉市","肃州区","富元市场西侧",39.738469,98.500685,40.495916,95.740920,1
"6209222007B00200","71daf1b4-2feb-4f0a-a787-2916e93fcfc1","甘肃省","酒泉市","瓜州县","渊泉镇建设巷东侧",40.531082,95.788496,40.515356,95.782984,1
"6209812017B00135","5afc0e2e-632d-429d-97ce-7fbc3904d791","甘肃省","酒泉市","玉门市","玉门市老市区东运路以北，石油管理局木器厂以西",39.812015,97.561287,39.816200,97.561592,1
"6209242017B00018","338162e7-c53c-4610-bae2-8a3d6f3e4166","甘肃省","酒泉市","阿克塞哈萨克族自治县","阿克塞县环城南路西侧、西防风林带一期与二期之间",39.640045,94.346760,39.507376,94.877480,1
"6209022007B00087","c94fa3a4-5683-4552-9edf-8cc0e81fd311","甘肃省","酒泉市","肃州区","总寨镇沙格楞东北侧",39.635975,98.592930,39.630076,98.584944,1
"6209222008B00030-1","d69c4c7e-5144-4896-9cbe-7f3c4b47c14eA","甘肃省","酒泉市","瓜州县","渊泉镇东环路与公园街西南角",40.519489,95.800976,40.515356,95.782984,1
"6209002009A00057-3","d2cde676-8ea3-4bcd-b2d2-3f104dc3941fAAA","甘肃省","酒泉市","肃州区","春光村二组拥军路东北侧",39.727864,98.524053,39.731704,98.493280,1
"6209002007B00189","7a014ada-27c9-4790-9b06-535b1b2424f3","甘肃省","酒泉市","肃州区","酒泉市新城区肃州路东侧香庄花园内",39.731456,98.507930,39.725084,98.500208,1
"6209002007B00052-1","8e83f6ec-ba76-4d78-8c8a-5727019a69f5A","甘肃省","酒泉市","肃州区","酒泉市滨河南路北侧、北大河南侧",39.764167,98.514410,40.310952,99.381952,1
"6209812017B00169","a4e29746-59bc-42d3-ae6b-84b50f8e4b76","甘肃省","酒泉市","玉门市","玉门市312国道南侧、敬酒公司和中心粮库北侧",40.044494,97.426798,39.855060,96.780032,1
"6209212017B00048","5ef3e285-888f-4b7e-a6e0-8afbe3c0fb5f","甘肃省","酒泉市","金塔县","金塔县北河湾循环经济产业园",40.280815,99.095205,40.273780,99.087336,1
"6209212017B00285","82d8ee52-8093-409d-a0a2-9554541b74e7","甘肃省","酒泉市","金塔县","金塔县金鑫工业园区",39.963111,98.899243,39.983524,98.900976,1
"6209002006B00146","7b705e82-e248-4328-b0d0-e5aefa63b37f","甘肃省","酒泉市","金塔县","酒泉市肃州区东郊茅庵河滩酒航路东侧，宗地编号为C06—16号",40.150585,99.022926,39.739484,98.499208,1
"6209022012B00517","650d1139-1a80-43e6-9099-387fd072355e","甘肃省","酒泉市","肃州区","银达镇六分村五组",39.887023,98.561325,39.880740,98.558392,1
"6209212017B00148","88a0f85f-fb2d-4677-a58a-272a59989a72","甘肃省","酒泉市","金塔县","金鑫工业园区",39.963111,98.899243,39.955340,98.890952,1
"6209232006B00010-2","00130f68-c5c0-4e6a-bd95-65f6dbe7d730AA","甘肃省","酒泉市","肃北蒙古族自治县","石包城乡",39.815843,96.027447,39.809816,96.020728,1
"6209812017B00128","f37747ea-d372-4e27-add7-84a025cf5d3b","甘肃省","酒泉市","玉门市","玉门市水务局东侧，风光大道西侧，龙源小区南侧",40.296619,97.062373,40.289472,97.055296,1
"6209242012B00259","86e9f118-7de1-4532-95c4-429918e07ae8","甘肃省","酒泉市","阿克塞哈萨克族自治县","阿克塞县红柳湾镇供水公司西侧",39.641749,94.346468,39.634700,94.338592,1
"6209212009B00113-1","dedff1fb-5189-4429-a839-3905f89431a3A","甘肃省","酒泉市","金塔县","金塔县金鑫工业区",39.990029,98.908368,39.951528,98.892368,1
"6209222017B00185","8cdd8ec1-f7ac-4ecc-93af-6b8718eaba4e","甘肃省","酒泉市","瓜州县"," 瓜州县桥湾收费站马桥公路西侧",40.585737,96.744434,40.578620,96.737480,1
"6209022007B00258","a8b14b5e-6157-447b-95a2-878b16dad17d","甘肃省","酒泉市","肃州区","银达镇杨洪村四组公路三岔路口",39.815150,98.650976,39.808268,98.645208,1
"6209222017B00058","ceecdfad-16b4-49db-9471-11f0aa6552e9","甘肃省","酒泉市","瓜州县","柳园五公里西",41.080364,95.474317,39.731704,98.493280,1
"6209022007B00205","34bbf6e2-3e46-4e83-bdca-7a84b318ee86","甘肃省","酒泉市","肃州区","三墩镇中渠西侧",39.731835,98.725859,39.731704,98.493280,1
"6209022017B00234","e8b63deb-9026-4f39-8904-ef366af693dd","甘肃省","酒泉市","肃州区","福禄纵六路东侧、滨河南路南侧",39.764167,98.514410,39.734056,98.529040,1
"6209222018B00542","47ad7cee-5ee9-4535-a2b9-1b6bda6e2aef","甘肃省","酒泉市","瓜州县","小康街南侧、常乐路东侧、县府大道北侧",40.525728,95.803475,39.731704,98.493280,1
"6209022018B00652","1f8289f8-1736-41c6-8c42-8cd2b6c6f0bc","甘肃省","酒泉市","肃州区","东园四街西侧、东园四路南侧",39.738469,98.500685,40.480524,96.777576,1
"6209222014B00750","78d8e2dc-c3fe-47fa-a84e-fb6215dfd0c3","甘肃省","酒泉市","肃州区","北大桥第八风电场A区",39.759292,98.487543,40.590040,95.887600,1
"6209212010B01319","97f54e42-5765-48e1-bfce-b1d417d86da5","甘肃省","酒泉市","金塔县","鼎新镇东明村",40.309746,99.558913,40.306872,99.554200,1
"6209822010B00398","e5aad460-8282-4a6b-8fcd-3c94b97fe0b3","甘肃省","酒泉市","敦煌市","敦煌市七里镇工业园区石棉加工区商业区",40.098967,94.594950,40.177968,94.617248,1
"6209212012B00598","e0da7321-1ffe-4799-9a3b-0a29d74eec28","甘肃省","酒泉市","金塔县","金塔县金鑫工业区建材功能产业区",39.990029,98.908368,39.951528,98.892368,1
"6209822012B00175","a0580abf-f3f4-4574-b679-e37c26c691a2","甘肃省","酒泉市","敦煌市","敦煌市工业园区石棉精选加工区内",40.147867,94.668527,40.203384,94.550208,1
"6209822012B00184","d3b0a572-64e5-4bd7-9403-3d865f8f75aa","甘肃省","酒泉市","敦煌市","敦煌市工业园区石棉加工区内",40.147867,94.668527,40.303016,94.723432,1
"6209222013B00548-1","e1d9d232-7eda-438f-9c0c-8ec7b9f0cbc6","甘肃省","酒泉市","肃州区","柳园石材园区",39.738469,98.500685,39.731704,98.493280,1
"6209212011B00319","bcae7458-e588-4504-8287-afc4b105aa47","甘肃省","酒泉市","肃州区","金塔县鸳鸯池水库龙口坝东岸",39.876295,98.869503,39.978172,98.900936,1
"6209022012B00938","c72e21f9-488a-4d56-a126-a331c4e8a0fb","甘肃省","酒泉市","肃州区","果园乡西沟村一组",39.812514,98.473104,39.802976,98.472744,1
"6209022012B00879","7d03620b-a75d-4de5-8545-b8178dceff7d","甘肃省","酒泉市","肃州区","清水镇上寨村村委会西北角",39.328721,99.137615,39.361380,99.042456,1
"6209022012B00899","bd993ed3-a0d5-40a7-853e-e42af110134d","甘肃省","酒泉市","肃州区","清水镇西一村三组",39.289170,99.155569,39.279740,99.153032,1
"6209822008B00042-1","b0cb2c74-30a0-4c43-bcb4-c9fd95b678b7A","甘肃省","酒泉市","敦煌市","敦煌市",40.147867,94.668527,40.141544,94.660904,1
"6209222015B00238","c19ccedb-79bd-4f34-91f1-c6fbf7f4b34d","甘肃省","酒泉市","肃北蒙古族自治县","柳园镇东南14.5公里处",41.108516,96.810053,41.102944,95.503608,1
"6209812012B00528-2","7c3ef220-e615-4b05-8d7d-1c0a329785f9","甘肃省","酒泉市","玉门市","玉关路东铡，莫高麦芽厂南侧，绿地生物制品公司西侧",40.298721,97.040084,40.307192,97.046112,1
"6209002011B00046","4966a445-eb3f-43e2-9d6b-33d301cf89dd","甘肃省","酒泉市","金塔县","肃州区东郊酒航路西侧",40.150585,99.022926,39.753736,98.541896,1
"6209222009B00093","d071c11f-b549-4263-ac3a-5e01d52ac9b9","甘肃省","酒泉市","瓜州县","干河口（瓜州县境内距县城50公里）",40.526106,95.788736,40.552056,95.523216,1
"6209022011B00153","4a15cc35-f233-4e82-9dcd-4f846237f18b","甘肃省","酒泉市","肃州区","金佛寺镇下四截村北侧,长沙林铁路以北",39.453075,98.760399,39.446028,98.753232,1
"6209242010B00084","b47c5e4a-a9b5-4a3d-a2d3-bfc96295b8c0","甘肃省","酒泉市","阿克塞哈萨克族自治县","阿克塞县金山南路东、县宾馆南侧",39.635355,94.346781,39.628748,94.338912,1
"6209242012B00358","5ad3b39f-690a-4e89-b2b3-2b13ec4c0b01","甘肃省","酒泉市","阿克塞哈萨克族自治县","阿克塞县红柳湾镇国道215县东侧，绿源加气站北侧",39.629869,94.344025,39.634700,94.338592,1
"6209222012B00046","149ca02b-af4a-4805-a09a-f6af1234ba4b","甘肃省","酒泉市","瓜州县","锁阳城镇东巴兔",40.269625,95.986625,40.094672,95.655048,1
"6209222012B00149","65a0f7bb-1881-49e2-bd70-3895d1b4c0fc","甘肃省","酒泉市","瓜州县","西湖乡中沟村",40.530646,95.791541,40.523708,95.784040,1
"6209212010B00206","53cb0226-d6a7-4d82-98a8-04e21c87870f","甘肃省","酒泉市","金塔县","金塔县金塔镇酒航路西侧",40.150585,99.022926,40.016132,98.921936,1
"6209212011B00308","0ad86900-92d2-4544-9bf7-57e134c3c2ba","甘肃省","酒泉市","金塔县","金塔镇边沟村",39.984749,98.951472,39.978456,98.940984,1
"6209822011B00120","800bf134-c5bf-421f-a54a-6840ad8097ff","甘肃省","酒泉市","敦煌市","敦煌市七里镇工业园区",40.098967,94.594950,40.198620,94.548584,1
"6209242012B00293","4b6c2385-7966-43e4-b5c3-f54ee61b4fa5","甘肃省","酒泉市","阿克塞哈萨克族自治县","阿克塞县红柳湾镇穆学忠养殖场南",39.641749,94.346468,39.634700,94.338592,1
"6209222014B00278-1","82dcd096-60ef-4eea-bec8-05b9f0a0576d","甘肃省","酒泉市","瓜州县","安敦路西侧、渊泉街南侧",40.518009,95.784711,40.515088,95.792256,1
"6209022013B00179","b60bdfec-b1cf-4a0d-aa3a-41cbfcf7f55f","甘肃省","酒泉市","肃州区","甘肃酒泉工业园区（南园）",39.770195,98.417875,39.761800,98.410112,1
"6209212013B00186-1","0d3af468-e0ec-4403-9d59-8d29a0c9b7af","甘肃省","酒泉市","金塔县","金塔县金鑫工业集中区金航大道北侧、酒金公路东",39.990029,98.908368,39.955264,98.943360,1
"6209822011B00180","53c774b0-f46d-4d64-920d-f8f9df95711b","甘肃省","酒泉市","肃州区","兰馨小区北侧",39.738469,98.500685,39.731704,98.493280,1
"6209002011B00037","1c97fe07-898f-490c-a3e7-48169fb3948a","甘肃省","酒泉市","肃州区","肃州路东侧,敦煌路北侧",39.725940,98.506609,39.727244,98.496496,1
"6209002012A00138","e8d4869c-c17c-44ac-866c-e45c9d56ab69","甘肃省","酒泉市","肃州区","新城区世纪大道西侧、盘旋西路南侧。",39.756155,98.499599,39.736872,98.493720,1
"6209212011B00272","1f60f26a-fdde-4d36-a433-dd7a5423a1c9","甘肃省","酒泉市","金塔县","金塔县金鑫工业区",39.990029,98.908368,39.951528,98.892368,1
"6209822012B00219","624a0b1e-a1fd-4e39-ad5a-803b2c902264","甘肃省","酒泉市","敦煌市","敦煌市七里镇工业园区石棉仓储加工区内",40.098967,94.594950,40.131668,94.679856,1
"6209002008B00100-1","db32b4fd-d8e4-4cc5-9dfe-e097ef84dc1cA","甘肃省","酒泉市","肃州区","酒泉市肃州区北大街交北新街东北角",39.754882,98.517432,39.744704,98.509584,1
"6209232013B00034","cd8a78e4-90ee-4dff-9af4-c6a4b8c85e87","甘肃省","酒泉市","肃北蒙古族自治县","肃北县马鬃山镇",41.816461,97.035192,39.511892,94.875816,1
"6209222013B00443","0c28ef55-7b7b-40a4-a4dc-286259f1bcca","甘肃省","酒泉市","瓜州县","三道沟中心卫生院北侧",40.439775,96.878004,40.433204,96.871224,1
"6209212012B00228","ffe16944-1001-4e80-8fcc-b4e06d9c419d","甘肃省","酒泉市","金塔县","金塔县酒航路加油站南侧",39.990029,98.908368,39.983524,98.900976,1
"6209022012B00758","88615767-00cc-4faa-b491-232cddb985a9","甘肃省","酒泉市","肃州区","甘肃酒泉工业园区（西园）",39.770195,98.417875,39.761800,98.410112,1
"6209222015B00107","e23ed4df-1e8d-4a71-b518-ba53fd04481c","甘肃省","酒泉市","肃州区","广至乡政府北侧",39.751166,98.514421,40.438584,95.580656,1
"6209222012B00598","a093d847-d5b9-4b12-8240-961ad3346b9f","甘肃省","酒泉市","肃州区","河东乡集镇东侧",39.738469,98.500685,39.731704,98.493280,1
"6209222009B00070","d0195308-b627-4f8b-a70e-4dbe72d91d9cCC","甘肃省","酒泉市","肃州区","312国道西南距县城50公里处",39.767711,98.437567,39.739628,98.506776,1
"6209212011B00340","291c183a-140b-4674-9013-552f90e6690e","甘肃省","酒泉市","金塔县","金塔县北河湾工业区",40.280815,99.095205,40.273780,99.087336,1
"6209222008B00156","43a8beea-4c0d-4465-8079-29d24cfe9be5","甘肃省","酒泉市","瓜州县","渊泉镇南大街以西、祁连街以北",40.524170,95.788949,40.510416,95.779208,1
"6209212011B00412","745e2243-87b6-440e-a804-518433f38ecb","甘肃省","酒泉市","金塔县","羊井子湾乡黄茨梁村",40.052130,99.048382,40.045344,99.040600,1
"6209222011B00778","fd8a10f3-a5af-4219-af69-2074e0ac54b7","甘肃省","酒泉市","肃州区","布隆吉三立砖厂东侧",39.738469,98.500685,40.529504,96.542728,1
"6209002009B00137-2","9bbd210f-953f-450f-a245-fd6df908df5a","甘肃省","酒泉市","肃州区","肃州区金泉路东侧、建设路南侧",39.745170,98.528337,39.734432,98.528096,1
"6209022013B00458-1","db79a15a-c99b-4aaa-ab55-1602d73ddda2","甘肃省","酒泉市","肃州区","清水镇马营村",39.327172,99.223560,39.319012,99.214848,1
"6209242015B00229","4905736e-51f3-4098-bcba-d24a79d18c87","甘肃省","酒泉市","阿克塞哈萨克族自治县"," 阿克塞县省道314线K258+200米以西",39.640045,94.346760,39.632868,94.338816,1
"6209242015B00245","02881c9d-93e6-4843-96f8-f846b4d3534d","甘肃省","酒泉市","阿克塞哈萨克族自治县","阿克塞县二十公里工业园区省道314线以北",39.640045,94.346760,39.632868,94.338816,1
"6209002013B00306","9ee9ad90-1f0e-4ac8-bf69-5eae0ae2138d","甘肃省","酒泉市","肃州区","新城区二期飞天路西侧、风电大道南侧",39.761802,98.465667,40.137936,94.674472,1
"6209242013B00142","d608dfd8-a640-4cce-a478-8bc249bcb070","甘肃省","酒泉市","阿克塞哈萨克族自治县","阿克塞县红柳湾镇小康路西、市场路东",39.641749,94.346468,39.634700,94.338592,1
"6209242013B00158","64ea8276-b4eb-414e-8103-37cf6f1c1692","甘肃省","酒泉市","阿克塞哈萨克族自治县","阿克塞县民族风情园东南角",39.637957,94.341468,39.632868,94.338816,1
"6209022010B00446","af4af893-d8a4-4cbf-964d-2a3948e0fbc7","甘肃省","酒泉市","肃州区","果园乡原北闸沟旧村委会",39.786784,98.487474,39.776672,98.539368,1
"6209022010B00436","a95d850d-f131-44ee-9493-1e891ef26370","甘肃省","酒泉市","肃州区","银达镇拐坝桥村新村委会东侧",39.802599,98.588115,39.794956,98.584048,1
"6209812012B00518-4","aa09edec-c584-4b74-b0bf-bada11f74ec0","甘肃省","酒泉市","玉门市","玉关路东铡，莫高麦芽厂南侧，绿地生物制品公司西侧",40.298721,97.040084,40.307192,97.046112,1
"6209812012B00494-2","c5ceb46c-f4b7-45ef-94ec-5ae8bc9bd57c","甘肃省","酒泉市","玉门市","玉关路东侧，靖西路西侧,柳河路北侧",40.313740,97.054790,40.308488,97.048088,1
"6209222016B00197","966a094a-7294-4454-a648-29147af0463c","甘肃省","酒泉市","瓜州县","温馨家园东侧、龙泽园二期北侧",40.518594,95.790459,39.731704,98.493280,1
"6209822014B00170-1","80d4656f-5cb8-4b09-87fa-e9ade73a363b","甘肃省","酒泉市","瓜州县","215国道149Km+100m处南侧，沙枣东梁发电站东侧戈壁",40.796940,95.206795,39.864436,96.796072,1
"6209822013B00138-1","22ca489f-ff94-4e98-83ac-f4228260104f","甘肃省","酒泉市","瓜州县","215国道南侧、七里镇万吨葡萄恒温库西侧",40.796892,95.206795,40.134028,94.625320,1
"6209212010B00138","88513719-9fa9-42b2-83ae-3fe7265e8e10","甘肃省","酒泉市","金塔县","金塔县大庄子北河湾工业区",40.280815,99.095205,39.978172,98.900936,1
"6209002012B00319","221548fc-eda6-486c-b1de-3573ba927288","甘肃省","酒泉市","肃州区","肃州区富强路东侧",39.746526,98.530249,39.722768,98.509424,1
"6209212011B00406","d93cfb2e-322a-4323-b777-b685a95d161d","甘肃省","酒泉市","金塔县","羊井子湾乡榆树井村",40.047713,99.045236,40.041336,99.041720,1
"6209212011B00394","a30ce03b-1ae6-40f7-b6aa-95e4801f7ec2","甘肃省","酒泉市","金塔县","航头镇天仓村",40.424975,99.635508,40.400512,99.603504,1
"6209022008B00077","0aa27a0f-d9fa-4fc1-9a16-452a3a9f3a58C","甘肃省","酒泉市","肃州区","三墩镇",39.811554,98.839592,39.782120,98.724216,1
"6209822014B00614","3dc1b021-af99-4aba-a65c-258cd1c387c3","甘肃省","酒泉市","肃州区","祁连路北侧，解放军某部西侧",39.731434,98.542033,39.751732,98.494392,1
"6209822014B00554","e5eea073-930e-4de3-bcb5-b8e9e12e9f39","甘肃省","酒泉市","肃州区","祁连路北侧，解放军某部西侧",39.731434,98.542033,39.751732,98.494392,1
"6209212012A00088","925e1f4b-0890-439e-8ead-1582e8eac550","甘肃省","酒泉市","金塔县","金塔县城区建新路西文化街北",39.996027,98.906338,39.978172,98.900936,1
"6209222009B00015","d818ad18-0c17-4fa2-b050-38a1b2d1803b","甘肃省","酒泉市","瓜州县","瓜州新区",40.526106,95.788736,39.731704,98.493280,1
"6209022013B00052-1","1668d7f8-944c-46b9-a5b3-0b094dacb88c","甘肃省","酒泉市","肃州区","银达镇蒲上沟村二组南侧",39.783650,98.597213,39.773520,98.578960,1
"6209822014B00639-1","7ef4c0ec-4b1a-42c5-af6d-8cbfa573ec39","甘肃省","酒泉市","肃州区","国道215线西侧，过境公路北侧。",39.738469,98.500685,39.731704,98.493280,1
"6209002014B00209","e24441b0-261f-4d97-afa9-5197d994df20","甘肃省","酒泉市","肃州区","风电大道北侧、飞天路西侧",39.761802,98.465667,39.731704,98.493280,1
"6209222015B00522","878e1f37-bd7e-4cd0-92dd-7cdfdbe661f8","甘肃省","酒泉市","瓜州县","渊泉街北侧、常乐路以西",40.521955,95.795762,40.515088,95.792256,1
"6209222015B00069","8b57a001-e389-45fc-9605-8b0696a2269e","甘肃省","酒泉市","瓜州县","广德路东侧、汇能风电场生活基地南侧",40.522227,95.800785,39.722948,98.486400,1
"6209222014B00239","313f70d9-ce55-448d-a20a-74f8030160fd","甘肃省","酒泉市","肃州区","柳园东南14.5公里处",39.738469,98.500685,39.731704,98.493280,1
"6209242018B00115","7e8df09c-9f7b-43f6-aa47-62128b5ff54a","甘肃省","酒泉市","阿克塞哈萨克族自治县","阿克塞县红柳湾镇文化路一条街、清真寺南侧",39.639417,94.339496,39.634700,94.338592,1
"6209822010B00451","93d729fa-0dc4-4f36-b490-c1dc6660a4e4","甘肃省","酒泉市","敦煌市","七里镇铁家堡村沙家沟",40.126827,94.604886,40.120248,94.597424,1
"6209022008B00230","f7c23e37-636b-44e8-bfe5-9e6367650ed6","甘肃省","酒泉市","肃州区","清水镇半坡戏台北侧",39.370518,99.001990,39.365820,98.987264,1
"6209812010B00581","9550c6c9-ac4d-4f75-b7fd-45d406754d4a","甘肃省","酒泉市","玉门市","玉门新市区昌盛路东侧",40.301263,97.057148,40.306064,97.052784,1
"6209822011B00032","ac184825-82a8-49de-9f21-baf64e7c057f","甘肃省","酒泉市","瓜州县","215国道东南侧、矿产品运销公司西侧",40.796940,95.206795,39.735588,98.523440,1
"6209212016A00059","4f02deea-6fef-4688-9feb-b7eed04610df","甘肃省","酒泉市","金塔县","金塔县新城区",39.990029,98.908368,39.983523,98.900980,1
"6209822010B00059","71b42114-2cad-4ce7-a466-3a5a8c815369","甘肃省","酒泉市","敦煌市","原敦煌市农贸市场",40.147867,94.668527,40.143776,94.658352,1
"6209022011B00309","ecb5fb30-1ef0-4117-8922-19b3d34d61f7","甘肃省","酒泉市","肃州区","三墩镇下坝村委会南侧",39.756957,98.761664,39.782316,98.725264,1
"6209812015B00252","7b911adb-9290-4202-ab54-70d665b3f833","甘肃省","酒泉市","玉门市","玉门东镇建化园区",39.811776,97.930174,39.718116,98.551672,1
"6209222015B00276","2d2a77b4-b931-41bc-b7c0-7d17aca12e28","甘肃省","酒泉市","瓜州县","国道215线柳园5公里加气站南侧",41.080364,95.474317,39.563444,99.066976,1
"6209222015B00252","65ac2c8e-b267-4ce5-abcb-fa3f022aa1b1","甘肃省","酒泉市","瓜州县","瓜州县北大桥工业园区",40.526106,95.788736,40.555892,95.783496,1
"6209002009B00160","2880c9fd-3db9-40f3-97b0-841742f9b992","甘肃省","酒泉市","肃州区","民主街西侧,北市街北侧",39.750877,98.522601,39.747428,98.511776,1
"6209822012B00368","cd5179b6-33d4-4b2a-91c2-85b3c44987d5","甘肃省","酒泉市","敦煌市","甘肃省国营敦煌农场主干道东侧、农场果品公司南侧",40.336832,95.176882,40.380460,94.696568,1
"6209822012B00355","95f78b93-3c79-44d9-89bc-c00b5111298a","甘肃省","酒泉市","肃州区","313线北侧、莫高国土所西侧",39.738469,98.500685,39.727060,98.470592,1
"6209222011B00904","f5ff47ca-3204-4664-9f6a-2bec08d1344d","甘肃省","酒泉市","瓜州县","瓜州新区",40.526106,95.788736,39.731704,98.493280,1
"6209232011B00095","a85f0511-8c08-4d5f-b5a8-11110a194e01","甘肃省","酒泉市","肃北蒙古族自治县","党城湾镇盐池湾乡",38.977637,96.063927,38.973608,96.062496,1
"6209822009B00138","69c5b50e-6a8d-482f-93db-6411244c80d5C","甘肃省","酒泉市","敦煌市","阳关西路南侧",40.121008,94.604144,40.140628,94.651456,1
"6209222013B00938","4669f699-6427-4738-9b52-eb460e5a4998","甘肃省","酒泉市","肃州区","东伸砼业建筑垃圾再利用生产新型墙体材料加工厂东侧",39.738469,98.500685,39.778100,98.524400,1
"6209212014B00292-1","decd971d-647c-4ea8-b0f8-10ded5b54557","甘肃省","酒泉市","金塔县","金塔县鼎新镇头分村",40.300776,99.535202,40.294224,99.527240,1
"6209212014B00278-1","f14b5b00-b2c1-4dfc-95be-ac16326ce1ed","甘肃省","酒泉市","金塔县","金塔县航天镇双城村",40.421481,99.691901,40.414712,99.683936,1
"6209812014B00363-1","93de445e-468a-483a-a524-fc4cdf6132d0","甘肃省","酒泉市","玉门市","石油大道防风林带东侧、柳河路南侧",40.310724,97.053804,39.734056,98.529040,1
"6209822010B00044-1","9f641f20-d9e2-458c-b9b9-54ed2d5217db","甘肃省","酒泉市","肃州区","63612部队选址南侧",39.738469,98.500685,39.709044,98.502160,1
"6209222013B00698-1","411b3119-57cb-4cbc-bcfe-e0b803e8adf9","甘肃省","酒泉市","瓜州县","广德路东侧、公园街南侧",40.522227,95.800785,40.508772,95.784504,1
"6209812011B00057","6d0da57d-12f4-4ea3-9723-c02b37e1740f","甘肃省","酒泉市","玉门市","玉门市柳湖乡花海盆地花海乡西面15公里,主干渠南侧",40.317575,97.731980,40.304248,97.738264,1
"6209022012B00369","dda867d4-8acb-41f9-bd71-2e4cb60395c8","甘肃省","酒泉市","肃州区","甘肃酒泉工业园区（西园）",39.770195,98.417875,39.761800,98.410112,1
"6209222014B00640-1","db02792a-d8f8-47fa-b1f2-9c7047d7aa28","甘肃省","酒泉市","肃州区"," 北大桥、希望木业西侧",39.759292,98.487543,39.752720,98.480064,1
"6209822013B00102","98fcee4a-eb9d-43e1-83b9-eef955b1dd8e","甘肃省","酒泉市","敦煌市","敦煌山庄西侧",40.111314,94.675822,40.105092,94.670152,1
"6209812009B00111","7ba93661-8b38-453f-b021-29b5b522a716","甘肃省","酒泉市","玉门市","玉门镇柳墩湾南侧",40.286742,97.033686,40.230320,97.007288,1
"6209232012B00487","ae47a319-fb4d-42ac-9b25-15f3c95fee5f","甘肃省","酒泉市","肃北蒙古族自治县","肃北县马鬃山",39.518330,94.883692,39.519216,94.838944,1
"6209222011B00760","762ddfb0-4ea0-4c83-bdb6-5efe5d8369bf","甘肃省","酒泉市","瓜州县","瓜州新区",40.526106,95.788736,39.731704,98.493280,1
"6209002012B00247-1","f1523a91-87c7-482f-a774-2f0c8907761b","甘肃省","酒泉市","肃州区","解放路东侧",39.712293,98.507693,39.731704,98.493280,1
"6209022016B00031","f7e15aff-d318-48cc-8178-bfae23ea86c6","甘肃省","酒泉市","肃州区","新城区二期中建路北侧、文体路西侧",39.750309,98.491456,39.744252,98.479552,1
"6209822011B00338","2a8c2676-6772-4428-8ed0-d3c0bc894bc8","甘肃省","酒泉市","敦煌市","215国道西侧、转渠口镇漳县村三组",40.258586,94.753682,40.158828,94.673080,1
"6209242009B00018","85f35ed3-3751-408a-8ddc-feb388522ef6A","甘肃省","酒泉市","阿克塞哈萨克族自治县","阿克塞县二十公里工业规划区",39.640045,94.346760,39.647460,94.344800,1
"6209822007B00137-1","1c7e2189-5846-4211-885d-b426b6f95468A","甘肃省","酒泉市","敦煌市","敦煌市莫高镇",40.183656,95.110460,40.170204,94.804760,1
"6209002009B00247","7dc00c58-fbc9-4b74-87a4-2d7f9dea58b6","甘肃省","酒泉市","肃州区","肃州区泉湖乡营门村五组",39.734600,98.535695,39.722768,98.509424,1
"6209242012B00219","b3cde153-5646-486d-8dec-7df0fc5adaef","甘肃省","酒泉市","阿克塞哈萨克族自治县","阿克塞县红柳湾镇民主中路北",39.641566,94.346730,39.634580,94.338832,1
"6209242012B00206","50fc7b40-4102-4664-9b37-b5426e525d4d","甘肃省","酒泉市","阿克塞哈萨克族自治县","阿克塞县红柳湾镇北防风林南",39.641749,94.346468,39.634700,94.338592,1
"6209212018B00117","2b6e95b9-40d3-466b-b368-d09468eb8f71","甘肃省","酒泉市","金塔县","金塔县金鑫工业园区",39.963111,98.899243,39.983524,98.900976,1
"6209212011B02505","d0a9b3b2-ac3a-4529-989f-de1d1764ff58","甘肃省","酒泉市","金塔县","金塔县鼎新镇东岔村",40.313030,99.514908,40.307184,99.507984,1
"6209812016B00036-1","d62fd5f0-2c46-4397-b5ab-2e92e8fb657f","甘肃省","酒泉市","玉门市","玉门市东环路东侧，连霍高速西侧",40.297620,97.051712,39.911984,97.769616,1
"6209812016B00053","36a481ae-7957-4101-9968-462b57757b74","甘肃省","酒泉市","玉门市","玉门市大畅和主干道南侧",40.297620,97.051712,40.199964,97.869792,1
"6209212011B00268","3153d98b-429f-4566-bd50-b5e61433aec9","甘肃省","酒泉市","金塔县","金塔县砂业建材公司南侧",39.990029,98.908368,39.944996,98.858592,1
"6209222015B00438","563f4acc-8d05-4197-b0de-1b37dd70fb94","甘肃省","酒泉市","瓜州县","瓜州县北大桥工业园区",40.526106,95.788736,40.555892,95.783496,1
"6209822011B00415","c2906914-87cc-4253-bed3-2a10734c2134","甘肃省","酒泉市","肃州区","芦草滩",39.738469,98.500685,40.175260,99.178536,1
"6209822015B00340","d3917444-323b-470b-a9ed-60bcf16817b5","甘肃省","酒泉市","敦煌市","敦煌市工业园区内",40.147867,94.668527,40.201412,94.553672,1
"6209812015B00141","b5edce52-9fa6-47aa-a204-a08fc716c7f9","甘肃省","酒泉市","玉门市","玉门经济开发区东园大道南侧思富路西侧服务区以北",40.297620,97.051712,39.507376,94.877480,1
"6209022011B00318","023685f0-9fc8-4a69-ad91-2c984dfd1bde","甘肃省","酒泉市","肃州区","三墩镇二墩堡村",39.780492,98.702802,39.764700,98.712696,1
"6209812009B00138","5bdc7920-b52e-45fd-a787-775f8955aa2d","甘肃省","酒泉市","玉门市","玉门市新市区川北镇东北干渠北侧，金沙特综合楼东侧",40.329491,97.051298,40.278308,97.040688,1
"6209812015B00294","c036addc-672e-4883-b25e-62699efec8cf","甘肃省","酒泉市","玉门市","玉门市312国道以西，汽摩一条街北侧",40.287966,97.041459,40.290380,97.026624,1
"6209022016A00314","25905844-65ad-49ba-9641-5e279518e3cc","甘肃省","酒泉市","肃州区","下河清乡楼庄村4组、乡集镇西北角环乡路北侧",39.552364,98.974317,39.568932,98.965112,1
"6209212009B00360-1","aaec210b-9dde-4d52-b0d9-290c5929bdf4A","甘肃省","酒泉市","金塔县","金塔县古城乡",40.177976,98.876879,40.136860,98.860776,1
"6209222018B00055","6faee495-88dd-48ce-9d17-6cca74df9218","甘肃省","酒泉市","肃州区","广至乡岷县村长升枸杞加工厂北侧",39.738469,98.500685,40.515316,95.793200,1
"6209822012B00240","3cd27674-54d9-4d7b-a71a-e862a6f2a3d5","甘肃省","酒泉市","肃州区","313线北侧、莫高国土所西侧",39.738469,98.500685,39.727060,98.470592,1
"6209022012B00310","268ec02d-421c-4131-ab18-891bd3625401","甘肃省","酒泉市","肃州区","肃酒泉工业园区（南园）",39.771082,98.417982,39.761800,98.410112,1
"6209002014B00188","c63c8b7d-88c4-45ff-9233-c718538cff4f","甘肃省","酒泉市","敦煌市","西洞镇酒嘉物流园区阳关大道东侧、物流南二路南侧",40.157602,94.745810,39.712052,98.506256,1
"6209022010B00370","d92fb2b6-96eb-4645-94dd-e5bc87ad0e93","甘肃省","酒泉市","肃州区","总寨镇集镇、312国道北侧",39.767711,98.437567,40.540072,94.992128,1
"6209222013B00855","55837f8a-aa24-4653-b1f8-c6aa18312afa","甘肃省","酒泉市","肃州区","广至乡政府北侧",39.751166,98.514421,40.438584,95.580656,1
"6209002013A00078","0ae6013d-2f80-42df-920f-6943f6567bd8","甘肃省","酒泉市","肃州区","新城区二期金塔路北侧",39.738469,98.500685,39.972808,98.897504,1
"6209812012B00668","998d9b06-0e03-4050-8448-0c25d19b74fe","甘肃省","酒泉市","玉门市","玉门镇、花海镇等处",40.286742,97.033686,40.277140,97.042856,1
"6209222014B00765-1","25ad66a4-b93a-4679-bb63-e320e5c93c41","甘肃省","酒泉市","肃州区","北大桥第八风电场A区",39.759292,98.487543,40.590040,95.887600,1
"6209812018B00068","45031fb3-9c8f-477f-81c9-40d6585ba9bc","甘肃省","酒泉市","玉门市","玉门市花海镇大畅河闲置棉花加工厂西侧",40.516593,97.819684,40.199964,97.869792,1
"6209222014B00689-1","d711ffcb-4b07-4f55-bb2e-b902162fa97d","甘肃省","酒泉市","肃州区","老312国道北侧、银信驾校对面",39.772548,98.421449,40.548776,95.795096,1
"6209222017B00386","46cc0eac-2934-4355-ac3b-d4859b807ac1","甘肃省","酒泉市","肃州区","河东乡集镇",39.738469,98.500685,39.731704,98.493280,1
"6209212015B00027","135d699e-e78a-4744-ae12-65bfff939d83","甘肃省","酒泉市","金塔县","金塔县金鑫工业园区",39.963111,98.899243,39.983524,98.900976,1
"6209812012B00464-6","f30b239c-e3d4-4b00-8ddb-caa479981b1e","甘肃省","酒泉市","玉门市","铁人路东侧，南门住宅小区北侧，石油中专西侧",40.284368,97.048755,40.286668,97.038976,1
"6209812012B00237","a87311e9-e0e5-411f-811a-5f5daa140307","甘肃省","酒泉市","玉门市","玉关路东侧，靖西路西侧,柳河路北侧",40.313740,97.054790,40.308488,97.048088,1
"6209212010B00045","f8d3553a-8756-4ccf-87db-a4f65f684187","甘肃省","酒泉市","金塔县","金塔县北河湾工业区",40.280815,99.095205,40.273780,99.087336,1
"6209212010B00026","44b22f9e-2e20-4681-b0af-13acc9f030aeCC","甘肃省","酒泉市","金塔县","金塔县北河湾工业区",40.280815,99.095205,40.273780,99.087336,1
"6209222012B00549-1","73e208a8-b9a8-4e19-b92b-91564d881e16","甘肃省","酒泉市","肃州区","北大桥工业聚集区",39.759292,98.487543,40.544448,95.806800,1
"6209022015B00380","56058b12-4876-48cf-bdf1-ab2ba877ec7e","甘肃省","酒泉市","肃州区","总寨工业园区",39.738469,98.500685,39.645648,98.663048,1
"6209022017B00478","2d17efbe-48fe-476f-b63c-82ce344f6ef8","甘肃省","酒泉市","肃州区"," 酒泉经济技术开发区（南园） ",39.738469,98.500685,39.723816,98.497592,1
"6209222011B00799","bfc288ea-bf95-4081-96bc-f0e9210d67d7","甘肃省","酒泉市","瓜州县","瓜州县县城西三公里处",40.526106,95.788736,40.519360,95.781328,1
"6209222011B00808","a83962aa-f5fe-4f9b-837b-22bfd81f75d1","甘肃省","酒泉市","瓜州县","瓜州新区",40.526106,95.788736,39.731704,98.493280,1
"6209222011B00785","05631dad-2b12-4609-93b0-75e63ae1c1b4","甘肃省","酒泉市","瓜州县","瓜州县河东乡集镇原酒花加工厂",40.510550,96.781022,40.503552,96.773520,1
"6209232012B00100","f5e5ee09-b4ef-4952-9a95-4cb634e82f53","甘肃省","酒泉市","肃州区","鱼儿红牧场",39.738469,98.500685,39.671580,97.108688,1
"6209812015B00261","3ac08b3a-7a85-43b9-92d2-5d2db635c11f","甘肃省","酒泉市","玉门市","花海镇北环路北侧",40.516593,97.819684,40.304032,97.737568,1
"6209212011B02526","344e9aef-ae55-41cc-ba2d-34941e4cfff2","甘肃省","酒泉市","金塔县","金塔县东坝镇小河口村一组",40.161830,99.043389,40.160388,99.038008,1
"6209002015A00357","caaea45b-8c1d-4b2d-a943-d6982eb81b7f","甘肃省","酒泉市","肃州区","新城区二期中建路南侧",39.738469,98.500685,39.744252,98.479552,1
"6209022015B00519","73bb3cdb-c8d9-4c08-a952-4742aff8818c","甘肃省","酒泉市","肃州区","东洞乡集镇加油站北侧",39.551725,98.634100,40.540072,94.992128,1
"6209022016B00239","681864d9-43ed-4e34-a390-df1fa6a5af6c","甘肃省","酒泉市","肃州区","酒泉经济技术开发区（南园）",39.738469,98.500685,39.723816,98.497592,1
"6209222008B00144","80326b01-7032-4624-93eb-909b1e74542b","甘肃省","酒泉市","瓜州县","渊泉街北侧、卫生巷以西",40.521955,95.795762,40.515088,95.792256,1
"6209232012B00350","1f71bee7-40ac-4df0-96b9-4100869babaa","甘肃省","酒泉市","肃北蒙古族自治县","肃北县马鬃山",39.518330,94.883692,39.519216,94.838944,1
"6209222016B00440","8a7b58e9-dfc0-4f6f-a1a6-87ca04b31c3b","甘肃省","酒泉市","肃州区","北大桥老供水所东侧、玉石山矿业南侧",39.759292,98.487543,40.604976,98.687184,1
"6209822009B00176","497044c8-db99-4e4e-b639-b4c933957cbc","甘肃省","酒泉市","敦煌市","宁塞路南侧、西域路东侧",40.141862,94.670364,40.137352,94.662240,1
"6209812014B00067-1","39fed48d-cd28-4fcf-9777-57cbb8ee1d00","甘肃省","酒泉市","肃州区","建化工业园区酒泉路以北，振兴路以西",39.738469,98.500685,39.804864,97.910032,1
"6209222011B00456","42b332f8-e19e-43dd-a207-b034c12383c4","甘肃省","酒泉市","瓜州县","桥湾收费站东北处",40.585737,96.744434,40.578620,96.737480,1
"6209222011B00432","d7c81aa8-9b8e-4f96-a38d-e4bd659bcaa5","甘肃省","酒泉市","瓜州县","桥湾收费站东北处",40.585737,96.744434,40.578620,96.737480,1
"6209022011B00230","81a0ebb5-0532-4b33-b831-d610d76a1329","甘肃省","酒泉市","肃州区","甘肃酒泉工业园区（西园）",39.770195,98.417875,39.761800,98.410112,1
"6209212011B00754","bc620401-42af-4aec-8569-98ec122541c3","甘肃省","酒泉市","金塔县","金塔镇上杰村",39.996244,98.910129,39.985600,98.893112,1
"6209222008B00026-1","e03d0643-6d93-45ca-bb2e-4098ad0ba68cA","甘肃省","酒泉市","瓜州县","渊泉镇南市街南侧、西环路东侧",40.519500,95.789828,40.512732,95.780928,1
"6209222013B00710","ab333ec8-e93c-4419-9c6e-9e4239b564ac","甘肃省","酒泉市","肃北蒙古族自治县","双塔、龙岗、大梁、白墩子、黑山口、柳沟、柳园",41.601087,96.640996,40.843444,95.077784,1
"6209222010B00075-1","bf6debec-d797-47b2-bdd7-cefed75a0675","甘肃省","酒泉市","瓜州县","瓜州县电力公司东侧",40.526106,95.788736,40.519360,95.781328,1
"6209812012B00561","21041b5f-021e-4a42-a61a-24249373ca10","甘肃省","酒泉市","玉门市","玉门东镇、赤金镇等处",39.811776,97.930174,39.813780,97.923208,1
"6209222015B00128","d78b83c0-7895-406a-9047-87ace2ec9b20","甘肃省","酒泉市","瓜州县","三道沟镇政府街以北",40.540364,96.529427,40.433440,96.869664,1
"6209822013B00289","a83dcb51-9351-415e-9c8a-b54ce11aa4d9","甘肃省","酒泉市","肃州区","314线南侧",39.738469,98.500685,39.731704,98.493280,1
"6209022016B00278","dc5afbe7-73d1-4aed-b854-85adb965c7a4","甘肃省","酒泉市","肃州区","肃州区北环西路北侧",39.756185,98.513157,39.722768,98.509424,1
"6209222018A00261","fc7e0b2f-c136-4e10-8877-0134c60a0637","甘肃省","酒泉市","瓜州县","柳园镇镇区东南侧、距镇区3.5公里处",41.108516,95.507510,39.735588,98.523440,1
"6209222014B00620-1","fd9e6bd9-3b27-4f78-ac61-f75d3b43de4c","甘肃省","酒泉市","肃州区","北大桥、吉鑫汽车对面",39.759292,98.487543,39.752584,98.480080,1
"6209022015B00314","eed5a5ca-4b3b-4b7d-91b7-8eaf664ce691","甘肃省","酒泉市","肃州区","总寨工业园区",39.738469,98.500685,39.645648,98.663048,1
"6209022012B00996-1","7fc1e75d-6686-4033-8619-b94b21c50538","甘肃省","酒泉市","肃州区","果园乡丁家闸村小学以西",39.785027,98.459131,39.779024,98.450672,1
"6209022010B00157","b493106e-485f-4f88-85b3-4a77a55cd6af","甘肃省","酒泉市","肃州区","泉湖乡四坝村委会旧址",39.741860,98.585860,40.478136,96.496832,1
"6209002014B00227","7437902d-ce0b-497d-83ce-984e0a7984b6","甘肃省","酒泉市","肃州区","新城区二期宝泉西路南侧",39.735849,98.497165,39.728972,98.483280,1
"6209222016B00224","bc075fb2-10ee-4e9f-9dbb-4572ea8143df","甘肃省","酒泉市","瓜州县","梁湖乡岷州村日光温室北侧",40.470403,95.829258,40.463892,95.821680,1
"6209022018B00312","5f9f18be-da70-4cbe-98cf-f2dcef1bd556","甘肃省","酒泉市","肃州区","酒泉市生活垃圾填埋场东侧500米处（银达镇北戈壁",39.738469,98.500685,40.712204,96.122208,1
"6209212018B00145-1","be914487-bf91-48ed-8fc1-fbc1e67ab45c","甘肃省","酒泉市","金塔县","金塔县新城区",39.990029,98.908368,39.983523,98.900980,1
"6209812012B00108","b1f30a0d-46b3-460c-ab2f-68d50b1cd696","甘肃省","酒泉市","瓜州县","玉门工业园区内北干渠以南，连霍高速公路西侧",40.577139,96.676098,40.540256,95.833112,1
"6209812012B00338","92e9946f-7efe-47ed-b5b5-86da8d88d052","甘肃省","酒泉市","玉门市","玉宏钢材批发市场西，新东干渠北侧",40.287560,97.036448,40.280936,97.029160,1
"6209822015B00030","695f14c9-0210-48c1-ab1a-9b44976faa89","甘肃省","酒泉市","肃州区","314线南侧、龙行天下项目以北",39.738469,98.500685,39.750872,98.525704,1
"6209212015B00197","9c042746-a0bd-4a87-91e3-6245d721c022","甘肃省","酒泉市","金塔县","金塔县北河湾工业园区",40.280815,99.095205,40.273780,99.087336,1
"6209812011B00217","95a1165a-e460-4b4a-bcc2-2675ce6a5812","甘肃省","酒泉市","肃州区","铁人路延伸至国道西侧",39.727113,98.502524,40.286668,97.038976,1
"6209242010B00064","f64f194d-cd7c-4785-b778-cbf215a81052","甘肃省","酒泉市","阿克塞哈萨克族自治县","阿克塞县215国道南侧、桑奥汽修厂于加气站中间",38.508204,94.493054,40.133380,94.631128,1
"6209822012B00167","5b80794c-9237-4107-9ba1-0541d6a4b419","甘肃省","酒泉市","敦煌市","敦煌市境内党河下游",40.116069,94.644313,39.952896,94.329600,1
"6209222012B00189","29c649ee-3e92-4dd8-9526-eb96c65074d8","甘肃省","酒泉市","瓜州县","瓜州乡开发区银地棉业公司西侧",40.471402,95.678913,40.447340,95.843360,1
"6209242015B00238","76e94edd-6bfb-4a6d-a94e-8fc59478ac0c","甘肃省","酒泉市","肃州区","甘肃恒亚水泥有限责任公司厂区南侧",39.738469,98.500685,39.594428,94.312496,1
"6209242015B00216","fdf66626-281e-45f5-904c-ef9bf10acf3a","甘肃省","酒泉市","阿克塞哈萨克族自治县","阿克塞县省道314线K258+200米以东",39.640045,94.346760,39.632868,94.338816,1
"6209022015B00562","b2ac4ef3-0af4-40c9-b192-80b31b0867c9","甘肃省","酒泉市","肃州区","总寨工业园区",39.738469,98.500685,39.645648,98.663048,1
"6209212014B00049-1","bd4184f0-4807-4d9f-a22a-115c0bafbe01","甘肃省","酒泉市","金塔县","金塔县航天镇东岔村",40.418838,99.713696,40.411764,99.705784,1
"6209222013B00332","d6a4ef66-ecb9-4b3a-bddd-8d2734d30fe3","甘肃省","酒泉市","瓜州县"," 瓜州县广至乡乡政府北侧",40.526106,95.788736,40.438584,95.580656,1
"6209222013B00272-1","47a292ea-dfe2-4d1a-ae97-717b4875b7f4","甘肃省","酒泉市","瓜州县","小康路南侧、瓜州中路西侧",40.528505,95.786513,40.521504,95.775896,1
"6209022017B00532","f5130703-e35a-4675-8771-f963d646d717","甘肃省","酒泉市","肃州区","肃北路南侧、富强路东侧",39.711158,98.539073,40.480524,96.777576,1
"6209822012B00204","23535694-3e16-4e86-9cad-75381b73af43","甘肃省","酒泉市","敦煌市","敦煌市境内党河水库上游",39.957544,94.338880,39.952896,94.329600,1
"6209812012B00302","b5f07c8d-36ba-4b11-826a-b8c86a06d187","甘肃省","酒泉市","玉门市","柳河路南侧，看守所北侧",40.310724,97.053804,40.302928,97.051880,1
"6209822016B00414","78164070-3ea1-4b96-8be9-6242b3e029d7","甘肃省","酒泉市","肃州区","国道215线北侧、中普汽车修理厂东侧",39.738469,98.500685,40.101912,94.578384,1
"6209222016B00489","391fcc64-8df1-4e50-97c8-0b0f55fbe9b2","甘肃省","酒泉市","瓜州县","公园街北侧、文昌路东侧",40.515782,95.789971,40.517244,95.787304,1
"6209212010B00153","64ec2d98-5ae2-42b1-b88d-f93e8489ffd9","甘肃省","酒泉市","金塔县","金塔县大庄子北河湾工业区",40.280815,99.095205,39.978172,98.900936,1
"6209022014B00990-1","6c70843d-e828-4459-b5dc-93893886d5aa","甘肃省","酒泉市","肃州区","清水镇收费站东侧",39.365903,99.066088,39.360852,99.044040,1
"6209022015B00390","343e0449-db0c-4f4e-ac07-5989be775eb3","甘肃省","酒泉市","肃州区","总寨工业园区",39.738469,98.500685,39.645648,98.663048,1
"6209812010B00720","3c2e66b2-6726-48d0-b2a2-fdd22ce86591","甘肃省","酒泉市","玉门市","玉门镇东渠村、新市区开发区",40.272532,97.075443,0.000000,0.000000,1
"6209222016B00323","621ec436-b121-4088-87a3-c4ec30592d64","甘肃省","酒泉市","肃州区","沙河乡加油站东侧",39.738469,98.500685,39.731704,98.493280,1
"6209022015B00535","a307362b-189c-474e-a8fa-ab895375e881","甘肃省","酒泉市","肃州区","酒金公路南侧、石河桥西侧",39.757635,98.533895,39.754888,98.519280,1
"6209022015B00217","6445c333-b9cc-494b-bdb3-cf9a25dd903f","甘肃省","酒泉市","肃州区","总寨工业园区",39.738469,98.500685,39.645648,98.663048,1
"6209022015B00166","f139fdb2-697e-4198-900c-adb4eba400cc","甘肃省","酒泉市","肃州区","总寨工业园区",39.738469,98.500685,39.645648,98.663048,1
"6209222011B00867","abf01058-edb7-467e-aedf-3edeada86ff0","甘肃省","酒泉市","瓜州县","瓜州新区",40.526106,95.788736,39.731704,98.493280,1
"6209222016B00309","05f4bd2b-655b-42d3-967c-61150d94487d","甘肃省","酒泉市","瓜州县","瓜州乡瓜州村银地棉花收购点西侧",40.474484,95.644787,40.482948,95.631488,1
"6209212009B00490","e15acedb-e20a-4594-90ec-04c9e5019d3c","甘肃省","酒泉市","金塔县","金塔县金塔镇解放路东侧、天利市政广场以北",39.983774,98.907189,39.989700,98.902864,1
"6209222013B00786","573a5729-d17e-4fe7-96c1-f0d946b19644","甘肃省","酒泉市","肃州区","安北第二风电场",39.738469,98.500685,40.791724,96.188288,1
"6209022015B00465","e3342f82-6077-47bf-bb04-af5f5b58ce9d","甘肃省","酒泉市","肃州区","总寨工业园区",39.738469,98.500685,39.645648,98.663048,1
"6209222013B00997","af32cbdb-0a49-40b6-8de9-b37d3c261727","甘肃省","酒泉市","瓜州县","瓜州北大桥工业园",40.526106,95.788736,39.695400,98.494528,1
"6209002015B00217-1","fec20a3f-2483-4031-bb60-05a8e103b566","甘肃省","酒泉市","肃州区","高铁片区将军路东侧",39.738469,98.500685,39.704700,98.530560,1
"6209232015B00154","8cf163d4-fe26-484c-8f1d-2a9e95aa0172","甘肃省","酒泉市","肃北蒙古族自治县","马鬃山镇音凹峡",41.136642,96.890059,41.129688,96.883800,1
"6209212018B00108","80327258-3f18-4870-b321-f4d8ab618028","甘肃省","酒泉市","金塔县","金塔县航天镇集镇规划区",40.379241,99.641829,40.372572,99.633960,1
"6209212010B00174","02e78751-ca29-4c7a-afd4-263e1cd27596","甘肃省","酒泉市","金塔县","金塔县航天镇河东里开发区",40.432606,99.738560,40.372572,99.633960,1
"6209822013B00023","75319225-6050-4325-be54-661283f1cbe2","甘肃省","酒泉市","敦煌市","阳关镇道路西侧、野麻湾路口南侧",39.909773,94.102869,40.553156,95.688432,1
"6209812014B00010-1","223980e7-b8d0-4a96-85a5-ae220a3fb133","甘肃省","酒泉市","玉门市","玉门新市区昌盛路东侧，北干渠北侧",40.301263,97.057148,40.174420,94.691048,1
"6209222013B00599","89e88e94-6e4a-406a-b773-71b259057731","甘肃省","酒泉市","肃州区","北大桥工业聚集区",39.759292,98.487543,40.544448,95.806800,1
"6209002012A00276","2d712a98-8116-46fd-aec6-270d358ba242","甘肃省","酒泉市","肃州区","新城区二期飞天路交中建路西南角",39.761802,98.465667,39.761104,98.428552,1
"6209002012A00298","b6191695-2606-4f88-8eef-9b726e2494f5","甘肃省","酒泉市","肃州区","铁人路南侧",39.727113,98.502524,40.286668,97.038976,1
"6209242012B00031","51851f30-e181-4077-8e38-28569dd292bc","甘肃省","酒泉市","阿克塞哈萨克族自治县","阿克塞县二十公里工业集聚区西侧、省道314线北侧",39.640045,94.346760,39.647460,94.344800,1
"6209822012B00099-1","ff96ee1c-6f75-4817-bae5-6f50790c7b4b","甘肃省","酒泉市","敦煌市","天润花园西侧、渊泉路东侧",40.144116,94.666425,40.140304,94.649312,1
"6209212018B00018","6249b682-1cb0-4dbf-83b8-76c65e3f5e4b","甘肃省","酒泉市","金塔县","金塔县新华街金园药业公司北侧",39.993053,98.907353,39.985600,98.903384,1
"6209242018A00137","d993bc1b-6e36-4d65-b778-8e74f20e5b70","甘肃省","酒泉市","阿克塞哈萨克族自治县","阿克塞县小康北路东侧、第一热源厂南侧",39.642275,94.353308,39.634092,94.346048,1
"6209232012B00119","5b4c8e4e-8e6f-4c0c-b9b3-7b7ac61ec7ce","甘肃省","酒泉市","肃州区","马鬃山金庙井",39.738469,98.500685,41.587688,96.874808,1
"6209812009A00030","4e748412-ac2c-435f-b526-76c72ea6af87","甘肃省","酒泉市","玉门市","东至:昌盛路；南至:312国道；西至:人民路；北至:高级中学。",40.287966,97.041459,39.769496,98.462056,1
"6209812008B00159","9d1cc080-c906-47d1-b50e-cc75a8732f87","甘肃省","酒泉市","肃州区","玉黄公路西侧，江涛选矿厂南侧",39.738469,98.500685,39.809528,97.924632,1
"6209002011A00066","746e4cb2-9f96-4002-9544-e57f080cef2d","甘肃省","酒泉市","肃州区","酒泉师范学校操场东北角",39.747382,98.521770,39.737300,98.513712,1
"6209812016B00155","dce401a5-732a-41c9-8ade-22451ca96054","甘肃省","酒泉市","玉门市","玉门市新市区永顺商砼北侧",40.297620,97.051712,40.321200,97.056544,1
"6209242015B00290","5b0a8871-c0e6-446e-b612-398d7a66b123","甘肃省","酒泉市","阿克塞哈萨克族自治县","阿克塞县红柳沟沟口汇丰矿物开发有限公司南侧",39.435530,93.837775,39.586048,94.280120,1
"6209002016A00059","717e288e-5bee-4513-925d-874c24bb71e3","甘肃省","酒泉市","肃州区","肃州区黄金大道北侧、东环北路东侧",39.757993,98.527229,39.743480,98.517504,1
"6209222012B00372","59e579ba-ca3f-4a4a-9ddd-f10630101837","甘肃省","酒泉市","肃州区","柳园石材园区",39.738469,98.500685,39.731704,98.493280,1
"6209022011B00276","36bb7eb0-26fd-4428-89be-30632cbacbec","甘肃省","酒泉市","肃州区","总寨工业园区物资储备站用地南侧",39.738469,98.500685,39.714420,98.535624,1
"6209222012B00036","e44ecc07-7ce4-4f9b-8142-6773f93a2913","甘肃省","酒泉市","瓜州县","瓜州县柳沟火车站北侧",40.526106,95.788736,40.677884,96.437080,1
"6209222015B00132","c0127b6b-4138-441b-ad9c-3974701db4c9","甘肃省","酒泉市","肃州区","北大桥、中电科耀塔筒厂东侧",39.759292,98.487543,39.752720,98.480064,1
"6209822014B00188-1","925542c0-bc14-4e49-ad91-c4346e371b02","甘肃省","酒泉市","肃州区","314线南侧",39.738469,98.500685,39.731704,98.493280,1
"6209812013B00544-1","8b1ef108-0fe9-4a5f-9abf-4deb0dd4ead5","甘肃省","酒泉市","玉门市","玉门东镇循环经济产业园215省道北侧，东清路以东600米",39.776711,97.806340,39.813780,97.923208,1
"6209222016B00109","ebc16dd4-da07-44c9-ab2f-40bd5472f5ba","甘肃省","酒泉市","瓜州县","柳园镇5公里南侧",41.108516,95.507510,41.102944,95.503608,1
"6209022018B00024","0686687a-c901-4b94-aabc-be8e4ecba027","甘肃省","酒泉市","肃州区","酒泉经济技术开发区（南园）华锐路东侧、世纪商联公司南侧  ",39.706960,98.480205,39.694236,98.465872,1
"6209222013B00376","da32c54d-ccdd-4fbd-bf01-f49cf59895aa","甘肃省","酒泉市","瓜州县","广至藏族乡政府南侧",40.416536,95.581388,40.351920,95.518072,1
"6209002013B00178","e53facd0-a9d6-421d-aa21-0b4cb11f1fa2","甘肃省","酒泉市","肃州区","新城区飞天路东侧.园林路南侧",39.756429,98.501766,39.761104,98.428552,1
"6209232012B00346","ed28548c-835c-4bce-8563-5d93c365fefb","甘肃省","酒泉市","肃北蒙古族自治县","肃北县马鬃山",39.518330,94.883692,39.519216,94.838944,1
"6209822014B00215","0e113bb1-aaa5-40b1-9ce9-d24f4de0e145","甘肃省","酒泉市","敦煌市","文昌路南侧，西域路北侧",40.144184,94.669754,40.137352,94.662240,1
"6209822013B00386","dbb664aa-0b95-4b07-b3e8-f78ea5eb2b0d","甘肃省","酒泉市","敦煌市","七里镇62216部队西侧、南阳新村83号北侧",40.098967,94.594950,40.115484,94.609872,1
"6209002015B00147-1","dc7c557c-e02d-41ff-824b-36e286c78ea6","甘肃省","酒泉市","肃州区","铁人路交富强路西南侧",39.746526,98.530249,40.286668,97.038976,1
"6209222014B00697-3","0d4dfe26-fc59-4188-8f98-8801a1c6b1bf","甘肃省","酒泉市","肃州区","柳园石材园区内",39.738469,98.500685,39.702556,98.474992,1
"6209022015B00127","86582999-71d3-4442-8c18-ba4af52c39e4","甘肃省","酒泉市","肃州区","酒泉经济技术开发区（南园）",39.738469,98.500685,39.723816,98.497592,1
"6209022011B00354","297145bc-1f1d-4fcc-b2ef-73ed0f1cf43d","甘肃省","酒泉市","肃州区","总寨工业园区瑞丰免烧砖厂西北侧",39.738469,98.500685,40.198620,94.548584,1
"6209002015A00249","87f58f14-5ceb-41a3-933d-17679104bc94","甘肃省","酒泉市","肃州区","新城区二期风电大道南侧、清泉路东侧",39.738469,98.500685,40.137936,94.674472,1
"6209002009A00057-2","d2cde676-8ea3-4bcd-b2d2-3f104dc3941fAA","甘肃省","酒泉市","肃州区","春光村二组拥军路东北侧",39.727864,98.524053,39.731704,98.493280,1
"6209022010A00119","8bd89578-de8d-44e0-92fe-76f74a3d656d","甘肃省","酒泉市","肃州区","泉湖乡中学东侧",39.754279,98.571512,39.726232,98.531888,1
"6209022008B00046","06d73a68-81ea-4ac7-a04b-1e290b570a52","甘肃省","酒泉市","肃州区","上坝镇集贸市场西侧",39.601470,98.723365,40.121900,94.578640,1
"6209222014B00787","b5d335d9-0b15-4f1c-9943-4084bbd5f4f0","甘肃省","酒泉市","肃州区","安北第四风电场B区",39.738469,98.500685,40.590040,95.887600,1
"6209242015A00152","c6c37999-16da-4a78-b8ce-cc0ae3585aa5","甘肃省","酒泉市","阿克塞哈萨克族自治县","阿克塞县阿勒腾乡原乡政府以西",38.814712,94.855844,38.899360,93.903224,1
"6209022010B00458","d57b1437-5507-4803-b972-f69280ed80ca","甘肃省","酒泉市","肃州区","三墩镇下坝小学北侧",39.811554,98.839592,39.782316,98.725264,1
"6209022009B00045","7c195ac4-96f2-4c19-912c-333248d939d6","甘肃省","酒泉市","肃州区","银达镇明沙窝村九组路口东南侧",39.835627,98.689797,39.837120,98.704832,1
"6209212016B00196","297a00b7-8ef9-425f-8841-d50ecd757541","甘肃省","酒泉市","金塔县","金塔县西川工业园区",39.990029,98.908368,39.983524,98.900976,1
"6209222013B00098","e6f8b4aa-da98-4b5e-aab7-832e07c95b3f","甘肃省","酒泉市","肃南裕固族自治县","柳沟物流园",39.395363,98.619450,39.778192,97.368496,1
"6209222012B00091","4521de49-fbb1-483c-9879-f4aaf96f9c64","甘肃省","酒泉市","瓜州县","瓜州新区",40.526106,95.788736,39.731704,98.493280,1
"6209002015B00209","4c2d7b5c-315f-4fae-9e9d-847bfc7b25f5","甘肃省","酒泉市","肃州区","高铁片区平原路东侧、肃北路北侧",39.712691,98.558692,41.101180,95.471152,1
"6209222014B00312-1","505a7147-89f8-4258-bd01-365d1ce16e8e","甘肃省","酒泉市","瓜州县","甘肃省国营小宛农场一分场三队老队部",40.517182,95.788451,40.510156,95.781048,1
"6209222013B00983","88be349b-ff67-4e39-8cee-57691ac360cc","甘肃省","酒泉市","肃南裕固族自治县","柳沟物流园",39.395363,98.619450,39.778192,97.368496,1
"6209002008A00148","a578abc8-c21b-4436-829f-ae0287361377","甘肃省","酒泉市","肃州区","新城区西关路北侧；地块编号为B05南地块",39.751893,98.500086,39.755908,98.450984,1
"6209002008B00035-1","e39f20bd-8644-45c9-985f-7fa6a419c832A","甘肃省","酒泉市","肃州区","宗地坐落于肃州区园林路以北、西峰寺六组居民点北侧",39.756429,98.501766,39.739704,98.487776,1
"6209242012B00118","a1f0931f-c8ed-4cc4-97a9-87d7d761066a","甘肃省","酒泉市","阿克塞哈萨克族自治县"," 阿克塞县红柳湾镇民主西路北，化工厂办公楼东",39.641601,94.337860,39.634540,94.332088,1
"6209022012B00705","e3e59c10-1f4a-4ad4-824d-4a2c3bb7f6be","甘肃省","酒泉市","肃州区","总寨镇三奇堡村、收费站东北侧",39.683811,98.622150,39.677304,98.615392,1
"6209022014A00766-1","6dcbb8d8-9828-49d7-9f10-386e4ecc7959","甘肃省","酒泉市","肃州区","甘肃酒泉工业园区（南园）",39.770195,98.417875,39.761800,98.410112,1
"6209222013B00742","7ddcb413-456f-41da-ba91-7510d500b821","甘肃省","酒泉市","肃州区","干河口风电场",39.738469,98.500685,40.553036,95.527040,1
"6209002015A00168","5f2d05af-690c-4c26-b972-f1ef9b4552dd","甘肃省","酒泉市","肃州区","建设路交祁雪路西北角",39.745170,98.528337,39.739080,98.530744,1
"6209212015B00103","efe86b71-6406-4887-84ad-8681ad21c424","甘肃省","酒泉市","金塔县","金塔县金鑫工业园区",39.963111,98.899243,39.983524,98.900976,1
"6209812013B00383","5746c527-70da-4bc2-a6bb-83aa7c70c9c6","甘肃省","酒泉市","玉门市","玉门市玉门东镇建化产业园215省道南侧、振兴路东侧",39.776711,97.806340,39.813780,97.923208,1
"6209212015B00146","2dcdfb0b-11e0-4f75-a6cb-189300a846d9","甘肃省","酒泉市","金塔县","金塔县大庄子乡巨龙棉业南侧",40.226770,99.069467,40.220140,99.061512,1
"6209232011B00173","ce0d8e48-c2c9-489f-bb07-a592b9100f59","甘肃省","酒泉市","肃北蒙古族自治县","肃北县党城湾镇",39.522453,94.880356,39.516108,94.872728,1
"6209222014B00390","5b7b232b-7e7d-4a5e-b631-4a5d10dae9ab","甘肃省","酒泉市","肃州区","北大桥",39.759292,98.487543,39.752720,98.480064,1
"6209812011B00495-1","61b025f1-8602-4272-a26b-601ca3795b67","甘肃省","酒泉市","肃州区","拓璞大道北侧，中铁十局轨枕厂东侧",39.738469,98.500685,40.313644,97.046448,1
"6209212011A00989-1","c94f0511-5f12-4eb4-b381-cff641282392","甘肃省","酒泉市","金塔县","金塔县金塔镇上杰村",39.996244,98.910129,39.989968,98.899848,1
"6209022014B00943-1","11d36d88-76ab-4491-8680-a4e954ba153a","甘肃省","酒泉市","肃州区","甘肃酒泉工业园区（南园） ",39.770195,98.417875,39.761800,98.410112,1
"6209822014B00089-1","5543976d-b494-400a-9426-28aa09f68aab","甘肃省","酒泉市","敦煌市","敦煌市祁连路东侧",40.153766,94.668855,40.147520,94.661928,1
"6209022016B00343","d8e1f6fd-311c-49d4-baf8-988130467434","甘肃省","酒泉市","肃州区","酒泉经济技术开发区（西园）",39.738469,98.500685,39.723816,98.497592,1
"6209222016B00557","2895a1ec-d8fb-4e7c-a251-f8a414dc2465","甘肃省","酒泉市","瓜州县","瓜州县城区（祁连街西延伸段南侧、公园街两延伸段北侧、西环路向西侧",40.517498,95.784017,40.510416,95.779208,1
"6209222008B00128","507b8404-1d35-4b4b-b243-97e075318317","甘肃省","酒泉市","瓜州县","渊泉街北侧、卫生巷以西",40.521955,95.795762,40.515088,95.792256,1
"6209222014B00079-1","70438265-a589-4dc4-b29f-dd714c6f3a6f","甘肃省","酒泉市","瓜州县","瓜州县柳沟物流园",40.526106,95.788736,40.548536,95.799016,1
"6209812011B00220-1","1fc793f1-b82f-43d5-91d9-55112d037533","甘肃省","酒泉市","玉门市","玉关北路东侧，恒温库南侧",40.308446,97.043999,40.307808,97.038616,1
"6209812012B00700","55369984-0d33-40d6-a897-b83389c1d27c","甘肃省","酒泉市","玉门市","玉门镇西南约15公里处",40.286742,97.033686,40.277140,97.042856,1
"6209022017B00485","d4288cb0-4ff7-41ac-a4eb-2f3c2e1df81e","甘肃省","酒泉市","肃州区","酒泉经济技术开发区（南园） ",39.738469,98.500685,39.723816,98.497592,1
"6209222012B00419","cfd8ce70-8abe-435b-93a2-c6b3811ccfd0","甘肃省","酒泉市","肃州区","柳园石材园区",39.738469,98.500685,39.731704,98.493280,1
"6209212010B01280","456c75bb-24ee-4a68-a28c-d380615de96e","甘肃省","酒泉市","玉门市","古城新光村",40.014200,97.432223,39.731704,98.493280,1
"6209822013B00172","9c3cd095-cc7a-434c-816d-784d7bdd8012","甘肃省","酒泉市","敦煌市","敦煌市七里镇工业园区内",40.098967,94.594950,40.198620,94.548584,1
"6209812015B00056","b60071a4-ceec-446e-9be3-d9db991dfa25","甘肃省","酒泉市","玉门市","玉门镇建材园区",40.286742,97.033686,40.277140,97.042856,1
"6209222012B00424","efb631dd-2b75-4fd4-832f-c71c13c6222b","甘肃省","酒泉市","肃州区","柳园石材园区",39.738469,98.500685,39.731704,98.493280,1
"6209232012B00069","aed5d38e-bacd-4a34-b527-33c5b9327314","甘肃省","酒泉市","肃北蒙古族自治县","肃北县马鬃山",39.518330,94.883692,39.519216,94.838944,1
"6209222008B00017-1","603051ec-7a3e-461c-8ddd-fd3984c7cebcA","甘肃省","酒泉市","瓜州县","瓜州县渊泉镇气调库南侧",40.531082,95.788496,40.515356,95.782984,1
"6209222010B00308-1","897acc93-bcbc-47f1-8084-40627808f3f6","甘肃省","酒泉市","瓜州县","瓜州乡集镇东一公里处",40.471402,95.678913,39.731704,98.493280,1
"6209822011B00302","b588a428-8138-45a9-9220-1fc80d86dbc8","甘肃省","酒泉市","敦煌市","敦煌市七里镇工业园区石棉仓储加工区内",40.098967,94.594950,40.131668,94.679856,1
"6209222017B00379","13d7e8cf-3378-495f-9325-22d7b8eee686","甘肃省","酒泉市","瓜州县","瓜州县北大桥工业园区",40.526106,95.788736,40.555892,95.783496,1
"6209242017B00157","e1dcb08e-3306-4817-b33f-b00b03f089a9","甘肃省","酒泉市","阿克塞哈萨克族自治县","阿克塞县城防风林北侧、污水处理厂西侧",39.640045,94.346760,39.632868,94.338816,1
"6209022011B00225","21b85f85-94f8-4661-90e8-0a8982fb6e14","甘肃省","酒泉市","肃州区","总寨工业园区程科元脱水菜厂南侧",39.738469,98.500685,40.198620,94.548584,1
"6209022011B00174","c78606a9-d5dd-4852-acf5-b0b76d7b4d08","甘肃省","酒泉市","肃州区","总寨工业园区袁春林建材厂南侧",39.738469,98.500685,40.198620,94.548584,1
"6209822016B00134","24e27b33-c7c3-4adb-93e8-168802fb0416","甘肃省","酒泉市","肃州区","国道215线西侧，过境公路南侧",39.738469,98.500685,39.731704,98.493280,1
"6209232016B00209-1","269a4478-c3b1-4ed9-97b0-97dc9337f67e","甘肃省","酒泉市","肃州区","马鬃山",39.738469,98.500685,41.587688,96.874808,1
"6209022015B00159","da2a3d1f-7295-4297-9bfa-bb11f8b0f94d","甘肃省","酒泉市","肃州区","总寨工业园区",39.738469,98.500685,39.645648,98.663048,1
"6209022018B00467","9e64f2f0-81e4-4e66-acb8-a32e84a8ee4c","甘肃省","酒泉市","肃州区","北大河北岸",39.754054,98.464297,40.310952,99.381952,1
"6209222013B00214","2420a903-990e-4212-9d3e-5a0a0093796c","甘肃省","酒泉市","肃州区","北大桥工业聚集区、火车站商贸楼东侧",39.759292,98.487543,40.544448,95.806800,1
"6209222011B00155","25c89446-c0be-45e8-9a13-05d184639ed3","甘肃省","酒泉市","瓜州县","瓜州新区",40.526106,95.788736,39.731704,98.493280,1
"6209022016B00118","c4055d3f-43fd-4361-9513-a5bb79fd8f95","甘肃省","酒泉市","肃州区","酒泉经济技术开发区（西园）",39.738469,98.500685,39.723816,98.497592,1
"6209232011B00018","475ac366-d7a0-41ec-b7d9-084cf34b860c","甘肃省","酒泉市","肃北蒙古族自治县","肃北县马鬃山",39.518330,94.883692,39.519216,94.838944,1
"6209222011B00936","934e56ff-5063-49ba-b419-48aaede485a4","甘肃省","酒泉市","瓜州县","瓜州新区",40.526106,95.788736,39.731704,98.493280,1
"6209822010B00509","a1dc7041-ac0a-40e2-862d-cf1db02f83d2","甘肃省","酒泉市","敦煌市","七里镇工业园区",40.098967,94.594950,39.695388,98.494552,1
"6209222016B00330-1","d7e67774-be23-4454-918b-7be8c132dd11","甘肃省","酒泉市","肃州区","沙河乡加油站东侧、沙腰公路南侧",39.738469,98.500685,40.480524,96.777576,1
"6209222017B00487","c9c1987b-5a0d-4bb2-b3e7-33cd7841160e","甘肃省","酒泉市","肃南裕固族自治县","柳沟物流园区",39.395363,98.619450,39.778192,97.368496,1
"6209822012B00469","8e9adae3-40d1-42f7-964d-425fac4357cd","甘肃省","酒泉市","敦煌市","敦煌市七里镇工业园区内",40.098967,94.594950,40.198620,94.548584,1
"6209812014B00247-1","fed7e53f-6cfe-4c0b-aec0-d3e26d0f6c9a","甘肃省","酒泉市","玉门市","玉门市东镇215省道南侧，振兴路东侧",39.776711,97.806340,40.290808,97.044680,1
"6209812013B00355-2","29c05b5f-db3a-4f27-89c7-9ea8f59db673","甘肃省","酒泉市","玉门市","玉关路东侧、王明举食品厂南侧",40.298721,97.040084,39.749432,98.507336,1
"6209022012B00716","e05264b3-a9a6-4623-9cf7-f5d15651e994","甘肃省","酒泉市","肃州区","甘肃酒泉工业园区（西园）",39.770195,98.417875,39.761800,98.410112,1
"6209242013B00058-1","efab13d5-6d64-4a34-89ee-9e3ff3e888ce","甘肃省","酒泉市","阿克塞哈萨克族自治县","阿克塞县循环经济产业园区",39.640045,94.346760,39.632868,94.338816,1
"6209222018A00197","9aab9145-c58b-4421-981b-0c41bc5d138d","甘肃省","酒泉市","瓜州县","瓜州县柳园镇卫生院西侧",41.109804,95.510792,41.101084,95.500016,1
"6209022012B00431","61f91016-5259-4a75-beb7-232a8e0f0f59","甘肃省","酒泉市","肃州区","总寨工业园区",39.738469,98.500685,39.645648,98.663048,1
"6209212013B00296-1","cd5a05f7-2bc0-4e03-b97b-c80e44c01756","甘肃省","酒泉市","金塔县","金塔县北河湾循环经济产业园",40.280815,99.095205,40.273780,99.087336,1
"6209022013B00241-1","c3f04391-f4c7-4f08-92a0-018c2a9117bd","甘肃省","酒泉市","肃州区","总寨工业园区",39.738469,98.500685,39.645648,98.663048,1
"6209002008B00042-1","c7e2da6d-37b7-4021-8ccc-8b026a4c2d28A","甘肃省","酒泉市","肃州区","宗地坐落于肃州区富强路东侧、新民路北侧",39.746526,98.530249,39.749464,98.514480,1
"6209812011B00635-1","95246a68-1dc3-44b3-8917-d1f983d01b01","甘肃省","酒泉市","玉门市","铁人路东侧、粮食局办公楼西侧、广场路南侧",40.292530,97.046025,40.286668,97.038976,1
"6209812010B00758","4c21f1f2-c8e8-4afe-a8df-3bc8cad57c40","甘肃省","酒泉市","玉门市","玉门市赤金镇农贸市场北，嘉玉赤东路东侧",40.021288,97.433322,40.007496,97.427160,1
"6209812013B00283-3","e53c16d3-aa83-49a5-acd0-5b18031c8d64","甘肃省","酒泉市","玉门市","玉门经济开发区无名路东侧、高速公路服务区西侧",40.297620,97.051712,39.734056,98.529040,1
"6209812013B00528-1","23d96cb9-fafa-445c-b59e-dc35a6560c3c","甘肃省","酒泉市","玉门市","玉门市花海镇金湾以东，玉花路与通大畅路交汇处",40.516593,97.819684,40.250628,97.705920,1
"6209212013B00262-1","9af8c99a-c21f-4a10-a354-385d5ee8f7f6","甘肃省","酒泉市","金塔县","金塔县酒航路加油站南侧",39.990029,98.908368,39.983524,98.900976,1
"6209222013B00585","8c1999ab-3d6d-4d34-ac11-7f5aa8c24132","甘肃省","酒泉市","瓜州县","瓜州北大桥工业园区",40.526106,95.788736,40.550108,95.781312,1
"6209022015B00689","b13aac5f-178b-4b92-ab9e-b92dc858c046","甘肃省","酒泉市","肃州区","总寨工业园区",39.738469,98.500685,39.645648,98.663048,1
"6209822010B00330","abacfabd-d887-4f2d-b905-8974cbb848d7","甘肃省","酒泉市","敦煌市","祁连路西侧、党河北路南侧",40.153766,94.668855,40.285568,97.034792,1
"6209212009B00088-1","f4a7a3a7-c10a-47be-af6f-6d00a64ad847A","甘肃省","酒泉市","肃州区","中东等三乡镇",39.738469,98.500685,40.119200,98.818264,1
"6209002010A00057-1","13d061e5-fcd8-4cfa-b2df-25943ebef1b6","甘肃省","酒泉市","肃州区","地块位于肃州区邮电北路东侧、世博花园锅炉房用地北侧。地块编号为C10—B03号",39.751246,98.514322,39.742744,98.518296,1
"6209002010B00072","8e1ca487-6b94-418d-bd87-5bc490e8ee18","甘肃省","酒泉市","肃州区","飞天路南侧C09-D09号",39.761802,98.465667,39.761104,98.428552,1
"6209022007B00172","caa5458c-1705-480f-bcb9-f5f603f5a798","甘肃省","酒泉市","肃州区","清水镇半坡戏台南侧",39.370518,99.001990,39.365820,98.987264,1
"6209002007B00168-1","de241b9b-733d-40aa-8cb1-ac8c147c7a12A","甘肃省","酒泉市","肃州区","酒泉市新城区广场东路东侧、市财政局用地南侧，宗地编号为X06—L07号",39.737675,98.502882,40.143552,94.645896,1
"6209222016B00530","7e592085-016d-4f14-b5df-0512cbcdc5ef","甘肃省","酒泉市","肃州区","瓜敦快速沿线",39.738469,98.500685,39.732724,98.495960,1
"6209022007B00016-1","74d9d400-5316-4ca3-a746-7af88ae202b2A","甘肃省","酒泉市","肃州区","清水工业园区市场北侧",39.738469,98.500685,39.728600,98.493480,1
"6209242017A00119","d7126871-e8c5-4904-a05e-5e06c409031c","甘肃省","酒泉市","肃州区","省道314线南侧、正泰公司西侧                   ",39.738469,98.500685,39.731704,98.493280,1
"6209232007B00025-1","e8781d30-392a-412e-85f1-41614178c36fA","甘肃省","酒泉市","瓜州县","疏勒河",40.559957,96.654141,40.429992,96.880856,1
"6209822013B00030","e339803d-b1ba-430a-9dea-84f14bb2663e","甘肃省","酒泉市","瓜州县","215国道北侧、七里镇二三产业综合园区",40.796988,95.206795,39.756960,98.522976,1
"6209812013B00216-2","08c199ff-c63e-47da-8806-69e816f7a8c2","甘肃省","酒泉市","玉门市","玉门市柳河路南侧、看守所北侧",40.310724,97.053804,40.305312,97.037800,1
"6209222011B00515","67998aa8-c0d4-4973-b91d-2a72179ceeec","甘肃省","酒泉市","瓜州县","瓜州县城西北约44公里处",40.526106,95.788736,40.264852,95.982544,1
"6209222018B00099","554f80d8-7e72-4218-81ba-1f66af0cea53","甘肃省","酒泉市","瓜州县","柳园镇工业园区龙山路东侧、广发石材厂南侧",41.108516,95.507510,39.734432,98.528096,1
"6209812007B00103","fcf8e48a-95a1-4f0b-9ca9-5cfcfc383d1c","甘肃省","酒泉市","肃州区","玉黄公路东侧",39.738469,98.500685,39.731704,98.493280,1
"6209022012B00444","fd57b366-36bf-456c-afd5-42db37dad2ec","甘肃省","酒泉市","肃州区","酒东油田道班公寓南侧",39.738469,98.500685,39.724104,98.498112,1
