electr_supervise_no,id,province,city,district,location,bd_lat,bd_lon,tdt_lat,tdt_lon,flag
"4418002013B01317","57816301-425d-420b-b278-b7c9aedb3b83","广东省","清远市","清城区","清远市新城东六号区A座26号楼",23.690365,113.052637,23.673368,113.050552,1
"4418822010B03463","95aef61c-9874-4efc-b145-e85d80075a16","广东省","清远市","连州市","连州市中山南路通庄巷1号",24.780614,112.390227,24.777960,112.375408,1
"4418232009B00050","e56c0761-81f4-4577-9c07-7b5c6ff073ae","广东省","清远市","阳山县","阳山县七拱镇塘坪村",24.306369,112.598246,24.300170,112.585448,1
"4418212009B00453","adc54ecb-7492-4afc-a49e-8dfbb0c6893a","广东省","清远市","佛冈县","佛冈县汤塘镇新区",23.755925,113.553104,23.881946,113.526448,1
"4418022009B01926","7e7c31aa-f9de-4656-ae5f-6031144e9c5b","广东省","清远市","清城区","清远市清城区东城街青云居委会聚龙街供电仓库",23.719719,113.049108,23.714500,113.039776,1
"4418022009B02004","6351b7a3-cff8-48c8-9768-f7b404571fc0","广东省","清远市","清城区","清远市清城区桥北路104号凤城变电站",23.722442,113.043399,23.718650,113.031616,1
"4418022009B01989","dfb341d4-ba7b-4b74-bcec-62e04470911c","广东省","清远市","清城区","清城区曙光一路右四巷1座一号",23.719007,113.043538,23.603260,113.070248,1
"4418002015B01626-1","88dcd7ec-b09a-4097-afed-a4429c77f305","广东省","清远市","清城区","清远市清城区东城街办莲塘村委会辖区范围内",23.665831,113.215740,23.717862,113.055216,1
"4418812015B00175-2","5bc67dfd-d5d0-4cc6-9ab6-3487617941db","广东省","清远市","英德市","广东顺德清远（英德）经济合作区片区一规划四十米路北（四至见红线图）",24.191939,113.421443,24.179000,113.413696,1
"4418822015B00229","acbd3b20-0166-4ba9-a68b-ecd6b0db73a2","广东省","清远市","连州市","连州镇北湖路136号东区第15栋4座1梯601房",24.790721,112.382067,24.787340,112.370696,1
"4418822015B01448","654df9de-82e2-446a-bf9c-ea2bba6143f9","广东省","清远市","连州市","连州镇中山南路144号后栋402房",24.780579,112.387650,23.684480,113.050680,1
"4418812008B00602","80b545fc-ccca-415f-8276-48c44ebe649d","广东省","清远市","英德市","英德市英城君玉街东",24.188440,113.406185,24.188660,113.394368,1
"4418822016B00845","1ceb8ca4-1a05-40f7-b9da-9d2f223164b2","广东省","清远市","连州市","连州市高塘街57号",24.781400,112.392084,24.783250,112.372056,1
"4418812011B00066-1","0227f180-c520-4fd0-9c18-7d57003a1bcf","广东省","清远市","英德市","英城浈阳湖周边C地块",24.181020,113.408183,24.185770,113.379040,1
"4418272014B00064","917636dd-9449-4d9a-b31f-f6bbcccdb44c","广东省","清远市","清新区","清新区太平镇龙湾村委会清四公路旁",23.680433,112.888339,23.677692,112.876656,1
"4418822012B01486","254d64fb-4404-43d8-a23f-441350fbc8d9","广东省","清远市","连州市","连州市东陂镇东陂大市场N298-1号地",25.002088,112.331127,24.999230,112.298880,1
"4418272014B01011","1bd6fe93-5481-4d2e-8fbc-08becd5524ce","广东省","清远市","清新区","清远市清新区禾云镇佛山禅城（清新）产业转移工业园",23.922689,112.929398,23.919272,112.917888,1
"4418272018B00066","1a87a6cf-a645-4ef0-a232-29a8969f4e81","广东省","清远市","清新区","清远市清新区太平镇盈富工业园",23.659397,112.862243,23.652002,112.856136,1
"4418272016B01191","86032799-9f5f-46b8-b5d6-ffbbe8f98713","广东省","清远市","清新区","清远市清新区禾云镇佛山禅城（清新）产业转移工业园",23.922689,112.929398,23.919272,112.917888,1
"4418272013B00861-1","b265ac6d-3945-4f3f-95b6-6357e3b90100","广东省","清远市","清新区","清新县龙颈镇军营村委会、龙东村委会",23.852970,112.911829,23.849446,112.900248,1
"4418002009B00428","f6db2f69-533c-45fb-9f36-f505fe0e8656","广东省","清远市","清城区","清远市新城六号区A座29号楼",23.690375,113.050982,23.716450,113.016384,1
"4418002009B00407","f0de71a6-235e-4998-a122-18d31d743674","广东省","清远市","清城区","清远市横荷镇百加管理区瓦窑街",23.651594,113.069380,23.649720,113.036328,1
"4418022008B00780","fdfc563a-f09c-42d2-8f27-4b7787939cffC","广东省","清远市","清城区","清远市清城区朱围一路左四巷12号602",23.710997,113.031984,23.710668,113.026200,1
"4418022008B00408","52633446-2eb2-4c20-88de-29ad0562bdbdCC","广东省","清远市","清城区","清远市清城区刘园左四巷6号601",23.710997,113.031984,23.713250,113.031248,1
"4418022008B00792","abab269f-54c4-424e-b504-366a554c0054CC","广东省","清远市","清城区","清远市清城区上濠基34-36号首层",23.713188,113.043812,23.700410,113.057200,1
"4418022008B00666","6971bd4b-7b58-488f-aedc-1ef2d69dbad7C","广东省","清远市","清城区","清远市清城区白马塱一区左三巷6号602",23.714065,113.038085,23.700410,113.057200,1
"4418022008B00853","cee9367c-1899-41e5-b8ec-2cddd55ea2d0C","广东省","清远市","清城区","清远市清城区麦围二街左六巷7号C801",23.722101,113.038079,23.700410,113.057200,1
"4418022008B00606","7d64a33c-e38b-4c73-aaa3-566898c2a9daC","广东省","清远市","清城区","清远市清城区白马塱一区左三巷六号802",23.714065,113.038085,23.700410,113.057200,1
"4418022008B00530","0d6d9131-2fef-4239-8bcb-233ac7effbcaCC","广东省","清远市","清城区","清远市清城区罗宅左一巷五号602",23.719234,113.039383,23.709620,113.025944,1
"4418022008B00364","c9dbd301-1bfb-4521-a8c8-22d875587d77CC","广东省","清远市","清城区","清远市清城区松岗路147号二栋304",23.725970,113.035024,23.717950,113.022560,1
"4418022008B00680","70666ae6-4b79-4d82-9e2a-b9878d7f8375CC","广东省","清远市","清城区","清远市清城区松岗清郊清沙大道3栋B梯701",23.731822,113.037857,23.721100,113.019080,1
"4418002010B00198","a4f6c72f-6593-4b21-b244-1c9be78042a3","广东省","清远市","清城区","清远市新城B25号区",23.688230,113.062468,23.694344,113.039608,1
"4418212011B01100","a2b6faf2-7b27-4935-9631-e89ef00de15f","广东省","清远市","佛冈县","佛冈县石角镇吉田村106国道南侧",23.964761,113.641059,23.849222,113.511720,1
"4418812008B00786","9398b587-14f5-42de-8d49-2d2c57fa2b93","广东省","清远市","英德市","英德市浛洸镇",24.261381,113.140340,24.257950,113.128272,1
"4418812008B00445","d2f86cfc-6acd-4753-860c-f3cf5165b198","广东省","清远市","英德市","英德市浛洸镇",24.261381,113.140340,24.257950,113.128272,1
"4418812008B00422","63a546ec-64df-4b9a-aed5-ff52b83b2a0e","广东省","清远市","英德市","英德市浛洸镇",24.261381,113.140340,24.257950,113.128272,1
"4418212008B00056","0d4195a7-a6cd-4fae-86d1-5f42e6f6cc63T","广东省","清远市","佛冈县","佛冈县石角镇莲溪村",23.881086,113.531856,23.881946,113.526448,1
"4418002012B00572","bfc691c3-8935-469a-a3da-8593e7a7b2c1","广东省","清远市","清城区","清远市新城东四号39号",23.695313,113.052804,23.689940,113.039432,1
"4418812011B00329-1","b9745a96-749c-447b-9e96-7ee0fed821bc","广东省","清远市","英德市","英德市洋塘路102号",24.201348,113.421479,24.188318,113.409448,1
"4418822010B02801","4b5a313b-5f2d-44f7-ae0b-d5df0860b0f8","广东省","清远市","连州市","连州市体育北街二横巷9号",24.794801,112.387258,24.783250,112.372056,1
"4418822010B03323","80d7c37d-25e4-44bb-aacb-cf39c8932873","广东省","清远市","连州市","连州市高岳巷57号第三层",24.786467,112.383573,24.783030,112.376088,1
"4418212012B00336","522ba4e1-bcf5-4219-aabf-584f7bc0806c","广东省","清远市","佛冈县","佛冈县石角镇福田路东侧",23.867365,113.537013,23.881946,113.526448,1
"4418272015B00459","783ecc39-5b70-4e86-85ce-7695e11f59cc","广东省","清远市","清新区","清新区太和镇明霞大道中6号B梯501",23.744297,113.017784,23.735792,112.963048,1
"4418272015B00443","0f74a928-9d49-4d53-b53f-3133b45895ad","广东省","清远市","清新区","清新区太和镇红棉街21号B幢801#",23.737923,113.026925,23.734192,113.014920,1
"4418822015B00398","9a52310c-b4d0-43d4-ac52-bba7fe5074fa","广东省","清远市","连州市","连州市丰阳镇丰阳村东头洞地段",25.053059,112.284625,25.048056,112.269912,1
"4418812008B00455","8c57d397-2a00-4a0c-a5e0-548644960afa","广东省","清远市","英德市","英德市浛洸镇",24.261381,113.140340,24.257950,113.128272,1
"4418822009B00253","53e493f6-6052-4576-be83-dd6f6293d7c6C","广东省","清远市","阳山县","连州市中山南路骆屋巷14号",24.640616,112.483987,24.777960,112.375408,1
"4418822010B01432","745e1369-635b-4675-9e39-aea2e6710d7c","广东省","清远市","连州市","连州市体育北街15号",24.794801,112.387258,24.783250,112.372056,1
"4418812013B02160","b81bc265-8bbe-4411-af22-2dcf95c5fefd","广东省","清远市","英德市","英德市英城洋塘路",24.202165,113.421585,24.197990,113.409392,1
"4418002015B01663","0d69faf2-271a-44dd-8675-456c00aa14dd","广东省","清远市","清城区","清远市清城区源潭镇源潭街1号",23.704737,113.339957,23.667588,113.198720,1
"4418822009B00532","94caa364-d48e-4eca-872c-b5803c28ee62","广东省","清远市","连州市","连州市榕树坪五坊28号",24.873717,112.313581,24.870282,112.301792,1
"4418812014B01388","c9dbb2cc-e711-46f7-9888-8c5c5aa42f13","广东省","清远市","英德市","英德市英城吴屋村以北、北江二号路以西",24.213350,113.448252,24.182860,113.401400,1
"4418272018B00030","d3fcb4f5-1efd-40ce-b03e-302587ae0aa9","广东省","清远市","清新区","清远市清新区太和镇清和大道140号",23.739833,113.015828,23.735792,112.963048,1
"4418812013B02188","4e381c62-7011-4e06-a1b2-2b26097b0a93","广东省","清远市","英德市","英德市黎溪镇四区",23.936260,113.279553,23.936314,113.269256,1
"4418272013B01538","7f9bd4a9-b87b-465b-93a8-91e912b89f04","广东省","清远市","清新区","清新区城区3号区",23.754270,112.991558,23.598760,112.798912,1
"4418822010B01598","9681066a-d1d0-4db1-ba56-533a871c5dac","广东省","清远市","连州市","连州市湟川南路29号第一栋201房",24.776671,112.392003,24.773240,112.381600,1
"4418022010B00045","95c63ff9-aac0-468f-967d-303ef3c0a71c","广东省","清远市","清城区","清远市清城区石角镇金康大街70号",23.558946,112.974899,23.549270,112.967352,1
"4418022010B00038","7d11ff0e-1b2a-4346-bb71-d04aa206fa55","广东省","清远市","清城区","清远市清城区竹仔园五号501",23.719335,113.033895,23.700848,113.108464,1
"4418022016B00188","a4357f29-e414-4c7d-be43-d4540939da38","广东省","清远市","清城区","清远市清城区石角镇广清产业工业园园区内",23.497493,112.936903,23.506650,112.985072,1
"4418812013B01095-1","445997ec-c8ca-40ae-80fb-298f9c6ebed5","广东省","清远市","英德市","英德市东华镇英华茶场S252线以西地块八",24.228905,113.678194,24.225506,113.669416,1
"4418002011B02469","a5ba2bc8-5966-4c62-9076-d23f39ec55d1","广东省","清远市","清城区","清远市新城西26号区",23.688230,113.062468,23.684480,113.050680,1
"4418812016B00869","2c5cc87f-d939-4ce8-a507-51e2d6fbec40","广东省","清远市","英德市","英德市连江口镇大樟坝",23.997476,113.288320,24.003596,113.275152,1
"4418002013B01296","511ca585-1f8d-44b7-ab11-4234dcaf590b","广东省","清远市","清城区","清城区源潭镇东坑村",23.621920,113.146067,23.618420,113.134072,1
"4418022015B00317","ac6d7d7a-e332-4032-aa13-d4013ace5681","广东省","清远市","清城区","清远市清城区横荷街道办事处青山村民委员会下塘湾村民小组以北",23.663469,113.057157,23.655530,113.036808,1
"4418002010B00956","da9ec382-cc60-4744-b92e-be67ac1bc639","广东省","清远市","清城区","清远市高新技术开发区银盏工业园区嘉福工业区E区",23.517993,113.114473,23.518810,113.104696,1
"4418812014B00648","8212c256-98f3-4d90-8457-b4477b353bde","广东省","清远市","英德市","英德市横石塘镇前锋村、原横石塘中学",24.344636,113.382749,24.341202,113.370696,1
"4418022013B01957","0fce4976-f854-4e0f-b169-ce7323d66ab1","广东省","清远市","清城区","清远市清城区东门街29号",23.713004,113.039011,23.700410,113.057200,1
"4418022010B01081","0b937d1b-1849-4f2d-99ed-d183de0508bd","广东省","清远市","清城区","清远市清城区朱围大街南一座3号502",23.722636,113.039748,23.707612,113.332408,1
"4418022010B01126","994fa4c9-cfc2-401e-9cdc-b0abbeb25938","广东省","清远市","清城区","清远市清城区东城街道办事处长埔村委辖区内",23.730929,113.058574,23.727140,113.046680,1
"4418022008B01199","3a1e9703-c2ee-44e8-be07-07889fa2b4d9C","广东省","清远市","清城区","清远市清城区上濠基119座六楼",23.714354,113.044362,23.700410,113.057200,1
"4418812011B01269","2000d999-6975-4f1c-a2d1-1139d9121c4d","广东省","清远市","英德市","英德市黎溪镇府前路北、镇政府东B地块",23.936244,113.282010,23.932610,113.267704,1
"4418812008B00172","ab5ddd18-1bfd-4bb2-92bd-ce8760f28f3a","广东省","清远市","英德市","英德市英城街道办事处矮山坪的四宗",24.189474,113.409755,24.185730,113.397720,1
"4418812013B00680-1","205d925a-10ae-4ea5-b849-839a3d7d0128","广东省","清远市","英德市","英德市浛洸镇广源东路地块C",24.261381,113.140340,24.257950,113.128272,1
"4418022014B02423","7b3d246d-3480-4666-81c7-dd8488fd879a","广东省","清远市","清城区","清远市清城区曙光二路5座首层102",23.717200,113.037082,23.719490,113.019696,1
"4418212014B00273","9027d7bb-b7eb-46a9-94dc-20ce0859b859","广东省","清远市","佛冈县","佛冈县石角镇青云西路北侧",23.871064,113.534911,23.867734,113.523848,1
"4418212014B00256","92200ac2-1817-4195-8631-bd560cedfed8","广东省","清远市","佛冈县","佛冈县石角镇青云西南侧",23.874753,113.521139,23.867734,113.523848,1
"4418002011B02140","54d39e60-3f47-4ec0-9fae-c7e7a5c7ef3f","广东省","清远市","清城区","龙塘镇石岭茶寮村（龙腾工业开发区内）",23.605849,113.085756,23.611716,113.068888,1
"4418822010B03578","7c10526e-fe5d-41ae-8717-ede2dbc1b9c5","广东省","清远市","连州市","连州市洋湄路地段",24.771064,112.402420,24.768772,112.388776,1
"4418822010B03686","4a741d84-75fd-40b6-9fc1-84e081a7bc9e","广东省","清远市","连州市","连州市洋湄路地段",24.771064,112.402420,24.768772,112.388776,1
"4418002014B00161","976573e4-aae9-47ec-b165-c1e058fae0ea","广东省","清远市","清城区","清远市新城E14号区",23.688230,113.062468,24.716324,112.283600,1
"4418022014B00075-1","5b749bbb-74bc-4698-b4b1-c253cf1004c1","广东省","清远市","清城区","清远市清城区横荷街办城西大道旁",23.664810,113.055211,23.673552,113.036264,1
"4418822010B02716","770949f2-b08a-4392-8f39-d8af0e35f304","广东省","清远市","连州市","连州市龙坪镇教育路",24.832556,112.572539,24.825626,112.484728,1
"4418822010B03034","6aa9d76b-b86b-4ee8-8d3d-134b25ad2e13","广东省","清远市","连州市","连州市慧光路177号404房",24.787114,112.390197,24.784130,112.378248,1
"4418002014B01771","62dc5c75-0ac9-44c9-b55a-7b61f6a38fdf","广东省","清远市","清城区","清远市高新区百嘉科技创新园",23.637001,113.075127,23.684480,113.050680,1
"4418822010B01588","4313f654-0c08-4d55-9165-f8067187d42c","广东省","清远市","连州市","连州市东岳路102号E栋302房",24.784027,112.392328,24.799970,112.378112,1
"4418002010B00043","1c468af2-811b-46f7-9956-6395f2923cba","广东省","清远市","清城区","清远市新城B11号区炒沙新村11号区",23.686604,113.070129,23.684480,113.050680,1
"4418022009B01679","0abf9bc7-cdbb-4027-877d-ba27e9f28024","广东省","清远市","清城区","清远市清城区麦围大街左七巷13号302",23.714810,113.037510,23.700410,113.057200,1
"4418822015B01258","aa6aff95-0667-4613-aaa0-f2ce6a18ce2a","广东省","清远市","连州市","连州镇半边街开发区",24.791382,112.385568,23.684480,113.050680,1
"4418022013B00092","87f6d0ab-6c92-4603-894b-2c85239e26c9","广东省","清远市","清城区","清远市清城区凤城街道清郊居民委员会辖区内",23.709755,113.028469,23.709768,113.019560,1
"4418272015B01535","ed26a6b2-57ac-48b2-b609-aff3c0a5d0e8","广东省","清远市","清新区","清远市清新区太和镇府前路十八号306#",23.738471,113.025423,23.735792,112.963048,1
"4418822015B00028","9a098550-90c2-4a3f-b349-9dd5b9b68135","广东省","清远市","连州市","连州市九陂镇高相大大坌村",24.690942,112.386993,24.702318,112.361880,1
"4418822013B00548","19319f6b-2979-4b20-b5f6-56c5a9708a33","广东省","清远市","连州市","连州市体育北街4坊20号",24.794801,112.387258,24.783250,112.372056,1
"4418812010B00448","aff55659-5828-470d-8213-97f67d0e4597","广东省","清远市","英德市","英德市望埠镇旧英韶公路边",24.260647,113.491051,24.269950,113.472256,1
"4418002010B00238","fa02b560-8e31-4371-a48c-f7a0460da32a","广东省","清远市","清城区","清远市新城B25号区",23.688230,113.062468,23.694344,113.039608,1
"4418022014B00019","30981896-058c-4bbd-bf4f-61f3af2956c4","广东省","清远市","清城区","清远市清城区石角镇界牌村",23.502538,112.938635,23.499030,112.927120,1
"4418822012B01361","272f8676-52d4-4db5-a1cf-ec4e0240c9d5","广东省","清远市","连州市","连州市东陂镇东陂大市场N128号地",25.002088,112.331127,24.999230,112.298880,1
"4418822012B01358","38bec29a-dc06-4dee-9543-60dfdaba5892","广东省","清远市","连州市","连州市东陂镇东陂大市场M118号地",25.002088,112.331127,24.999230,112.298880,1
"4418812013B02096","39cc44cb-f308-4890-b659-6f227ec4af0c","广东省","清远市","英德市","英德市大站镇东岸开发小区",24.141316,113.490854,24.163750,113.427424,1
"4418822009B01007-1","32e1d804-8268-44ee-b521-ba39493c7691","广东省","清远市","连州市","连州市瑶安乡洛阳街地段",25.021028,112.417121,24.783250,112.372056,1
"4418822011B00879-1","b6b0cc34-dfd5-46d3-9288-bbbf50bb13eb","广东省","清远市","连州市","连州市东陂镇东陂村五文岗洞（东陂大市场）地段M218-2号地",25.000896,112.308754,24.996150,112.295648,1
"4418232014B00225","c91c82d3-5393-4543-a119-98b93ccee484","广东省","清远市","阳山县","阳城镇雷公坑村（雷公坑旧围）",24.483172,112.637140,24.503914,112.599776,1
"4418022010B00279","dfbda54c-c9b0-4165-9f6b-60c3668d9bcf","广东省","清远市","清城区","清远市清城区高基里三巷三号二楼",23.721813,113.033680,23.718206,113.021656,1
"4418812014B00148-1","4990902e-696b-4364-8608-a4ab8893a975","广东省","清远市","英德市","英德市浛洸镇和谐大道地块H2",24.261381,113.140340,24.257950,113.128272,1
"4418812018B00360","09cb2e96-7926-468d-a007-d1685b29cb0f","广东省","清远市","英德市","英德市英红镇岭南路以南、三圣路以东",24.310950,113.405312,24.302100,113.399064,1
"4418822013B00722","dae5f964-e82a-45d2-b294-dec6a7380000","广东省","清远市","连州市","连州市车站商业东区首层商铺背后简易商场第六间",24.786467,112.383573,24.795734,112.311944,1
"4418022011B00621","d9503440-baa7-40c7-aeb0-df4a6901f184","广东省","清远市","清城区","清远市清城区石角镇新基村委会开发区三号",23.536585,112.991659,23.533548,112.979864,1
"4418822010B02944","73f5f06c-24fa-4753-b8c5-7b1cc4d47cbc","广东省","清远市","连州市","连州市吕仙路1号301房",24.788922,112.386071,24.785970,112.374000,1
"4418022016B00443","ca2b3a75-f1ff-4a45-930c-01e3f7583033","广东省","清远市","清城区","清远市清城区石角镇广清产业工业园园区内",23.497493,112.936903,23.506650,112.985072,1
"4418812016B00897","92b8461d-7db5-4deb-b60e-20c582e591d9","广东省","清远市","英德市","英德市英城街道和平西路20号之二",24.164003,113.366106,24.186950,113.407504,1
"4418812014B00156","e9328398-d0b5-49c1-9c5a-9eb49a703eb8","广东省","清远市","英德市","英德市浛洸镇和谐大道地块H",24.261381,113.140340,24.257950,113.128272,1
"4418812013B00635","0d435fa1-2426-4533-a49b-8b292e9c399b","广东省","清远市","英德市","英德市英城利民路以北、龙山公园以西（原党校）",24.191483,113.425210,24.187310,113.413000,1
"4418022011B00116","ac9af625-f6dc-4edc-9c31-70a136f2e425","广东省","清远市","清城区","清远市清城区梁围一街左二巷6号502",23.713795,113.036773,23.691670,113.042736,1
"4418022011B00098","925b5b96-88b7-4cae-96c5-25246126b4e7","广东省","清远市","清城区","清远市清城区刘园左四巷二号503",23.710997,113.032020,23.713250,113.031248,1
"4418002018B00790","56f12679-5514-471b-aa96-59135322ecd1","广东省","清远市","清城区","清远市新城区B9号区",23.688230,113.062468,23.684480,113.050680,1
"4418822015B00285","a0748084-b656-4f71-bfa4-29133c7e3cdc","广东省","清远市","连州市","连州市连州镇城南四村",24.791382,112.385568,24.781002,112.375624,1
"4418822015B00348","e77747aa-37a0-4f90-bc72-fc38d0b04369","广东省","清远市","连州市","连州市连州镇体育北街二巷8号之二",24.794801,112.387258,24.788480,112.373400,1
"4418822015B00301","e3849c47-a7b5-4b08-ae42-656edb4bfcfa","广东省","清远市","连州市","连州镇番禺路265号B栋401房",24.801631,112.388203,24.797470,112.376576,1
"4418812011B00489","93d64bf7-5938-4f73-94bc-7d908e1c3029","广东省","清远市","英德市","英德市望埠镇河头大街",24.260647,113.491051,24.271652,113.474784,1
"4418272014B01830","a77fc10f-ae1b-469c-b38d-cf23ac1cf8d1","广东省","清远市","清新区","清新区太和镇十八号区",23.739303,113.009446,23.740898,113.020384,1
"4418212010B00720-1","30fc5574-2332-4bde-abd1-8657cf803bdc","广东省","清远市","佛冈县","佛冈县汤塘镇黄花湖",23.788294,113.516164,23.784660,113.504344,1
"4418022015B00398-1","60cd2e92-7acb-4a31-9710-80a11774c44b","广东省","清远市","清城区","清远市清城区石角镇新基村民委员会辖区内",23.497493,112.936903,23.533548,112.979864,1
"4418822011B00608","63223eeb-f7e7-4d34-b801-f7b4b15c852c","广东省","清远市","连州市","连州市慧光路康乐巷13号",24.782846,112.391954,24.781622,112.379288,1
"4418812011B00555-1","43dc6480-55c0-444f-b2a0-dae681f1109d","广东省","清远市","英德市","白沙镇太平村更古坑",24.096143,113.769289,24.095004,113.759120,1
"4418812011B00595","7bc7363f-a1c9-46c2-bcb0-85dfbd867593","广东省","清远市","英德市","英德市英城峰光西路北中国电信西",24.192866,113.399370,24.186420,113.397264,1
"4418812016B00286-1","8e5497ff-d26b-4a1b-991b-e4e0bedce53f","广东省","清远市","英德市","英德市白沙镇太平村更古坑",24.096143,113.769289,24.092700,113.758688,1
"4418812011B01078","628ea0ea-8934-478a-8323-5643b0f0e4c6","广东省","清远市","英德市","英德市东华镇坣下村X361线南",24.183368,113.674405,24.193434,113.663000,1
"4418022012B01490","5d9508f9-4b1a-4cd2-b616-2fc3e886de76","广东省","清远市","清城区","清城区朱围三街2座102",23.724570,113.037572,23.722316,113.021872,1
"4418212010B00936-1","a25eae6e-2534-40c4-b51f-838598c09ad5","广东省","清远市","佛冈县","佛冈县龙山镇民龙线东侧",23.788004,113.383686,23.881946,113.526448,1
"4418002012B00997","e8e89987-d234-4b1f-baee-aeb7c9fe15bb","广东省","清远市","清城区","清远市清城区源潭镇新货场",23.704737,113.339957,23.636264,113.152784,1
"4418822012B01292","c79a7e12-87df-405f-b0b7-699c7dc6c79c","广东省","清远市","连州市","连州市东陂镇东陂大市场K1128-2号地",25.002088,112.331127,24.999230,112.298880,1
"4418022009B01205","1d05dd2e-fab0-4d8a-8043-e27bb1c37a36T","广东省","清远市","清城区","清远市清城区新围街右四巷四号501",23.718871,113.043448,23.700410,113.057200,1
"4418022009B01247","198abcb0-b48a-4450-9605-7c09ba340306T","广东省","清远市","清城区","清远市清城区麦围大街47号之三901",23.719829,113.037889,23.700410,113.057200,1
"4418812014B00126","76c9eaf8-077c-485a-a819-98e9ccbad8bc","广东省","清远市","英德市","英德市浛洸镇聚源东路D地块",24.261381,113.140340,24.257950,113.128272,1
"4418002013B01385","9d85a1b9-8439-4d49-9c1a-936b8faae72d","广东省","清远市","清城区","清远市洲心龙华大道振兴二路10号",23.682323,113.096005,24.160400,112.772168,1
"4418022009B00366","8a7d73c7-adba-4b87-87e1-5523a1a47bc0T","广东省","清远市","清城区","清远市清城区朱围三街清中路操场东33号702",23.724702,113.037572,23.700410,113.057200,1
"4418812009B00061","12afb3a8-6e4f-4e7d-a739-1ffd51130bc0C","广东省","清远市","英德市","英德市浛洸镇浛洸大道东侧",24.269243,113.139288,24.257950,113.128272,1
"4418812009B00118","d9130886-e17e-4fe2-9210-ea1b56845055C","广东省","清远市","英德市","英德市浛洸镇浛洸大道东侧",24.269243,113.139288,24.257950,113.128272,1
"4418812009B00059","dd74d69e-8dad-4aa2-8c91-ea5904f7aa4eC","广东省","清远市","英德市","英德市浛洸镇浛洸大道东侧",24.269243,113.139288,24.257950,113.128272,1
"4418812009B00129","1e56b44c-3562-496a-9272-18861c146293C","广东省","清远市","英德市","英德市浛洸镇浛洸大道东侧",24.269243,113.139288,24.257950,113.128272,1
"4418812009B00147","31c98fdf-49ba-4b01-a8a5-ce5138b3a7a8C","广东省","清远市","英德市","英德市浛洸镇浛洸大道东侧",24.269243,113.139288,24.257950,113.128272,1
"4418022009B00697","1b53bee0-deab-487d-a7ad-fba61e472b46T","广东省","清远市","清城区","清远市清城区朱围一村左一巷5号702",23.719234,113.039383,23.719650,113.028752,1
"4418002013B00708","63bc43d5-64ff-4ef6-a339-1f6053783224","广东省","清远市","清城区","清远市小市农商街三排二座702号",23.701453,113.045897,23.696100,113.028200,1
"4418002013B01408","5b7e5014-a436-431f-a2ee-5f7acdf00150","广东省","清远市","清城区","清远市新城B26号区",23.688230,113.062468,23.684480,113.050680,1
"4418822013B01258","0d47b4dc-8095-4d01-98de-b97d052a46fe","广东省","清远市","连州市","连州市城北俞屋寨地段",24.808859,112.379992,24.801750,112.366688,1
"4418002011B01948-1","8fa7eb56-853a-40fb-a5a9-61d31e69b917","广东省","清远市","清城区","清远经济开发区百嘉工业园8号小区（3号）",23.646574,113.073449,23.684480,113.050680,1
"4418822013B01000","d398d249-1cba-4f6c-8650-a82acd61360a","广东省","清远市","连州市","连州市城东上菜园村水头门98号地段",24.786467,112.383573,24.779702,112.384616,1
"4418812013B00915","be07b53c-fef7-4d25-8d46-081175d933a4","广东省","清远市","英德市","英德市英红镇原英德（红星）监狱四监区以东",24.305800,113.411110,24.302100,113.399064,1
"4418002018B00394","5e2aaeed-222f-491b-9f61-9fdcc1335f25","广东省","清远市","清城区","清远市新城E4号区",23.688230,113.062468,24.716324,112.283600,1
"4418812010B01114-1","5cfb7698-6c36-40e3-aaa5-5d7cbc811eb9","广东省","清远市","英德市","英德市和平北路东、八中南",24.204175,113.419999,24.188318,113.409448,1
"4418002016B00019","5c3db3bc-72a6-4366-8fbc-45168681fb06","广东省","清远市","清城区","清远市清城区源潭镇峡山小区8#地",23.715242,113.208272,23.636264,113.152784,1
"4418822011B00319","abb17bb6-80ca-4cd8-bc08-c2b4d2441b70","广东省","清远市","连州市","连州市文江南路二巷7号",24.798120,112.386902,24.795438,112.374888,1
"4418212014B00078","a9daacd8-477f-41a6-acc8-36ec7892d35a","广东省","清远市","佛冈县","佛冈县迳头镇新区",24.003776,113.698067,23.881946,113.526448,1
"4418212014B00128","3ba0124a-229d-415a-ae81-51c27ebf3eeb","广东省","清远市","佛冈县","佛冈县迳头镇新区",24.003776,113.698067,23.881946,113.526448,1
"4418212014B00143","aee11d5a-46d7-49eb-86b3-bb2f49a0e5c4","广东省","清远市","佛冈县","佛冈县迳头镇新区",24.003776,113.698067,23.881946,113.526448,1
"4418212014B00152","e840d545-d01b-4e71-aeb2-db28b8be5683","广东省","清远市","佛冈县","佛冈县迳头镇新区",24.003776,113.698067,23.881946,113.526448,1
"4418212014B00161","5ec62b47-0796-4d5f-b20a-040420ab8741","广东省","清远市","佛冈县","佛冈县迳头镇新区",24.003776,113.698067,23.881946,113.526448,1
"4418812014B00189","6380b921-9820-4072-8a05-25effb695202","广东省","清远市","英德市","英德市横石塘镇前锋村",24.291695,113.365263,24.352650,113.359576,1
"4418002014B00039-1","0f254e47-540d-49ed-85ec-7d9bd888ca49","广东省","清远市","清城区","清远高新技术产业开发区莲湖高新技术产业园",23.632306,113.079989,23.626906,113.134584,1
"4418822009B00072","298e04fb-fc7e-420a-aa93-856ae50cfc82C","广东省","清远市","连州市","双车路",24.800130,112.387108,24.797174,112.374080,1
"4418272009B00047","b5d1c18a-6228-41d0-8214-3a1a59213452","广东省","清远市","清新区","清新县县城三十三号",23.899181,112.886548,23.734530,112.996616,1
"4418022018B00079","f1a66c16-d2e4-47b6-973c-f2146600d68f","广东省","清远市","清城区","清远市清城区石角镇广州（清远）产业转移工业园园区内",23.497493,112.936903,23.477984,112.985096,1
"4418022008B00968","3e843450-d74d-4e4c-9f52-96dc3cf34f09","广东省","清远市","清城区","清远市清城区曙光二路北三座地下室西边、二层西边、三层西边",23.718864,113.036027,23.712610,113.025872,1
"4418022008B00906","61f06d90-c2ae-4cb9-a223-1df8bbeae69dC","广东省","清远市","清城区","清远市清城区曙光二路北三座七层西边",23.718864,113.036045,23.641762,113.164288,1
"4418212013B01325","26238c52-94f8-4e75-a17b-45041827fa05","广东省","清远市","佛冈县","佛冈县龙山镇圩场潖江路东侧",23.803615,113.385329,23.745444,113.391736,1
"4418212013B01316","563609f4-19c5-4c44-a969-e8aa3960f7dc","广东省","清远市","佛冈县","佛冈县龙山镇圩场龙腾街北侧",23.875683,113.545411,23.740450,113.405552,1
"4418212011B00185","47e1cc33-5b35-4f00-95a0-bcd1123814d1","广东省","清远市","佛冈县","佛冈县石角镇沿江中路北侧",23.881120,113.536833,23.877442,113.526456,1
"4418022008B00236","a4972c53-8982-4146-b9c8-6083defbefc0C","广东省","清远市","清城区","清远市清城区东城街办练发东岗二路21号5座",23.722340,113.055502,23.724624,113.054008,1
"4418022008B00348","553f614f-3ed1-4ecc-9705-94d665e5bcf4CC","广东省","清远市","清城区","清远市清城区庙园二街四巷十四号303",23.704022,113.069477,23.700410,113.057200,1
"4418022008B00284","1bab7535-5950-4f19-9970-2ce0ccebd637CC","广东省","清远市","清城区","清远市清城区白马塱三区三巷1号202",23.720413,113.046404,23.700410,113.057200,1
"4418022008B00350","8fb1f65c-5d5b-44e4-ba4b-22aa14bd470eCC","广东省","清远市","清城区","清远市清城区龙船塘15座601",23.714027,113.044940,23.700410,113.057200,1
"4418822014B00481","f0c12c46-a758-4bd5-aa52-58f4bb96d4d1","广东省","清远市","连州市","连州市连州镇城隍街106号",24.791382,112.385568,24.781002,112.375624,1
"4418212008B00414","1e06ddef-c6ef-4f00-a35c-9c3e188736f0","广东省","清远市","佛冈县","佛冈县汤塘镇新区",23.755925,113.553104,23.881946,113.526448,1
"4418212008B00422","79bc28b0-c4eb-4d37-8727-14ae9bbe1bd6","广东省","清远市","佛冈县","佛冈县汤塘镇新区",23.755925,113.553104,23.881946,113.526448,1
"4418022010B00138","c94eee89-9099-4e66-9788-9aee0537a46eC","广东省","清远市","清城区","清远市清城区东城街办基龙东路21号2座604",23.734866,113.057736,23.724624,113.054008,1
"4418022013B02009","ef0b4fa1-2af5-427e-a57d-ccb22457d6a6","广东省","清远市","清城区","清远市清城区石角镇田心村委会辖区内",23.486368,112.999996,23.478934,112.987688,1
"4418002017B02960-1","85b615f7-cadc-4ff2-a160-a2c8c05f76ac","广东省","清远市","清城区","清远雄兴工业园",23.688230,113.062468,23.559818,113.099808,1
"4418822017B01026","eade0028-6aa5-4c2a-a8c9-f2f43e83f757","广东省","清远市","连州市","连州镇鹅公潭53号一栋204室",24.787292,112.375774,23.684480,113.050680,1
"4418822015B01115-2","4256e4bb-7e51-4d08-9fb7-b985b400f21f","广东省","清远市","连州市","连州市连州镇城北半边街村",24.791382,112.385568,24.788480,112.373400,1
"4418002015B02429","34516473-744a-4db4-adb7-696f12eb41a9","广东省","清远市","清城区","广东清远高新技术产业开发区光电产业园",23.632306,113.079989,23.688770,113.038256,1
"4418812016B00960-1","f5bdcc2d-f70b-4634-80ff-82b19671a382","广东省","清远市","英德市","英德市白沙镇太平村更古坑（地块六）",24.096143,113.769289,24.092700,113.758688,1
"4418272018B00204","b1e5bb94-8bf3-4b08-9e03-878f92a4e608","广东省","清远市","清新区","清远市清新区禾云镇建设南路",23.931358,112.929835,23.924890,112.917224,1
"4418272018B00198","d4c4fab4-7b0e-4530-9704-a48087566ac4","广东省","清远市","清新区","清远市清新区禾云镇建设南路",23.931358,112.929835,23.924890,112.917224,1
"4418812013B01333","3954c9fa-cf70-433d-af14-29b321d9b2da","广东省","清远市","英德市","英德市石牯塘镇吉祥路西边",24.253832,113.780684,24.353990,113.144768,1
"4418272016B01105","244e0832-fa31-47d7-97bb-7f667f201810","广东省","清远市","清新区","清远市清新区太和镇清和大道141号A幢A梯702#",23.738384,113.018838,23.743110,112.988392,1
"4418272018B00076","d7be5c83-ee7c-476b-a57f-c2012769b0a0","广东省","清远市","清新区","清远市清新区浸潭镇黄田村委会",24.096909,112.791758,24.093358,112.780080,1
"4418822010B02485","e992fd5b-b7e0-4420-a83a-773b9aa87a94","广东省","清远市","连州市","连州市西隅街110号",24.786467,112.383573,24.783250,112.372056,1
"4418002014B01546","9d4f9e2c-4223-4cf3-a0c0-61b168a52ec6","广东省","清远市","清城区","清远市清城区龙塘镇",23.579406,113.181352,23.606324,113.073608,1
"4418822010B01858","78583bfd-7f35-444a-858f-13442e539303","广东省","清远市","连州市","连州市北湖路77号第四幢302房",24.790694,112.383958,24.777056,112.380088,1
"4418002011B02203","bb2eb68a-40ef-4a48-b014-dfea84dc92f3","广东省","清远市","清城区","清远市新城华中路五十六号401号",23.701004,113.043816,23.684480,113.050680,1
"4418812012B00915","106c91dd-a290-4290-9785-af5444c9f378","广东省","清远市","英德市","英德市英红镇英红大道以西、三隅大道以北",24.318523,113.412009,24.312482,113.404544,1
"4418272015B00565","9ca21f13-7926-4f9a-8545-4f34ad8e7670","广东省","清远市","清新区","清新区太平镇龙湾工业园A16之一",23.684433,112.878855,23.708918,112.891080,1
"4418002010B00017","e9c7643c-ac48-438f-a187-d17545141b93","广东省","清远市","清城区","清远市新城B19号区",23.688230,113.062468,23.680732,113.052992,1
"4418822015B01187","3a36a0fc-13d3-41df-8e53-eb52ebb36bae","广东省","清远市","连州市","连州市连州镇巾峰路28号C栋701房",24.787455,112.391035,24.788480,112.373400,1
"4418812015B01251","ff82b5e3-10fc-47d9-955d-94bac3207573","广东省","清远市","英德市","英德市横石水墟镇马鞍塘边（原砖瓦厂）",24.325214,112.804711,24.365814,113.800968,1
"4418822013B00736","2459eae9-ddc1-4906-99c1-fb5397784bb6","广东省","清远市","连州市","连州市大路边镇规划小区",25.043543,112.625957,25.040600,112.629224,1
"4418002010B00506","9f4b41b1-fe4a-4bb6-8aff-2cd852625280","广东省","清远市","清城区","清远市新城B11号区炒沙新村130号",23.687238,113.068086,23.684480,113.050680,1
"4418002011B01823","dc7a034f-5992-4763-a172-f651df176ec5","广东省","清远市","清城区","清远市新城B38号区洲心工业园内",23.666543,113.085326,23.919052,112.908272,1
"4418212011A00039","71e26abe-c9b9-4249-b13e-6e7bdac9a156","广东省","清远市","佛冈县","佛冈县石角镇德星街东侧",23.869758,113.541416,23.865322,113.529880,1
"4418022010B00152","ceae4380-56bb-42c7-bd1d-cf375ff7ed91","广东省","清远市","清城区","清远市清城区利民新村十四座502",23.718483,113.046454,23.706550,113.029352,1
"4418212012B00456","98ea0908-40b7-4cf0-91de-f26779cb7b8d","广东省","清远市","佛冈县","佛冈县石角镇园山街北侧",23.867102,113.539288,23.863580,113.527864,1
"4418812012B00886","9b8a8388-280a-404f-a190-5b672336612a","广东省","清远市","英德市","英德市英城富强路南",24.192979,113.417355,24.185730,113.397720,1
"4418822014B01190","cbced7ec-1c0a-46eb-aac0-511252171751","广东省","清远市","连州市","连州市保安镇新塘产业转移工业园地段",24.907286,112.407046,24.816774,112.553144,1
"4418022015B00429","dffdd5ff-7407-4e3b-9b73-8f04ffad2a16","广东省","清远市","清城区","清远市清城区城西大道东侧A4-1#小区",23.704022,113.069477,23.700410,113.057200,1
"4418822015B01409-1","26fcea9d-78cf-4a0f-9dae-103dcb6583b8","广东省","清远市","连州市","连州镇城东上菜园村",24.791382,112.385568,23.684480,113.050680,1
"4418812009B00376","eea07cf0-0855-4232-8f4c-37c262b6e493","广东省","清远市","英德市","英德市洋塘路8号",24.196645,113.420448,24.188318,113.409448,1
"4418212009B00409","11f9079c-295a-4f10-a631-78afdbcacd98","广东省","清远市","佛冈县","佛冈县汤塘镇新区",23.755925,113.553104,23.881946,113.526448,1
"4418002010B01265","1b78f28e-6263-409e-96fc-d32324fda188","广东省","清远市","清城区","清远市横荷百加管理区瓦窑街",23.647273,113.070028,23.641724,113.059312,1
"4418212009B00284","cd0ca4b0-66b4-4423-94e0-88ba0cfa8fc8","广东省","清远市","佛冈县","佛冈高岗镇京珠高速公路北侧",23.958731,113.621758,24.222422,113.675120,1
"4418022016B00297","3673d70f-7541-4198-93ad-3898a14b9dc6","广东省","清远市","清城区","清远市清城区石角镇沙步村委会辖区内",23.485723,112.943556,23.482382,112.932128,1
"4418822013B00958","7ff11199-0e68-4f5c-9dbf-e3e5eabb627c","广东省","清远市","连州市","连州镇宝石坪一坊29号",24.784991,112.396311,24.790510,112.375480,1
"4418822013B00968","7655fc8c-f49b-442f-8063-dd1e2ff63868","广东省","清远市","连州市","连州市北荷街二巷1号",24.789437,112.383369,24.783250,112.372056,1
"4418002007B00205","dda6abce-f138-4ae1-9a1f-63a51f3a44d4","广东省","清远市","清城区","南步路右一巷3号",23.721693,113.038166,23.684480,113.050680,1
"4418822018B02017-1","167c7734-0dfb-4621-a8bc-1201eb484d9f","广东省","清远市","连州市","连州市连州镇良江小区",24.791382,112.385568,24.808824,112.383064,1
"4418212012B00016","5b2f6f20-dc3d-4e5c-9df0-8cd125b471bf","广东省","清远市","佛冈县","佛冈县石角镇青云东路北侧",23.874180,113.544928,23.870456,113.532544,1
"4418272012B00078","212d8b1c-5f45-4b31-a1e1-84a055e9a300","广东省","清远市","清新区","清新县禾云镇清连高速禾云出口北侧",24.024031,112.895215,24.421580,112.664144,1
"4418812013B01771","67a035e4-696a-430a-8769-09de036c3b28","广东省","清远市","英德市","英德市黎溪镇",23.936260,113.279553,23.932610,113.267704,1
"4418822013B01295","02ad6afb-d824-444b-b0b5-077058afc54d","广东省","清远市","连州市","连州市体育北街一坊20号",24.794801,112.387258,24.783250,112.372056,1
"4418812013B01690","a9922f86-6cc3-48bd-b376-b4f1d48d95c2","广东省","清远市","英德市","英德市英城镇",24.177793,113.423683,24.186420,113.397264,1
"4418232013B00022","74ae0b0f-637a-4bb2-b8cf-28a2cb4e2ecc","广东省","清远市","阳山县","阳山县阳城镇雷公坑村（雷公坑旧围）",24.483172,112.637140,24.503914,112.599776,1
"4418812008B00545","dde49897-68d2-43ce-b377-e008ce53d6b8","广东省","清远市","英德市","英德市英城镇",24.177793,113.423683,24.186420,113.397264,1
"4418812010B00900-1","f7a4efaa-2458-46b4-8424-96af050f9c15","广东省","清远市","英德市","英城光明路北茶园路东交汇处",24.201447,113.407144,24.185730,113.397720,1
"4418822012B00094","678708bb-0d02-4f70-a1b7-ba661c9f7daf","广东省","清远市","连州市","清远民族工业园兴园路地段",24.747309,112.388891,24.744350,112.376800,1
"4418822009B00157","aa1c3c56-0128-4d57-a9e5-6ea64b6423deC","广东省","清远市","清新区","中山北路折桂巷10号",23.748742,113.016926,24.781982,112.372728,1
"4418272014B00996","45f4dcd0-d113-4ab8-81ad-c2d82bdb4f7a","广东省","清远市","清新区","清远市清新区禾云镇佛山禅城（清新）产业转移工业园",23.922689,112.929398,23.919272,112.917888,1
"4418022009B01103","c03f40c3-cb48-44ea-8791-7ae73f9ab4efT","广东省","清远市","清城区","清远市清城区石角镇石角居委会乐园新村一栋5号",23.564058,112.972901,23.561010,112.961152,1
"4418812009B00323","03277660-3575-4335-9d13-5b7772dc4915","广东省","清远市","英德市","英德市大站镇育才路南北第一排",24.141316,113.490854,24.199112,113.408056,1
"4418212015B00585","58addc62-a0b7-420f-892b-75770c2451c6","广东省","清远市","佛冈县","佛冈县石角镇德星街东侧",23.869758,113.541416,23.865322,113.529880,1
"4418812017B01398","3b708b36-d0be-4b7c-a372-6f67459279f7","广东省","清远市","英德市","英德市东华镇清华园S252线以东、月亮纸厂以北（地块二）",24.251124,113.681622,24.225554,113.664144,1
"4418812017B01381","073d44ce-e7bd-488e-b5c4-c87c76d1e019","广东省","清远市","英德市","英德市东华镇清华园S252线以东、月亮纸厂以北（地块一）",24.251124,113.681622,24.225554,113.664144,1
"4418022013B01862","220e3c88-c08f-423a-9f62-16706313aaa2","广东省","清远市","清城区","清城区石角镇灵康路53号",23.543999,112.983686,23.555500,112.962000,1
"4418812010B00018","b6ae060b-ffbd-421c-a2d7-df87d6c01fef","广东省","清远市","英德市","英德市英城利民路与迎春苍交汇处",24.191759,113.418877,24.187880,113.398872,1
"4418212009B00552","3edf4357-7015-4234-95d6-9ac37b209a62","广东省","清远市","佛冈县","佛冈县汤塘镇新区",23.755925,113.553104,23.881946,113.526448,1
"4418022017B00564","746f5400-50ae-41d3-ad7c-18cee3f58dff","广东省","清远市","清城区","清远市清城区源潭镇连安村委会 ",23.704737,113.339957,23.636060,113.152432,1
"4418822010B03070","9cc74775-a324-4687-8596-90b293797349","广东省","清远市","连州市","连州市中山南路城隍街99号之一",24.781354,112.387038,24.777960,112.375408,1
"4418002017B02738","43b1787a-ddb7-4a92-88f5-cf763634e420","广东省","清远市","清城区","清远雄兴工业园内",23.688230,113.062468,23.559818,113.099808,1
"4418822010B01812","162848e8-00bf-4b10-a723-e5533c9d2baa","广东省","清远市","连州市","连州市西隅街73号",24.786467,112.383573,24.783250,112.372056,1
"4418822009B00938","9533a457-e765-448d-a719-1619cf9362fc","广东省","清远市","连州市","连州市榕树坪二坊52号",24.873717,112.313581,24.870282,112.301792,1
"4418212010B00126-1","446644a4-7d54-428f-9a84-5f71b3f1c5d9C","广东省","清远市","佛冈县","佛冈县龙山镇106国道北侧",23.964761,113.641059,23.740450,113.405552,1
"4418812018B00091","ec7297de-4c18-4df8-84c3-bd344c507df6","广东省","清远市","英德市","英德市东华镇清华园精细化工基地（地块二）",24.233929,113.669533,24.193330,113.658904,1
"4418812013B01379","1163bcfa-3c40-4af0-b537-0587a94e1543","广东省","清远市","英德市","英德市东华镇坣下村委会石山下地块9",24.187541,113.676448,24.192570,113.666528,1
"4418252016B00124","c53b8fbd-1095-449f-be87-6b0a510fd5fa","广东省","清远市","连山壮族瑶族自治县","连山壮族瑶族自治县福堂镇永丰圩S263线公路边",24.422077,112.087464,24.573068,112.087992,1
"4418002008B00396","0ee84c56-d4e6-40d0-ab9b-b1e80726c1b4","广东省","清远市","清城区","横荷新镇7号区",23.663107,113.062653,23.655098,113.038520,1
"4418822011B01438","46fc62fa-cbc5-4897-83bb-d15b657414b6","广东省","清远市","连州市","连州市连州镇湟本佰公岭地段",24.791382,112.385568,24.749062,112.304432,1
"4418812013B01255","ff2c2ff6-5bc6-46e1-9148-f986a7caaba7","广东省","清远市","英德市","英德市英红镇三隅大道以南、兴业路以西",24.318523,113.412009,24.304328,113.403760,1
"4418212016B00659-1","5bff6a19-89f0-4297-9f99-51e15d045c97","广东省","清远市","佛冈县","汤塘镇黄花湖白云温泉山庄西侧",23.788294,113.516164,23.766460,113.499424,1
"4418002010B00498","0bafb5e3-9c1a-47dc-b9f4-ac1a7c7b7d9d","广东省","清远市","清城区","清远市清城区源潭环城东路15号",23.612109,113.087115,23.666290,113.201888,1
"4418022013B01832-1","4f301736-d404-4c38-ada4-8c6a13babef6","广东省","清远市","清城区","清远市清城区东城街道莲塘村民委员会辖区内",23.720494,113.063221,23.727140,113.046680,1
"4418022013B02237","fd781369-ed86-4493-b06e-77b4b09cc039","广东省","清远市","清城区","清远市清城区下廓二街130号203",23.708065,113.029523,23.700410,113.057200,1
"4418022013B02032","cc86591b-0df2-4b2a-8c0d-7533f83f8f85","广东省","清远市","清城区","清远市清城区职业中学西面",23.704022,113.069477,23.700410,113.057200,1
"4418822016B00985","0fd568a1-b7ed-4937-8f92-58aa21bb6aab","广东省","清远市","连州市","连州镇体育北街一坊18号",24.794801,112.387258,23.684480,113.050680,1
"4418812016B00067","524405a8-12e8-4926-9815-9e858a82cfae","广东省","清远市","英德市","英德市白沙镇太平村更古坑",24.096143,113.769289,24.092700,113.758688,1
"4418812013B02200","a82ddcf6-1544-45ec-920d-f6a8c91ec2fc","广东省","清远市","英德市","英德市望埠镇共和街",24.260647,113.491051,24.271652,113.474784,1
"4418212007B00483","89adeff8-b74d-4230-892f-67a8f84c4cd0T","广东省","清远市","佛冈县","佛冈县汤塘镇新区",23.755925,113.553104,23.881946,113.526448,1
"4418212007B00033","5264de66-2a57-4360-9713-5eade9902ee0T","广东省","清远市","佛冈县","佛冈县汤塘镇新区",23.755925,113.553104,23.881946,113.526448,1
"4418212007B00022","ac000198-9cea-4287-8339-ef0420132836T","广东省","清远市","佛冈县","佛冈县汤塘镇新区",23.755925,113.553104,23.881946,113.526448,1
"4418212008B00514","50c3905b-65de-4a6c-8f9e-59eb3d8894b8","广东省","清远市","佛冈县","佛冈县汤塘镇新区",23.755925,113.553104,23.881946,113.526448,1
"4418812013B00902","0a7ac582-f16a-4e17-85b7-8d0cd57a7a16","广东省","清远市","英德市","英德市英红镇云岭原英德（红星）监狱第一大队东",24.337144,113.449889,24.347020,113.442264,1
"4418212012B00117","4951fa1c-68a9-4315-a8d8-af86668f8d01","广东省","清远市","佛冈县","佛冈县高岗镇省道252线北侧",24.036145,113.598859,24.024900,113.579008,1
"4418812018B00302","05c40a20-45f3-4995-bfc2-18e8e13ba759","广东省","清远市","英德市","英德市东华镇清华园横五路以北、竖二路以西",24.233929,113.669533,24.193330,113.658904,1
"4418812011B00705","e182a27d-5c78-4f5e-8091-181d7c2298d8","广东省","清远市","英德市","英德市石牯塘镇府前路",24.405875,113.185652,24.353990,113.144768,1
"4418002018B00039","ea2687de-6f26-46a0-bc68-bce37f2490ef","广东省","清远市","清城区","清城区龙塘镇辖区内",23.579406,113.181352,23.606324,113.073608,1
"4418812010B00111","4c3cdd9c-193f-440c-817c-d6e2a2ed0606","广东省","清远市","英德市","英德市英城镇和平中路49号",24.190268,113.419911,24.187880,113.398872,1
"4418002015B01631","f629797c-b94d-4ef7-b6e1-739492654b9a","广东省","清远市","清城区","清远市新城西E49号区内",23.688230,113.062468,24.034554,113.304784,1
"4418022012B01572-1","0c0b3cdd-c14a-4e00-9eef-f280b0d1016e","广东省","清远市","清城区","清远市清城区东城街办莲塘村委会辖区内",23.665831,113.215740,23.717862,113.055216,1
"4418812010B00430","a6b50a6b-f6e0-439a-be91-a38d34b9060c","广东省","清远市","英德市","石灰铺镇民安路",24.263637,113.240771,23.687356,113.017480,1
"4418212012B00900","4d94aa0a-b3b1-446f-9e02-4973ed4ec325","广东省","清远市","佛冈县","佛冈县石角镇三莲村",23.874753,113.521139,23.869718,113.572528,1
"4418002010B00056","ce11e361-b841-4d2c-ac71-ad837a7cc6ec","广东省","清远市","清城区","清远市清城区源潭镇秀溪村银英公路边",23.667161,113.200693,23.662270,113.195688,1
"4418822009B01158-1","d0825ed7-3d7e-46ee-bbcd-9964a2b7bc9e","广东省","清远市","连州市","连州市三古滩移民新村北苑村51号",24.823552,112.381054,24.744360,112.380984,1
"4418002009B00308","79b37079-36d3-40ba-88a8-dd41fa852385","广东省","清远市","清城区","清远市清城区源潭镇中源街铁西二巷4号",23.704737,113.339957,23.661866,113.187664,1
"4418822009B01204","32224825-a221-4f22-bb85-d1d3e23a6e28","广东省","清远市","连州市","连州市城南四村S114线公路侧",24.786467,112.383573,24.800000,112.376096,1
"4418822009B01185","8b281d34-4926-41a0-ba1d-c12a320896d7","广东省","清远市","连州市","连州市中山北路折桂巷48号之二",24.784905,112.384764,24.781982,112.372728,1
"4418822018B01806","fbb9bb78-90b2-4277-8031-614be418814d","广东省","清远市","连州市","连州镇仰掌塘北山路住宅小区",24.793384,112.384316,23.684480,113.050680,1
"4418822010B02845","9d396173-c860-48ef-b66c-81b11238cdad","广东省","清远市","连州市","连州市鹅公潭53号第二栋301房",24.787292,112.375774,24.773364,112.390784,1
"4418002008B00266","77677583-e063-4dcb-85be-47a4172857fc","广东省","清远市","清城区","清城区龙塘镇新宁街70号",23.601323,113.082448,23.606324,113.073608,1
"4418822009B00337","65e91930-dc96-4346-b401-68966707fe98C","广东省","清远市","连州市","慧光路东升巷29号之二",24.782846,112.391954,24.781622,112.379288,1
"4418022008B01235","26a4a591-1e48-414b-9155-2213b2cf1949CC","广东省","清远市","清城区","清远市清城区下廓二街130号104",23.708065,113.029523,23.700410,113.057200,1
"4418022008B01220","196f016e-dc41-4e87-b98d-21db7717333a","广东省","清远市","清城区","清远市清城区下廓二街130号",23.708065,113.029523,23.700410,113.057200,1
"4418822011B00778-1","805aeabb-ac51-4f33-8f04-e3d7c11e12cc","广东省","清远市","连州市","连州市东陂镇东陂村五文岗洞（东陂大市场）地段F608号地",25.000896,112.308754,24.996150,112.295648,1
"4418812013B01110","b6c8758b-afbb-4c91-b7fb-f26e1c4a826c","广东省","清远市","英德市","英德市东华镇英华茶场S252线以西地块二",24.228905,113.678194,24.225506,113.669416,1
"4418022008B01040","d949985f-886b-405b-a75e-f4a90e97b17cCC","广东省","清远市","清城区","清远市清城区石角镇石角大街113号",23.562416,112.973609,23.559534,112.961992,1
"4418002010B01385","255d8502-b2d9-4a07-abc9-c159aba2773d","广东省","清远市","清城区","清远市清城区龙塘镇农工街7号",23.579406,113.181352,23.606324,113.073608,1
"4418232009B00019","b755c105-4f4a-4745-b524-047c91d9afe1","广东省","清远市","阳山县","阳山县七拱镇塘坪村",24.306369,112.598246,24.300170,112.585448,1
"4418822010B02912","6b7dfe42-21cf-401b-a20d-ec84227d8bee","广东省","清远市","连州市","连州市吕仙路9号",24.790042,112.387630,24.787090,112.375600,1
"4418022014B00038","c1dacd1e-1def-464a-93d5-65bf65da7b2d","广东省","清远市","清城区","清远市清城区下廓二街西较场",23.708170,113.030650,23.704326,113.017440,1
"4418812014B01590","3a902b04-814c-4d6c-80c8-0a49c2b1dcec","广东省","清远市","英德市","英德市英城和平北路、市路灯管理所",24.204175,113.419999,24.211290,113.408432,1
"4418022014B00208-1","1ef8f9ee-0bb0-4143-a618-01fbd0522967","广东省","清远市","清城区","清远市清城区东较场左一巷15座101",23.715232,113.043750,23.708966,113.027584,1
"4418822014B00034","9120b953-47c5-4978-8dd9-f4e082c5d47e","广东省","清远市","连州市","连州市城北滨江片良江三古滩地段",24.813861,112.388824,24.804410,112.375824,1
"4418822014B00046","87d6a6f5-5df1-42d8-ba25-00fdc861f16f","广东省","清远市","连州市","连州市城北滨江片良江三古滩地段",24.813861,112.388824,24.804410,112.375824,1
"4418822018B02045","4374840d-ff36-4bf3-b1f7-23f606d58073","广东省","清远市","连州市","连州镇榕树坪五坊7号",24.786379,112.396371,24.870282,112.301792,1
"4418212013B00482","5b26e801-84d2-449c-9574-a90476672de5","广东省","清远市","佛冈县","佛冈县石角镇森波拉大道东侧",23.874753,113.521139,23.854700,113.534400,1
"4418212013B00507","7039df5f-9c7e-4312-b79c-6bc5b593615f","广东省","清远市","佛冈县","佛冈县石角镇森波拉大道西侧",23.874753,113.521139,23.854700,113.534400,1
"4418822016B00157","f1ab2be2-6894-4155-a4d8-b3f4b7061d71","广东省","清远市","连州市","连州镇中山北路110号地段112号",24.784230,112.384802,23.638326,112.949144,1
"4418822016B00234-1","72ca4a01-5693-417b-af96-bf2a01806ecc","广东省","清远市","连州市","连州市九陂镇爱民村委会",24.652139,112.383956,24.783250,112.372056,1
"4418822016B00259-2","66ee8888-915f-4cdc-901f-e783950a3c89","广东省","清远市","连州市","连州市九陂镇爱民村委会",24.652139,112.383956,24.783250,112.372056,1
"4418822016B00265","d64ad9ce-071f-4239-86da-c613e3a2fa68","广东省","清远市","连州市","连州镇中山北路177号第一栋201房",24.785677,112.384603,24.782600,112.372584,1
"4418812008B00856","32158ff3-846b-460d-a7c0-ef064822756a","广东省","清远市","英德市","英德市英城茶园路东、君玉街西第一幢背后",24.198615,113.404086,24.185730,113.397720,1
"4418022011B01083","6c903f85-6c4c-4a8a-ab9e-f5930c9c044f","广东省","清远市","清城区","清城区曙光一路11号之二",23.711603,113.040799,23.700410,113.057200,1
"4418022011B01077","bd466084-40b9-430b-8ad6-88b6e4852893","广东省","清远市","清城区","清城区曙光一路11号之一",23.711603,113.040799,23.700410,113.057200,1
"4418812013B00104","6622b383-60e3-4d74-ad0f-5a0677cee069","广东省","清远市","英德市","英德市望埠镇上果园南侧",24.260647,113.491051,24.271652,113.474784,1
"4418002013B01371","f0ab96d2-fcf5-42c6-a9c7-7ecc987f420f","广东省","清远市","清城区","清远市新城B11号区炒沙新村103号",23.686224,113.070184,23.684480,113.050680,1
"4418002016B00075","b495f211-475e-44b6-9d1a-6ebf1f2f9c50","广东省","清远市","清城区","清城区源潭镇新田、金星村委会峡山工业园",23.715242,113.208272,23.671812,113.196344,1
"4418812013B00478-1","96855a19-9081-4677-b279-48d846e7e7e7","广东省","清远市","英德市","英德市东华镇东升村S347线北侧",24.267412,113.717000,24.230720,113.657864,1
"4418022011B00886","b5c459e0-6b0a-49b7-94d6-db33fadfce89","广东省","清远市","清城区","清远市清城区东城街道办长埔村民委员会辖区内",23.730908,113.058259,23.727116,113.046496,1
"4418812016B00902","b54e066d-37fa-4a18-9f91-05a5bbe494e7","广东省","清远市","英德市","英德市英城街道和平西路20号之一",24.164003,113.366106,24.186950,113.407504,1
"4418812015B00977","6b5cdffb-4e0f-4cd5-b2c1-e90570e426a7","广东省","清远市","英德市","英德市英红镇三隅大道以南、英红大道以西（地块十九）",24.318523,113.412009,24.307008,113.396208,1
"4418822010B03376","25afd92d-ebdc-49b8-9ee3-cea391e0f7f5","广东省","清远市","连州市","连州市丰阳镇丰阳村东头洞地段",25.053059,112.284625,25.048056,112.269912,1
"4418022009B01383","4ef8fd7b-083c-4b93-a041-bbfdc36978fd","广东省","清远市","清城区","清远市清城区庙园二街12号703",23.704022,113.069477,23.700410,113.057200,1
"4418022009B00484","1129fd4a-bf77-4fcf-a181-2659d1decde0T","广东省","清远市","清城区","清远市清城区麦围大街24座901",23.719707,113.038416,23.715910,113.026544,1
"4418022009B00675","1ff2b7ff-25e2-46f0-b9d8-b853514c0b06T","广东省","清远市","清城区","清远市清城区朱围大街十座一号502",23.723970,113.039524,23.700410,113.057200,1
"4418022009B00125","227627d4-a3af-477c-9cd1-2282f7b91016T","广东省","清远市","清城区","清远市清城区庙园二街四巷10号3楼",23.704022,113.069477,23.711590,113.019496,1
"4418022009B00151","b5da1d73-757c-4645-aa33-1f7eafa56339T","广东省","清远市","清城区","清远市清城区环城二路一巷3号401",23.711843,113.030026,23.714920,113.020976,1
"4418022009B00075","0e452d47-8404-4e2b-8e38-ce3dc115dc5aT","广东省","清远市","清城区","清远市清城区清沙路南第二栋A梯201",23.729158,113.036340,23.716374,113.023224,1
"4418272016B01052","c88c2225-b4c7-4214-8064-72efba600ba3","广东省","清远市","清新区","清远市清新区太和镇滨江路66号803#",23.742293,113.020396,23.735792,112.963048,1
"4418822009B01452","c30f0453-7cfb-4f33-bb1d-816358aac69a","广东省","清远市","连州市","连州市人民路13号第六层604房",24.789918,112.387850,24.790484,112.356256,1
"4418262010B00015-1","c15fe589-545a-414a-b4dc-bab177b16fdb","广东省","清远市","连南瑶族自治县","连南县三江镇沿江东路",24.722472,112.299445,24.569288,112.089064,1
"4418212014B00057","1b31e53c-94d5-44ca-bb2f-78ba5288b7e6","广东省","清远市","佛冈县","佛冈县迳头镇新区",24.003776,113.698067,23.881946,113.526448,1
"4418822010B02187","8846a253-0ca1-45e8-86b8-d50ace1dcb63","广东省","清远市","连州市","连州市慧光路东联巷26号地段",24.782846,112.391954,24.781622,112.379288,1
"4418822011B00567","09c59623-5dde-4ba2-be9f-33940278da12","广东省","清远市","连州市","连州市九陂镇白石村兴园路地段",24.747048,112.384721,24.669328,112.365744,1
"4418022011B00328","a26341b8-dbd4-4877-8999-c467fb2b018d","广东省","清远市","清城区","清远市清城区桥北路东便园",23.720962,113.043236,23.700410,113.057200,1
"4418212012B00230","aad3ca07-ad0a-43fd-8407-ab4533299272","广东省","清远市","佛冈县","佛冈县石角镇福田路西侧",23.867365,113.537013,23.864314,113.525280,1
"4418002015B02250","ef52baca-aa08-44f2-90d8-e29de833eaf1","广东省","清远市","清城区","广东清远高新技术产业开发区雄兴工业园",23.632306,113.079989,23.559818,113.099808,1
"4418822017B01206","8a030f1e-0283-4990-8c67-fa37ef1dc70b","广东省","清远市","连州市","连州镇万兴西路99号",24.785078,112.389117,24.782126,112.377456,1
"4418822017B01177","06f62b16-7b6e-48c4-b6c3-3baabc27f90b","广东省","清远市","连州市","连州镇城北北湖洞",24.792060,112.382306,23.684480,113.050680,1
"4418822018B01852","3fb328ac-74cc-4316-bb27-ff2de93f579c","广东省","清远市","连州市","连州镇谢屋路24号",24.796375,112.387745,24.793336,112.375184,1
"4418212013B00583","0b0b3802-5402-407c-bf29-6e155f14b815","广东省","清远市","佛冈县","佛冈县迳头镇新区",24.003776,113.698067,23.881946,113.526448,1
"4418212013B00728","8e9df314-2125-4430-bb68-f78845f8e9d7","广东省","清远市","佛冈县","佛冈县迳头镇新区",24.003776,113.698067,23.881946,113.526448,1
"4418212013B00795","ae5fe4aa-2946-47fe-abeb-f7c24b0dafd1","广东省","清远市","佛冈县","佛冈县迳头镇新区",24.003776,113.698067,23.881946,113.526448,1
"4418812014B01506-1","73abba54-113b-415b-b05d-f5b044a70827","广东省","清远市","英德市","英德市英城何公坑排涝总站以北",24.191939,113.421443,24.182360,113.405328,1
"4418812012B00598","6053d15c-7c06-4462-b151-e2876f560311","广东省","清远市","英德市","英德市九龙镇九龙大道旁",24.146581,112.928546,24.144828,112.915760,1
"4418002014B01449","7b11de22-1347-4804-bb06-046f054486ff","广东省","清远市","清城区","清远市清城区源潭镇公园路51号",23.669783,113.203536,23.636264,113.152784,1
"4418812009B00398","827c0540-f3cc-4aa0-8b30-aed49fa5822e","广东省","清远市","英德市","英德市英城金子山一号路北、北江三号路西",24.147906,113.091369,24.206276,113.399440,1
"4418812010B00543","227c7760-7179-4585-87ec-0d16aa3cc24d","广东省","清远市","英德市","英德市白沙镇太平村更古坑",24.096143,113.769289,24.092700,113.758688,1
"4418002016B00157","3372f270-6381-4aaf-a65b-91df27fd3e71","广东省","清远市","清城区","清远莲湖高新技术产业园",23.688230,113.062468,23.628542,113.016616,1
"4418812013B00641","7619ef8c-a61b-4ee9-9ee2-08dee8dd1e73","广东省","清远市","英德市","英德市英红镇顺德清远（英德）经济合作区启动区SYA06-07号",24.305800,113.411110,24.130908,113.359256,1
"4418212013B00994","4dbf26fd-49ed-4d8d-9eab-c308f871d508","广东省","清远市","佛冈县","佛冈县高岗镇省道252线北侧",24.036145,113.598859,24.024900,113.579008,1
"4418212013B00986","21d3e508-1c83-4ea8-9689-6c62e580c96f","广东省","清远市","佛冈县","佛冈县高岗镇省道252线北侧",24.036145,113.598859,24.024900,113.579008,1
"4418812009B00463","b398dfc3-c3ff-4558-947e-fda24491aa0e","广东省","清远市","英德市","英德市东华镇英华一区S252线以东",24.228905,113.678194,24.256816,113.678904,1
"4418812017B01339","c6da928c-425c-4fa3-ab20-b54e3853cf56","广东省","清远市","英德市","英德市英红镇红茶路以西、青年路以南",24.306647,113.414954,24.304550,113.399888,1
"4418812017B01347","e98f868c-6c68-45e7-80d6-490387df8392","广东省","清远市","英德市","英德市横石水镇英翁公路黄岗坑东侧",24.374801,113.764818,24.300994,113.660984,1
"4418812017B01358","34ea2e1e-c8e0-4fa5-9954-6c5d723fa3f0","广东省","清远市","英德市","英德市大洞镇人民一路（地块一）",23.987968,113.086457,24.024780,113.069224,1
"4418812014B01557","fef700c0-9ada-49f7-968c-9e089dd26411","广东省","清远市","英德市","英德市英红镇展业大道以西、金正大路以北",24.305800,113.411110,24.359350,113.435192,1
"4418002009B00339","d0c4b988-e58d-43eb-9c36-fee820c63481TC","广东省","清远市","清城区","清远市清城区源新二路左五巷街13号",23.668798,113.205731,23.665598,113.193872,1
"4418272015B01276","a1fb5673-f674-4e1d-a43c-8b0821e7d8f1","广东省","清远市","清新区","清远市清新区太和镇建设北路3号F幢",23.741399,113.010780,23.735792,112.963048,1
"4418272015B01313","8412b4f8-6188-485f-8761-4e05c5f9d437","广东省","清远市","清新区","清远市清新区太和镇建设北路3号M幢",23.741151,113.011486,23.735792,112.963048,1
"4418272015B01348","b735ece3-93bd-4b4c-9d70-5396ad389041","广东省","清远市","清新区","清远市清新区太和镇建设北路3号C幢",23.741541,113.011980,23.735792,112.963048,1
"4418272015B01387","23986650-f5c1-4ddd-b7a7-2e1e5d64608c","广东省","清远市","清新区","清远市清新区太和镇建设北路3号A1幢",23.741640,113.011009,23.735792,112.963048,1
"4418812015B01437","8c59980d-d730-4494-b4a7-592daa254646","广东省","清远市","英德市","英德市英城街道茶趣路以北、衡州路以东、云岭路以南",24.190403,113.394228,24.185472,113.397584,1
"4418022010B01038","f4d0e78b-8bd6-4ce9-9eb7-1637b5bdb7a5","广东省","清远市","清城区","清远市清城区石角镇塘头社区居民委员会辖区内",23.560544,112.985345,23.557436,112.972832,1
"4418812010B00379","d64ce4e8-a41f-42a7-953a-26139c2c9476","广东省","清远市","英德市","英德市英红镇英红大道东",24.283947,113.414061,24.307008,113.396208,1
"4418812011B01205","d7565add-6e21-40d0-8172-d3d74bdfe6aa","广东省","清远市","英德市","英德市英城白石窑用地南、梅花北路东",24.195813,113.415186,24.194860,113.403144,1
"4418822015B00768","fc900906-264b-4147-9166-0c23cfe177c8","广东省","清远市","连州市","连州市湟川中路地段（连州市湟川中路73、78号；连州镇解放路九号）",24.781974,112.385818,24.781440,112.370824,1
"4418822014B00718","c8b1c14e-82ea-4585-8323-03a79776e3f3","广东省","清远市","连州市","连州市星子镇西门街16号",25.009788,112.534210,25.002372,112.556024,1
"4418812013B00659","75e69ad7-b340-47d5-b87f-03d696f2ff11","广东省","清远市","英德市","英德市大湾镇景升路",24.366901,112.984163,24.339336,112.946368,1
"4418822012B00767","0ded3eff-5642-4ce9-80d0-b27b5926a19c","广东省","清远市","连州市","连州市北湖路136号东区第15栋6座1梯602房",24.790721,112.382067,24.787340,112.370696,1
"4418002010B00798","63e46ae4-a2c2-4b2d-91dc-58a329868a8e","广东省","清远市","清城区","清远市高新技术开发区银盏工业园区嘉福工业区A4区",23.517993,113.114473,23.518810,113.104696,1
"4418002010B00839","4445c4fa-1df8-4dbf-bfe9-cd22f48fd7c0","广东省","清远市","清城区","清远市高新技术开发区银盏工业园区嘉福工业区A1区",23.517993,113.114473,23.518810,113.104696,1
"4418812010B01138","71449972-cd73-4c31-af3e-623cff327de5","广东省","清远市","英德市","英德市沙口镇沙口大道北侧一排",24.424382,113.528396,24.422440,113.513032,1
"4418212012B00876","5607b67f-7b53-4540-bb7a-a245f3bfb84a","广东省","清远市","佛冈县","佛冈县石角镇通庆西街东侧",23.874753,113.521139,23.871240,113.525456,1
"4418272012B00171","004ab876-8a41-420b-80a4-84508235472f","广东省","清远市","清新区","清新县太平镇龙湾、楼星村民委员会",23.701641,112.909978,23.670260,112.878200,1
"4418812012B01262","f341ab69-12c8-4bb9-a47e-d4af02762d32","广东省","清远市","英德市","英德市横石塘镇茶园路",24.291695,113.365263,24.342896,113.370560,1
"4418812013B00200","c96a8295-95f5-4c4c-83de-f45df8a15286","广东省","清远市","英德市","英德市东华镇坣下村委会石山下地块2",24.187541,113.676448,24.192570,113.666528,1
"4418272010B00456","d4a35be4-1fb2-4f52-9c11-d48720335901CCCCC","广东省","清远市","清新区","清新县城三十三号区",23.899181,112.886548,23.734530,112.996616,1
"4418812011B00156-1","ef8f71a3-eb3c-4de8-a622-1632139da336","广东省","清远市","英德市","英城洋塘路东、民政局福利厂",24.202165,113.421585,24.197990,113.409392,1
"4418022014B02509","55e5a7db-c4d7-4183-b471-5fa2cc3f5c26","广东省","清远市","清城区","清远市清城区麦围二街十四座402",23.720629,113.037458,23.700410,113.057200,1
"4418822011B00266","9e7f11b9-df1e-4a9e-80c1-dafd4c4fe7d1","广东省","清远市","连州市","连州市洋湄路3号第7栋402房",24.773153,112.400592,24.768772,112.388776,1
"4418002008B00779","e4de15f8-1780-409d-8d46-f4848054f942","广东省","清远市","清城区","新城东6号区",23.690365,113.052637,23.684480,113.050680,1
"4418022017B00456","af7bc08c-b0dc-4e85-8445-f9d3b52751e5","广东省","清远市","清城区","清远市清城区石角镇广清产业工业园园区内",23.497493,112.936903,23.506650,112.985072,1
"4418212013B00217","11f33091-e56c-4f84-af39-c38aa6d9069f","广东省","清远市","佛冈县","佛冈县龙山镇车步村",23.771790,113.407834,23.765634,113.391640,1
"4418002014B01995","896f5fb7-9c71-420b-a00c-19f1c9ef1341","广东省","清远市","清城区","清远市清城区源潭镇朝阳路",23.704737,113.339957,23.636264,113.152784,1
"4418002016B00503","f7131d98-9a86-40c2-a968-7dedb855a365","广东省","清远市","清城区","清远市清城区东城街道平塘村委会辖区内",23.739127,113.109220,23.727140,113.046680,1
"4418822010B01549","1c8e59c3-2ea7-4ac4-84e2-118c7776d4ee","广东省","清远市","连州市","连州市北湖路77号第四幢503房",24.790694,112.383958,24.777056,112.380088,1
"4418822010B01567","7b47274b-dda5-491d-8769-a2d098d89ab1","广东省","清远市","连州市","连州市北湖路77号第二栋302房",24.790694,112.383958,25.039960,112.622912,1
"4418822018A02299","0169dd2f-4b77-4ee0-8105-355ade03623d","广东省","清远市","英德市","九陂镇龙头山",24.327996,113.471263,23.684480,113.050680,1
"4418822018A02319","f637d2b1-582a-481a-ade9-5890ff60c099","广东省","清远市","连州市","连州市人民医院东侧",24.773061,112.400839,24.783250,112.372056,1
"4418212009B00245","b54e69b0-7cb7-4479-8f1b-5e376ada68a0","广东省","清远市","佛冈县","佛冈县高岗镇新区S252线侧",24.036145,113.598859,24.024900,113.579008,1
"4418822016B00816-1","928318c7-ae3f-4180-b5cf-af2a5528786f","广东省","清远市","连州市","连州镇东山路97号第二栋201房",24.787662,112.388957,23.705592,112.994648,1
"4418022011B00410-1","2bc9c93f-f7d9-48fc-95a7-9baa8b8b70c0","广东省","清远市","清城区","清远市清城区东城街道办事处澜水村民委员会",23.730929,113.058574,23.727140,113.046680,1
"4418022011B00664","4f5be450-e753-437e-8b4c-bb5eb8cd5cdb","广东省","清远市","清城区","清远市清城区麦围二街十座301",23.720584,113.037055,23.700410,113.057200,1
"4418822017B01128","7d1ff9b3-8f44-4ba4-abdc-0ee41646552c","广东省","清远市","连州市","连州镇城东下菜园村",24.791382,112.385568,24.718644,112.282224,1
"4418822017B01131","7848e68a-d171-4df8-b875-0c4c85b430d3","广东省","清远市","连州市","连州镇体育北街6号",24.794801,112.387258,23.684480,113.050680,1
"4418002017B02718","1bf70595-66fe-4016-a09b-6b19aacdbb5b","广东省","清远市","清城区","清远雄兴工业园",23.688230,113.062468,23.559818,113.099808,1
"4418822009B00919","5f7b3e4a-901e-4e82-8ecc-a4fdb13710a1","广东省","清远市","连州市","连州市东门北路四巷9号",24.793384,112.384316,24.783250,112.372056,1
"4418272016B00381","a8cab8c3-cd17-4f19-ae4a-30791b33c426","广东省","清远市","清新区","清远市清新区三坑镇大陂村福龙村小组",23.619784,112.807520,23.613384,112.795528,1
"4418822010B02822","be134fee-ad0d-430a-bdf5-5fb64474b1ae","广东省","清远市","连州市","连州市城东下菜园沙墩岭地段",24.778128,112.395164,24.766064,112.401488,1
"4418822010B02817","db4ad7fc-5410-43ea-af74-953dfa1ab49f","广东省","清远市","连州市","连州市湟川南路1号A栋603房",24.776293,112.394203,24.775112,112.378272,1
"4418212013B00682","283e8fab-373d-4350-86f9-681542e3aaa3","广东省","清远市","佛冈县","佛冈县迳头镇新区",24.003776,113.698067,23.881946,113.526448,1
"4418822011B01396","f8a16410-8ec9-4b10-92de-6fced639bb07","广东省","清远市","连南瑶族自治县","连州市半岭移民新村地段",24.724229,112.306717,24.809340,112.466672,1
"4418002009B00216","f5fd2e63-edd0-4288-956c-3ed9596e7c8e","广东省","清远市","清城区","横荷百加集镇瓦窑新村24号",23.643336,113.071871,23.641724,113.059312,1
"4418252009B00095","96c89ae8-d340-43e5-9eb2-485bce92cd8aC","广东省","清远市","连山壮族瑶族自治县","连山壮族瑶族自治县原福堂镇粮所S263线公路北侧路边",24.422077,112.087464,24.573724,112.088264,1
"4418002009B00909","7781da7b-bc26-4611-9890-e88ca9d38782","广东省","清远市","清城区","清城区源潭镇公园路右八巷11号",23.669362,113.204216,23.665964,113.192360,1
"4418822011B00068","52235e9d-f1bb-4dab-b8c2-46bd3402d836","广东省","清远市","连州市","连州市单马新村155号",24.786467,112.383573,24.783250,112.372056,1
"4418812015B00468","e015b682-e4e9-41f3-984e-bf19598faa2f","广东省","清远市","英德市","英德市英红大道以东、春早东路以北（地块八）",24.283947,113.414061,24.313758,113.407768,1
"4418812015B00458","723d6e91-8ebe-4900-9f0b-37da08748127","广东省","清远市","英德市","英德市英红大道以东、春早东路以北（地块五）",24.283947,113.414061,24.313758,113.407768,1
"4418822013B00742","bf438fd9-d947-47e4-bf23-c352d3017293","广东省","清远市","连州市","连州镇俞屋寨小区B117号",24.804717,112.378692,24.801750,112.366688,1
"4418822013B00866-1","abdc37d6-b6f1-4f52-8a45-f1431873b8d9","广东省","清远市","连州市","连州市虎田街田心巷18号",24.783210,112.394291,24.780104,112.382608,1
"4418812013B00665","7e740ca2-eac8-400b-afc2-6c83074e96c7","广东省","清远市","英德市","英德市英城仙水中路以西、中医院以北",24.192550,113.400025,24.190520,113.388032,1
"4418812011B01095","ca89d801-cfb0-4733-adf9-c7ed8856aca2","广东省","清远市","英德市","英德市东华镇坣下村X361线南",24.183368,113.674405,24.193434,113.663000,1
"4418822010B01798","838375e0-58b1-4847-ba42-da510a11d2a1","广东省","清远市","连州市","连州市湟川北路199号地段",24.794242,112.379514,24.783250,112.372056,1
"4418822011B01118","00ef2820-d29d-4c2a-92c9-7b7a5c3b70f0","广东省","清远市","连州市","连州市巾峰路12号码第三栋301房地段",24.787269,112.391356,24.783030,112.376088,1
"4418822010B01467","82b47aa7-8ee4-4489-a75e-068df42a1134","广东省","清远市","连州市","连州市丰阳连兰公路边",24.786467,112.383573,25.049400,112.271144,1
"4418822009B00119","d9a9391c-4214-46c5-a5df-466618948abaC","广东省","清远市","连州市","湟川南路1号A座803",24.776293,112.394203,24.775112,112.378272,1
"4418822011B00588","f4ef7c23-8b42-4c94-9da3-ee20c7de53eb","广东省","清远市","连州市","连州市北湖洞44号地段",24.790944,112.383487,24.789112,112.370296,1
"4418022009B00197","2325f66d-3127-4c50-bc19-5aca50b3af11T","广东省","清远市","清城区","清远市清城区东岗大街13号801",23.718097,113.050645,23.686728,113.036520,1
"4418822014B00434-2","b3f84916-e5c7-4629-94d6-8c6f3f59ee73","广东省","清远市","连州市","连州市连州镇城东下菜园村",24.791382,112.385568,24.776774,112.384600,1
"4418212012B00488","52e79766-6e47-4a87-a85e-69f9935832a9","广东省","清远市","佛冈县","佛冈县石角镇福田路东侧",23.867365,113.537013,23.881946,113.526448,1
"4418022017B00629","47aec02d-4c11-40f2-83fa-711f9d4c74c6","广东省","清远市","清城区","清远市清城区源潭镇峡山工业小区 ",23.715242,113.208272,23.636264,113.152784,1
"4418272015B00612","85f56c1d-1054-4e60-8966-88c8825b0600","广东省","清远市","清新区","清远市清新区太和镇府前路18号806#",23.738471,113.025423,23.735792,112.963048,1
"4418822015B00500","4650a8ed-76df-49b5-9bef-ee191fbdb8a3","广东省","清远市","连州市","连州镇北湖路77号第三栋603房",24.790694,112.383958,23.713750,113.013848,1
"4418002011B02340","08b77c66-d3db-4c01-948c-adb657139f46","广东省","清远市","清城区","清远市新城三号区8幢3号",23.688230,113.062468,23.692750,113.035800,1
"4418822011B01348-1","e1709cf7-08bc-41e2-ad25-a6c36102c40a","广东省","清远市","连州市","连州市清远民族工业园创业大道地段    ",24.747309,112.388891,24.744350,112.376800,1
"4418002014B00082","3ab983f7-add2-4876-9db8-39a98337ae3b","广东省","清远市","清城区","清城区源源镇鹤仔塘",23.704022,113.069477,23.679822,113.021720,1
"4418822009B01019","80515fef-6b2e-4b2f-a807-d9afae86d620","广东省","清远市","连州市","连州市体育北街一巷11号",24.794801,112.387258,24.783250,112.372056,1
"4418002014B00059-1","7c7b3402-094d-4f73-8cba-91a2aa3537a4","广东省","清远市","清城区","清远市新城E18号区",23.688230,113.062468,24.716324,112.283600,1
"4418002014B00262-1","c6d3f937-09e5-4923-b51e-e82524754838","广东省","清远市","清城区","清远市清城区横荷街高速路东侧",23.664810,113.055211,23.673552,113.036264,1
"4418212012B00295","2fe7b673-2a4d-4ebb-802c-92ddec622ce5","广东省","清远市","佛冈县","佛冈县石角镇福田路东侧",23.867365,113.537013,23.881946,113.526448,1
"4418002018B00509","6360444a-4d41-4f4e-b0d7-6fb9a33ca58d","广东省","清远市","清城区","清远市清城区洲心街道办辖区内",23.686415,113.092426,23.679810,113.078360,1
"4418812008B00343","7d0f2707-8678-4fb3-beba-4e1cef6b08fe","广东省","清远市","英德市","望埠镇英曲公路东九麻塘门口的1#、2#、3#",24.242233,113.486783,24.266178,113.466344,1
"4418822013B01019","32681338-5f8b-4062-be2d-663a1f490ab6","广东省","清远市","连州市","连州市东岳巷35号403房",24.784224,112.392399,24.783250,112.372056,1
"4418812012B00416","c2e5b0ef-a600-4678-968f-ebdf1318f062","广东省","清远市","英德市","英德市英红镇侨兴一路",24.293608,113.420637,24.288760,113.408080,1
"4418812008B00633","b4b9ec7f-3afc-43d4-99e2-a83be98f2608","广东省","清远市","英德市","英德市浛洸镇",24.261381,113.140340,24.257950,113.128272,1
"4418002014B01378","7cc9c23c-de3a-4c72-8164-7f4db5297ee4","广东省","清远市","清城区","清远市清城区源潭镇跃进路48号",23.670157,113.207261,23.636264,113.152784,1
"4418812011B00822","f87bf901-b8be-46a7-a8a2-64e660e2a764","广东省","清远市","英德市","英城和平北路、市一中旧校区东北角D地块",24.204175,113.419999,23.676774,113.052144,1
"4418232011B00175","79bb1686-29ca-4cc1-830e-11faa46fdfaf","广东省","清远市","阳山县","阳山县阳城镇范村村委会新村村民小组",24.438219,112.677443,24.434758,112.665768,1
"4418002013B01862-1","a46988bf-bdb0-4ef0-8bdc-54b06a7ecbe2","广东省","清远市","清城区","龙塘镇新庄村委会鱼王石",23.598434,113.083644,23.594980,113.071616,1
"4418822009B00712","24532da1-a31e-462c-8658-d3b65a9cdbbd","广东省","清远市","连州市","连州市中山南路土地巷43号",24.781354,112.387038,24.777960,112.375408,1
"4418002009B00570","1d6904d2-e987-435b-b2e7-97231af18db3","广东省","清远市","清城区","清远市新城B19号区",23.688230,113.062468,23.680732,113.052992,1
"4418002009B00619","3d3b4130-f920-4fbe-bd7f-5a12d3afe20a","广东省","清远市","清城区","清远市新城B11号区炒沙新村66号",23.686944,113.068919,23.684480,113.050680,1
"4418812012B00647","5f70a6ef-3dff-489a-a16a-7cc5839220c7","广东省","清远市","英德市","英德市英红镇红光居委",24.305800,113.411110,24.307008,113.396208,1
"4418812008B00586","57fd8d9e-6e82-456e-bacc-74a0d20ad061","广东省","清远市","英德市","英德市浛洸镇",24.261381,113.140340,24.257950,113.128272,1
"4418822011B01289","daaa369c-5ac5-402c-b93f-11e9829e0291","广东省","清远市","连州市","连州市城北鸬鹚咀地段",24.799486,112.378353,24.794500,112.365664,1
"4418822011B01235","ed67e2f2-ded1-4f50-be29-53bb982a0969","广东省","清远市","连州市","连州市燕喜北街地段",24.793920,112.393148,24.790060,112.376784,1
"4418822011B01226","f052f2cf-9551-4f86-86ab-690a492df40f","广东省","清远市","连州市","连州市湟川南路29号第二栋301房地段",24.776671,112.392003,24.781670,112.374192,1
"4418812011B00426-1","117e9d40-df10-4004-a95d-bf54fd1d428b","广东省","清远市","英德市","英城金子山大道南（B地块）",24.211327,113.420272,24.497650,113.100272,1
"4418812008B00118","ebd7f606-8608-43c9-bdde-3b0ed5da8092","广东省","清远市","英德市","英德市青塘镇英青公路南边",24.193166,113.842620,24.207710,113.847088,1
"4418272014B01075","722d7522-c486-4080-ad5d-7ab387fd9398","广东省","清远市","清新区","清新区太和镇红棉街21号F幢702#",23.737923,113.026925,23.734192,113.014920,1
"4418022012B01583","4b3e5832-361e-4b29-99ac-83abaf4b4671","广东省","清远市","清城区","广东省清远市清城区石角镇永安街左三巷8号",23.714065,113.038085,23.556300,112.966104,1
"4418022009B01488","1d157ce8-5b5c-456c-9675-dff20358fc52","广东省","清远市","清城区","清远市清城区朱围二街6座2号401",23.723777,113.038569,23.700410,113.057200,1
"4418822009B00592-1","e0d9e3a7-7c96-4fdb-b04f-ce3a8be66b8c","广东省","清远市","连州市","连州市建国北路兴达南27号",24.784824,112.388155,24.782224,112.376088,1
"4418822015B00477","b2f966d9-76eb-4d98-a935-88d65e67f85f","广东省","清远市","连州市","连州镇巾峰路28号D栋502房",24.787455,112.391035,23.685408,113.047584,1
"4418232012B00049","efc92d35-5ab9-47bf-acda-03744c4b3a65","广东省","清远市","阳山县","阳山县阳城镇城南思贤路（城南宝鸭塘）",24.474682,112.646292,24.470354,112.633320,1
"4418252009B00011","e654a971-69fb-44dc-b38b-1124cbc4e8c6C","广东省","清远市","连南瑶族自治县","吉田镇县林业局原综合厂",24.727272,112.301100,24.572490,112.094392,1
"4418252009B00030","e6d2c043-450a-447e-8a1b-00d65ebe0ee5","广东省","清远市","连南瑶族自治县","县林业局原综合厂第六号土地",24.727272,112.301100,24.467850,112.634776,1
"4418812010B00616","1dead508-ada3-4a1f-8962-49c01748e08f","广东省","清远市","英德市","横石塘镇新群村委",24.291695,113.365263,24.358420,113.340392,1
"4418212012B00502","53489ed4-2cad-4c67-bb60-b955710e812a","广东省","清远市","佛冈县","佛冈县石角镇福田路西侧",23.867365,113.537013,23.864314,113.525280,1
"4418212012B00516","f6d69170-5d3d-48b7-9353-b88de9ef98fc","广东省","清远市","佛冈县","佛冈县石角镇福田路西侧",23.867365,113.537013,23.864314,113.525280,1
"4418822015B00362-1","5451e74a-2519-4f21-b22d-049ce1778579","广东省","清远市","连州市","连州市连州镇中山北路水关巷4号",24.784905,112.384764,24.781982,112.372728,1
"4418822012B01718","c62003e2-a466-45df-82d9-88d1d7ce6a9e","广东省","清远市","连州市","连州市爱民路古屋巷1号",24.785845,112.384273,24.782900,112.372152,1
"4418002008B00600","409fc0ff-8924-4fd2-b721-bb6a79fb307d","广东省","清远市","清城区","清远市横荷街办百加管理区永利街",23.651594,113.069380,23.673552,113.036264,1
"4418212010B00537","28222066-8148-49c7-9e73-fbc2b03f2272","广东省","清远市","佛冈县","佛冈县汤塘镇新区",23.755925,113.553104,23.881946,113.526448,1
"4418822010B02476","b7e9129b-2d61-4f99-93f1-84546fe80429","广东省","清远市","连州市","连州市北荷街7号",24.789480,112.383603,24.786540,112.371392,1
"4418822018B02445","a880804d-a3fe-42d9-a9c7-750f0114e300","广东省","清远市","连州市","连州镇中山北路忠报坊44号",24.784905,112.384764,24.781982,112.372728,1
"4418812008B00038","cd0f61eb-c770-4791-9c3b-6f4cb9a9c733","广东省","清远市","清城区"," 英城莲花山公园南",23.688230,113.062468,24.186420,113.397264,1
"4418822012B01076","e63c91c4-9359-44aa-a357-5a8e3381dfdf","广东省","清远市","连州市","连州市单马山村地段",24.786467,112.383573,24.783250,112.372056,1
"4418022009B01500","e34a4726-76e6-4d80-9763-d812a0cd0ce0","广东省","清远市","清城区","清远市清城区石角镇石角大街一号之一",23.562235,112.973934,23.559534,112.961992,1
"4418022009B01528","09f4aa0b-ebc9-4423-8a42-03196100c6a7","广东省","清远市","清城区","清远市清城区平安新村54号",23.711984,113.049618,23.700410,113.057200,1
"4418812015B00648","cf9c547c-c41e-4d5d-9d7e-0eee91ca8c9b","广东省","清远市","英德市","英德市白沙镇太平村更古坑（地块六）",24.096143,113.769289,24.092700,113.758688,1
"4418812015B00846","6a057904-fed8-48e3-9ec5-8da687ce06c5","广东省","清远市","英德市","英德市白沙镇太平村更古坑（地块十）",24.096143,113.769289,24.092700,113.758688,1
"4418812015B00745","e55648fb-13d0-4e58-b58f-43e388ee812c","广东省","清远市","英德市","英德市英红镇兴业路以东、怡景路以北（地块三十二）",24.306647,113.414954,24.304910,113.406088,1
"4418812015B00735","e0d260fc-b230-4500-89e5-60b2b957a4f7","广东省","清远市","英德市","英德市英红镇兴业路以东、怡景路以北（地块二十五）",24.306647,113.414954,24.304910,113.406088,1
"4418812015B00787","62802a12-74f3-474b-b6cd-bca364697236","广东省","清远市","英德市","英德市青塘镇青丰公路西",24.193166,113.842620,24.208154,113.846352,1
"4418822012B01278","2d98f272-53c3-4321-937e-a9a3db55beeb","广东省","清远市","连州市","连州市东陂镇东陂大市场N268-1号地",25.002088,112.331127,24.999230,112.298880,1
"4418822012B01267","a1dbd64e-18b3-49fd-85f1-1f9c3cb053ea","广东省","清远市","连州市","连州市东陂镇东陂大市场N268-1号地",25.002088,112.331127,24.999230,112.298880,1
"4418022009B00185","84014789-2a1c-4ec2-bcb4-5ea580f07c1cT","广东省","清远市","清城区","清远市清城区新围右四巷6号二楼",23.718871,113.043448,23.678710,112.999808,1
"4418272015B00308","084c8b87-9a2c-4b57-ae59-5dd27f80e5a7","广东省","清远市","清新区","清远市清新区城区1号区",23.754270,112.991558,23.736820,113.001536,1
"4418822012B00569","9124652f-f244-4eb3-a7d0-ac658a175003","广东省","清远市","连州市","连州市中山北路110号202房",24.784230,112.384802,24.783250,112.372056,1
"4418022008B01569","b2b29559-f22c-4209-861f-d4f1ed41f9b5CC","广东省","清远市","清城区","清远市清城区东城街莲发七巷15号",23.734866,113.057736,23.700410,113.057200,1
"4418002008B00368","7783a5cf-a902-48a8-820c-fb1c7bad3715","广东省","清远市","清城区","清远市小市华中路42号",23.700560,113.043819,23.684480,113.050680,1
"4418002009B00119","69864e94-adae-48d0-a94c-6f547dadff4c","广东省","清远市","清城区","清远市清城区横荷百加镇管都街",23.647273,113.070028,23.641724,113.059312,1
"4418822011B00713","ef2ab925-1cee-4b7f-bddd-1603faa2f5c8","广东省","清远市","连州市","连州市虎田街水头门53号",24.783210,112.394291,24.780104,112.382608,1
"4418822009B01160-1","3503d07c-84f0-4fef-9887-e87120874445","广东省","清远市","连州市","连州市东山路95号第一602房",24.787653,112.388925,24.784690,112.376896,1
"4418002009B00018","392e9381-8b5f-4887-b982-827fe00afc13","广东省","清远市","清城区","清城区横荷街办打古村委会、百加村委会、洲心三角村委会",23.666271,113.035807,23.662510,113.023952,1
"4418812009B00578","df187bc1-ff31-47a0-8b41-90dd29a6e30f","广东省","清远市","英德市","英德市英城北江二号路西、金子山一号路北等四宗地块",24.147906,113.091369,24.206276,113.399440,1
"4418822012B01189","fd165d53-ba07-4dac-993d-ebbd38515ae5","广东省","清远市","连州市","连州市东陂镇东陂大市场H858号",25.002088,112.331127,24.999230,112.298880,1
"4418822015B01268","763f3917-cd41-4752-bce3-9db92a18d8ba","广东省","清远市","连州市","连州镇番禺路265号A栋502房",24.801631,112.388203,24.797470,112.376576,1
"4418272017B02655-1","f36aba79-8303-4792-ab5c-e435c1c0e3c0","广东省","清远市","清新区","清远市清城区飞来南路清新路段旁",23.729863,112.996663,23.810510,113.269232,1
"4418812011B01339","7ea5cb9a-cb6e-48e0-b7f8-a12699147cd1","广东省","清远市","英德市","英德市横石塘镇龙华村新桥下村小组",24.323259,113.356178,24.327266,113.331440,1
"4418022009B00139","af7a87d3-f0ca-4c0f-b5de-9c1fcc8ea844T","广东省","清远市","清城区","清城区高基里五巷十号七楼",23.722008,113.034059,23.714920,113.020976,1
"4418812009B00015","31f4187b-dac4-4e30-93c9-04f36c01d152C","广东省","清远市","英德市","英德市英城水厂北、断岗山东侧山坡两宗、英城光明路北、仙水路两旁",24.201447,113.407144,24.144430,113.385264,1
"4418812012B00567","b17acafd-e796-421b-95e4-2cb8dc7bab36","广东省","清远市","英德市","英德市英红镇为民路以南",24.296736,113.421846,24.307008,113.396208,1
"4418812018B00122","ec4dfc8c-cfda-4a41-8cdf-d870187f9501","广东省","清远市","英德市","英德市东华镇清华园精细化工基地（地块十）",24.233929,113.669533,24.193330,113.658904,1
"4418272015B00508","fa99506c-b82f-4485-9aa1-43a675be030f","广东省","清远市","清新区","清新区太和镇府前路11号H幢502#",23.738656,113.025863,23.735792,112.963048,1
"4418212009B00103","dd133524-5507-49e9-8a23-d98df9ba366c","广东省","清远市","佛冈县","石角镇三八羊角山林场及三连坑尾村",23.864394,113.592820,24.431626,112.495264,1
"4418022009B00891","3fea2332-b8df-4208-906c-0932cac8f4e6T","广东省","清远市","清城区","清远市清城区花厅二街13号404",23.719789,113.043573,23.700410,113.057200,1
"4418002009B00126","b0f8ba6f-da2a-4700-bbd9-2b4cfb276533TC","广东省","清远市","清城区","清远市清城区公园路右七巷38号",23.669362,113.204216,23.665964,113.192360,1
"4418272016B00362","e2b0c8a5-ecb6-4319-ad55-cb1bac86729b","广东省","清远市","清新区","清远市清新区太和镇红棉街13号首层101号铺",23.737770,113.023908,23.745140,113.006200,1
"4418812010B00175","623ac8b8-1665-48d8-9b26-c91e64b7f4e3","广东省","清远市","英德市","英德市英城浈阳湖边",24.191939,113.421443,24.185770,113.379040,1
"4418002010B01669","71ff09d9-98a5-48a9-bad5-94ffe12984b7","广东省","清远市","清城区","清远市清城区横荷百加管理区瓦窑街",23.647273,113.070028,23.641724,113.059312,1
"4418822010B03722","b992f991-606f-4cde-a8af-dc81671c46b1","广东省","清远市","连州市","连州市竹园路民乐街六巷8号",24.798650,112.386042,24.794188,112.373768,1
"4418812011B00606","1b39beec-30ae-474e-91c8-1a028358ade3","广东省","清远市","英德市","英德市英红镇侨兴二路",24.288010,113.416153,24.307008,113.396208,1
"4418812011B00860","8096b01a-15cc-4ac7-94c1-9f78d991b865","广东省","清远市","英德市","英德市望埠镇河头街（原望埠粮站）",24.270598,113.484521,24.269950,113.472256,1
"4418232011B00195","bb48d576-ca91-4491-9700-0073f5efd20f","广东省","清远市","阳山县","阳山县小江镇黄牛滩村委会热水村小组",24.635829,112.583292,24.588798,112.541112,1
"4418022012B01564","9ce7c225-8def-432b-ae53-aa824a65fb7a","广东省","清远市","清城区","清远市清城区石角镇新基村委会开发区三号",23.536585,112.991659,23.533548,112.979864,1
"4418272018B00162","60039cbb-0f07-461f-8ebd-36bc0acf22c7","广东省","清远市","清新区","清远市清新区太平镇龙湾工业园",23.684433,112.878855,23.708918,112.891080,1
"4418232016B00064-1","cbe75fd5-a71e-4d4d-bb4e-e641ab7e6220","广东省","清远市","阳山县","阳山县阳城镇贤令大道西侧",24.477121,112.644604,24.486646,112.641320,1
"4418022013B01875","cd87cb52-f38c-4f57-a239-246e497de02a","广东省","清远市","清新区","清远市清城区凤城街道田龙社区居委会辖区内",23.713989,113.010853,23.710718,112.998960,1
"4418002018B00443","ad8cf04d-89ba-4b18-bc92-fc462e4046ae","广东省","清远市","清城区","清城区东城街道J8号区",23.739127,113.109220,23.727140,113.046680,1
"4418822010B02124-1","bd39c914-1d61-4383-8267-171eba449204","广东省","清远市","连州市","连州市北湖路77号第二栋202房",24.790694,112.383958,25.039960,112.622912,1
"4418812015B00555","d1c365ea-6c8e-4593-98f0-90b2008c274c","广东省","清远市","英德市","英德市望埠镇望河居委会门口岭（地块七）",24.260647,113.491051,24.150986,113.426768,1
"4418812015B00535","533b427c-d8b6-42a0-9ebe-79f8eb1fb403","广东省","清远市","英德市","英德市望埠镇望河居委会门口岭（地块五）",24.260647,113.491051,24.150986,113.426768,1
"4418272015B00676","169af114-80bf-438c-b3ed-e37c4b7ab186","广东省","清远市","清新区","清远市清新区城区十一号区",23.754270,112.991558,23.736820,113.001536,1
"4418272015B00667","b4971306-1e44-4328-bba7-4c947e03a986","广东省","清远市","清新区","清远市清新区城区十一号区",23.754270,112.991558,23.736820,113.001536,1
"4418812015B00676","105dbf6b-3701-4e20-a111-25314559208b","广东省","清远市","英德市","英德市英红镇兴业路以东、怡景路以北（地块二十九）",24.306647,113.414954,24.304910,113.406088,1
"4418812015B00702","89399522-1e1c-4d36-bbce-8b289e0d1927","广东省","清远市","英德市","英德市英红镇兴业路以东、怡景路以北（地块二十六）",24.306647,113.414954,24.304910,113.406088,1
"4418272015B00758","ae314689-42f9-4504-aa6e-4a0d842202d8","广东省","清远市","清新区","清新区太和镇玄真路26号A梯702",23.742822,113.023611,23.739270,113.011784,1
"4418002010B00929","31581a2c-dd0f-49f1-bed8-96b094887bc7","广东省","清远市","清城区","清远市高新区嘉福工业小区A3区",23.637001,113.075127,23.518810,113.104696,1
"4418002009B00145","5d8e7754-ee28-4a3a-bed7-6b3d19b84110","广东省","清远市","清城区","清远市清城区横荷镇百加新围村",23.644222,113.046577,23.486642,112.988120,1
"4418002009B00145","5d8e7754-ee28-4a3a-bed7-6b3d19b84110T","广东省","清远市","清城区","清远市清城区横荷镇百加新围村",23.644222,113.046577,23.486642,112.988120,1
"4418002009B00476","4a536008-eda3-49d6-98f6-e25e0159749a","广东省","清远市","清城区","清远市新城东19号区",23.688230,113.062468,24.034554,113.304784,1
"4418822016B00529","414fc726-6e2e-451f-abe8-ed3658bbec3b","广东省","清远市","连州市","龙坪镇东田冲村",24.841521,112.479788,24.835644,112.473488,1
"4418822016B00461-1","1a34e5f8-003a-433d-a27a-8ea0a5e77563","广东省","清远市","连州市","连州镇人民路127号三栋102房",24.788508,112.383090,23.716586,113.024344,1
"4418002011B02380","9bf088dd-8600-45f6-8cc0-19c2bc8ae26b","广东省","清远市","清城区","清远市新城西14号区",23.688230,113.062468,23.692680,113.038960,1
"4418002011B02308","b7cc8c72-a6ee-4659-b93f-ecd3e7d80a5d","广东省","清远市","清城区","清城区源潭镇东坑工业园区内",23.616654,113.152491,23.649720,113.036328,1
"4418822009B00965","c04a047c-78c9-4338-bb88-5affb8c41b4e","广东省","清远市","连州市","连州市兴达南路167号",24.786467,112.383573,24.783250,112.372056,1
"4418022008B01359","27350655-976d-485e-ad4e-651a1e70f1a3CC","广东省","清远市","清城区","清远市清城区先锋西路17号南座东梯601",23.711817,113.032102,23.708500,113.020088,1
"4418022008B01361","1a408c48-c4b8-464a-9985-bbb7dd92c0e5CC","广东省","清远市","清城区","清远市清城区平安新村6座901",23.711564,113.050609,23.700410,113.057200,1
"4418272014B01860","d6bd6e5b-0b37-4137-907a-2892eb4a3961","广东省","清远市","清新区","清新区太和镇十八号区",23.739303,113.009446,23.740898,113.020384,1
"4418272014B01856","4a2a48be-16d5-4f02-a093-bb1103b778a7","广东省","清远市","清新区","清新区太和镇十八号区",23.739303,113.009446,23.740898,113.020384,1
"4418002014B02038","3e6deae1-a62a-447f-bcb9-72bd7e69a26f","广东省","清远市","清城区","清远市新城东三号区六幢1号楼",23.693506,113.049832,23.682380,113.055480,1
"4418822014B00986","6a882512-d416-42eb-9621-4c000a5df676","广东省","清远市","连州市","连州市东山路93号第2栋201房",24.787526,112.388610,24.745998,112.311128,1
"4418002018B00083","832de0c6-e2b4-482a-8f30-9fcf42eb2545","广东省","清远市","清城区","清远百嘉科技园",23.646574,113.073449,23.637000,113.060256,1
"4418812018B00149","60bbac04-7957-4fe2-8c9f-b351c1780463","广东省","清远市","英德市","英德市沙口镇同德街",24.424656,113.529909,24.423982,113.518112,1
"4418822018B01794","8d54a75f-ed39-4dd0-94d4-a73152f5f147","广东省","清远市","连州市","连州市星子镇东升二路二巷二号",25.009788,112.534210,25.000370,112.554296,1
"4418812015B00387-2","1b05dc1f-450b-4851-96d5-02e31fab71ba","广东省","清远市","英德市","英德市英城浈阳西路以北、马山公路以东冬瓜岭",24.187555,113.390241,24.184790,113.376160,1
"4418822013B00428","af1941e3-81c6-484c-ae9c-5fe311adacd4","广东省","清远市","连州市","连州市莲塘东路28号内第一栋302房",24.791288,112.385801,24.783250,112.372056,1
"4418272015B00899","44ec9132-b7eb-4e39-9873-2db6cb111ef4","广东省","清远市","清新区","清远市清新区太和镇笔架路3号A幢304#",23.737414,113.027033,23.733810,113.015224,1
"4418272015B00858","1f0ec365-817e-4005-9aea-5158d9e41bbe","广东省","清远市","清新区","清远市清新区太和镇笔架路3号A幢204#",23.737414,113.027033,23.733810,113.015224,1
"4418272015B00914","253dd104-8136-41f0-8fb5-6c258b5fee3d","广东省","清远市","清新区","清远市清新区太和镇笔架路3号A幢201#",23.737414,113.027033,23.733810,113.015224,1
"4418812016B01055","e92edd27-f3aa-40a3-8d27-07b0179afbc6","广东省","清远市","英德市","广东顺德清远（英德）经济合作区启动区担杆山以西",24.294903,113.411090,24.291206,113.399040,1
"4418022012B01654","e1efe4f0-098f-4d8c-a8b7-dae10f47b7f5","广东省","清远市","清城区","清远市清城区石角镇石角大街103-105号",23.562674,112.973470,23.559534,112.961992,1
"4418812017B01277-1","ca24990f-3a25-4f67-be14-b062f75a9946","广东省","清远市","英德市","英德市英城街道和平北路以东、金子山大道以北",24.204175,113.419999,24.199838,113.407992,1
"4418812010B00768","3a315a6d-6e4d-48a0-a22d-5417005f9963","广东省","清远市","英德市","横石塘镇前锋、新群村委",24.291695,113.365263,24.358420,113.340392,1
"4418812010B00678","9751ff74-2bdb-4e8a-ba6d-81631cfc13d0","广东省","清远市","英德市","横石塘镇新群村委",24.291695,113.365263,24.358420,113.340392,1
"4418812010B00746","2f4602e5-3c17-44e9-9d1c-ae2a1966fd5c","广东省","清远市","英德市","横石塘镇前锋村委",24.291695,113.365263,24.344630,113.364312,1
"4418272013B00080-1","ae7d8f08-f268-4730-a951-b008a2548027","广东省","清远市","清新区","清新县国营笔架山林场三坑滩村委会大卜坑",23.892327,112.845609,23.769838,112.950648,1
"4418822012B00759","2462f5ad-f50a-4fc0-b49c-1a02f88ce161","广东省","清远市","连州市","连州市建国北路111号第二栋201房",24.786668,112.387705,24.745998,112.311128,1
"4418812016B00830","9ed586f0-0366-4fd9-93fd-b242ff2aa857","广东省","清远市","英德市","英德市望埠镇望河居委会门口岭（地块十四）",24.260647,113.491051,24.150986,113.426768,1
"4418212010B00038","9e18c52e-41c9-4bad-bd69-7f8e0cef8111","广东省","清远市","佛冈县","佛冈县迳头镇大陂村",23.988378,113.668887,23.984866,113.657208,1
"4418022016B00388","cf7262ef-a532-4a5a-9926-7b233ad2b0f3","广东省","清远市","清城区","清远市清城高基里6巷18号701房",23.722008,113.034059,23.691670,113.042736,1
"4418822012B00616","0e9bcf00-aacb-4a36-b5ab-d60a178be046","广东省","清远市","连州市","连州支行将座落于连州人民路13号601房",24.789918,112.387850,24.782190,112.375288,1
"4418812013B00035","7bb43bec-d463-492f-a95d-7447bb079feb","广东省","清远市","英德市","英德市英红镇侨兴一路",24.293608,113.420637,24.288760,113.408080,1
"4418212013B01115","0ecd4851-3e12-4b7f-aa04-017a0474cd1f","广东省","清远市","佛冈县","佛冈县石角镇莲溪村",23.881086,113.531856,23.881946,113.526448,1
"4418002014B00129-2","eb65bdc5-1476-46f8-bf77-a90d0bcc4ae5","广东省","清远市","清城区","清城区J26-1号区",23.704022,113.069477,23.700410,113.057200,1
"4418022014B02527","34399c0b-017d-41b9-95fc-3a6d896a469a","广东省","清远市","清城区","清远市清城区东城街道澜水村委会东城大道南",23.712992,113.056507,23.727140,113.046680,1
"4418822013B01062","421783ee-f504-479f-80b0-793edddc94e3","广东省","清远市","连州市","连州市番禺路265号C栋801房",24.801631,112.388203,24.797470,112.376576,1
"4418822010B02403","722bcf3d-c32e-427d-8f9d-28ca1baaf5d9","广东省","清远市","连州市","连州市星子镇红星街80号农业银行宿舍201室",25.003971,112.566873,25.000370,112.554296,1
"4418212008B00559","834d17d9-602e-4e50-bc6b-87331c95bc4a","广东省","清远市","佛冈县","佛冈县汤塘镇新区",23.755925,113.553104,23.881946,113.526448,1
"4418212008B00528","817ea1d1-3a2a-441b-8932-d0ca270c32f8","广东省","清远市","佛冈县","佛冈县汤塘镇新区",23.755925,113.553104,23.881946,113.526448,1
"4418022015B00250","01b791c1-48fc-49ed-b11d-19a9f6685c85","广东省","清远市","清新区","清远市清城区凤城街道田龙社区居民委员会",23.713949,113.010797,23.710718,112.998960,1
"4418812015B01266","c5d4b3c6-b285-4eb3-a136-231bc895d413","广东省","清远市","英德市","英德市横石水墟镇英翁公路黄岗坑东侧（原糖果厂）",24.191939,113.421443,24.365814,113.800968,1
"4418002009B00590","23e59ea1-b66a-4507-93af-968b5b4ee007","广东省","清远市","清城区","清远市新城B19号区",23.688230,113.062468,23.680732,113.052992,1
"4418212013B00077","cd2f3ba2-e542-4ab1-b0c9-a52e02dd5e1d","广东省","清远市","佛冈县","佛冈县龙山镇106国道东侧",23.964761,113.641059,23.740450,113.405552,1
"4418212013B00040","e1885f87-72d6-46d7-b5dd-809cd410aabd","广东省","清远市","佛冈县","佛冈县龙山镇106国道西侧",23.964761,113.641059,23.844540,113.508400,1
"4418212013B00096","56cacc79-fba8-4343-80fe-137030ce4eb1","广东省","清远市","佛冈县","佛冈县龙山镇镇区",23.803615,113.385329,23.881946,113.526448,1
"4418822012B00801","52cc202a-421c-40e1-9e96-8fdf30895788","广东省","清远市","连州市","连州市宝石坪二坊45号",24.784991,112.396311,24.783250,112.372056,1
"4418002012B00642","b2baee1c-e198-4bfd-bf4b-c2249146e48c","广东省","清远市","清城区","清远市新城三号区3-65号之一",23.688230,113.062468,23.684480,113.050680,1
"4418812013B01508","762f117f-72b3-4026-8157-29d6d5315003","广东省","清远市","英德市","英德市东华镇坣下村石山下地块10",24.183368,113.674405,24.193434,113.663000,1
"4418252008B00042","0baf17fd-4227-40d4-bca7-2108fa516c81","广东省","清远市","连山壮族瑶族自治县","连山县县城鹿鸣东路",24.575635,112.104989,24.572048,112.093224,1
"4418272016B00211-1","3b735a1f-84d4-41cd-aa18-e0f7edc950c8","广东省","清远市","清新区","清远市清新区山塘镇新基路南31号506房",23.635236,112.958706,23.626830,112.944800,1
"4418272016B00195","37be4b56-e552-45d9-8480-85a52f653fe7","广东省","清远市","清新区","清远市清新区山塘镇新基路南33号商铺",23.635236,112.958706,23.626830,112.944800,1
"4418272016B00253","beeffadc-bc49-40a3-a306-faa0e1069848","广东省","清远市","清新区","清远市清新区太和镇府前路20号702#",23.738435,113.025499,23.735792,112.963048,1
"4418822009B00411","1ee5a747-23af-4583-86ee-77881cddfba3CC","广东省","清远市","连州市","万兴东路11号",24.786220,112.391156,23.684480,113.050680,1
"4418272013B00020","1d70af3b-bbf5-4e7e-b405-e2e661125c40","广东省","清远市","清新区","清新县三坑镇布坑村委会清四公路边",23.691442,112.951395,23.598204,112.797528,1
"4418002013B00870","94ff1764-75a5-4ddb-a2ac-f7e269bf8561","广东省","清远市","清城区","清远市高新区百嘉工业园20、26号小区",23.637001,113.075127,23.645922,113.061704,1
"4418002013B00780","74d1e6f3-fc5e-43cb-abb9-9609af21a2f5","广东省","清远市","清城区","清远高新区百嘉工业园19-4-1",23.637001,113.075127,23.640190,113.059624,1
"4418002013B00919","e5d9f420-0a26-4027-862a-422074875ed3","广东省","清远市","清城区","清远市高新区百嘉工业园27-8号地",23.637001,113.075127,23.645922,113.061704,1
"4418002013B00765","dfd54006-add7-4c4c-b71e-4545176965e9","广东省","清远市","清城区","清远市高新区百嘉工业园27-6号",23.637001,113.075127,23.645922,113.061704,1
"4418212010B00656","2154b130-d4a7-4dc6-9b69-9ca677267211","广东省","清远市","佛冈县","佛冈县石角镇环城东路",23.873879,113.553578,23.870466,113.542112,1
"4418002013B01277-1","4493f7ed-be65-4488-bd4a-b0943a3728ed","广东省","清远市","清城区","清城区源潭镇人民法院北侧",23.725684,113.032432,23.661900,113.187680,1
"4418812013B01951","30294888-5532-4450-8bdd-361f4c921dd0","广东省","清远市","英德市","英德市九龙镇墟",24.148562,112.927576,24.144828,112.915760,1
"4418822012B00855","d157079c-6106-40b6-89f6-05108863ff14","广东省","清远市","连州市","连州市人民路13号502房",24.789918,112.387850,24.783250,112.372056,1
"4418232013B00126","368a0d98-1787-40e0-9e51-e6087d3f1ad4","广东省","清远市","阳山县","阳山县七拱镇工业聚集区",24.311745,112.592700,24.309562,112.569288,1
"4418812011B00735","23d68179-ffb5-4b2d-a72f-53b2ce5c03d9","广东省","清远市","英德市","英德市石灰铺镇美村街",24.251887,113.297405,24.260306,113.227224,1
"4418812014B00547","ec51d183-2147-45ed-8927-8f6097bd7308","广东省","清远市","英德市","英德市英城环湖路以西、书斋路以北",24.191939,113.421443,24.174880,113.408896,1
"4418002015B01755-1","3e1111e7-c802-4380-8117-6afa6daa7509","广东省","清远市","清城区","清远市高新区百嘉科技创新园",23.637001,113.075127,23.684480,113.050680,1
"4418822015B01427","f4436634-7e82-453d-9dfe-3c9bdb6b3ed4","广东省","清远市","连州市","连州市星子镇新发西路8号",25.009788,112.534210,25.002372,112.556024,1
"4418022009B01409","76c41116-e5c9-4c1c-aabd-fc63d7393faa","广东省","清远市","清城区","清远市清城区罗宅街左一巷五号402",23.719234,113.039383,23.719932,113.022576,1
"4418022009B01415","0bf9e8d3-4165-433b-b53f-022debeb2d99","广东省","清远市","清城区","清远市清城区新围街右二巷2号602",23.716444,113.051469,23.700410,113.057200,1
"4418272015B00766","680fa736-efe2-4e10-af67-f0dd1969421b","广东省","清远市","清新区","清远市清新区太和镇县城二十三号区",23.724012,112.968461,23.741660,112.999744,1
"4418252011B00047","21f2948f-9368-4ac8-8c2b-3b03e7f50574","广东省","清远市","连山壮族瑶族自治县","连山壮族瑶族自治县沿江东路北侧",24.572783,112.101369,24.573724,112.088264,1
"4418212017B00307","a357c94a-567c-440a-a5ec-5cab628fb7be","广东省","清远市","佛冈县","佛冈县水头镇王田经济联合社",23.882262,113.704453,23.869800,113.572488,1
"4418272015B00698","6c98e093-62b8-4e28-ab3d-205cbe527071","广东省","清远市","清新区","清远市清新区城区十一号区",23.754270,112.991558,23.736820,113.001536,1
"4418002012B00068","67e55caa-c336-4828-b708-92c96dced3eb","广东省","清远市","清城区","清城区横河街道百加集镇官都街",23.644772,113.072049,23.611998,112.971952,1
"4418272015B01006","25f6a164-58e2-49c2-be77-c473c9516118","广东省","清远市","清新区","清远市清新区太和镇中山路北15号A梯502#",23.743128,113.016983,23.736800,113.005016,1
"4418822015B00818","6ac7db86-0550-467c-bb97-dbfc172c024e","广东省","清远市","连州市","连州镇人民路北荷街6号内第一栋101房",24.790535,112.383676,23.684480,113.050680,1
"4418812016B00670","21d12114-9879-4887-a8ad-3b45929eb1f6","广东省","清远市","英德市","英德市大站镇银英公路以东、京广铁路以西",24.033352,113.316498,24.188318,113.409448,1
"4418822016B01018","dfbb845f-388a-4729-b59e-04ff57e933af","广东省","清远市","连州市","连州市城北滨江片原水泥厂地段",24.786467,112.383573,24.783250,112.372056,1
"4418822018B01687","90689d8d-51fc-421a-84da-9468bfcf80a8","广东省","清远市","连州市","连州镇高塘街",24.781759,112.389997,24.778764,112.377720,1
"4418822010B03513","1c807a3b-cbad-400a-90da-3c5fd24b856c","广东省","清远市","连州市","连州市建国北路桥木里地段",24.784824,112.388155,24.782224,112.376088,1
"4418272013B01445-1","62474ab2-0571-4684-a829-4291311c8aa0","广东省","清远市","清新区","清新区禾云镇保障性住房综合楼东侧",23.922689,112.929398,23.875522,113.025448,1
"4418262014B00043","de6cd92b-1e25-45f8-a146-1eb7781dd886","广东省","清远市","连南瑶族自治县","连南瑶族自治县寨岗镇跃进街梁屋巷",24.524300,112.359922,24.522320,112.345688,1
"4418272012B00138","8e560bdc-2780-40b9-a5e1-44faca5f803c","广东省","清远市","清新区","清新县太平镇南北村委会、清新县山塘镇低地村委会蔗寮村民小组",23.690399,112.946058,23.689840,112.928360,1
"4418822013B01215-8","8152b6f9-d633-459f-8c25-81e28400441e","广东省","清远市","连州市","连州市连州镇城西兴连大道侧",24.763680,112.381149,24.770152,112.363032,1
"4418272012B00010","fcdc5bcf-65d8-4efa-87d9-cb104b9f5dc9","广东省","清远市","清新区","清新县石潭镇联滘、中所村委会",24.173025,112.766220,24.170038,112.754608,1
"4418812012B00478","e1d2fc8c-2625-4e98-808d-e019bb1025c4","广东省","清远市","英德市","英德市英红镇侨兴一路",24.293608,113.420637,24.288760,113.408080,1
"4418002011B01808-2","5662578c-2197-4d0d-bdd5-0dfdadd6d731","广东省","清远市","清城区","清远市新城E14号区",23.688230,113.062468,24.716324,112.283600,1
"4418002011B02168","ba6ce8b8-990c-4c97-b107-277ce6c188d9","广东省","清远市","清城区","小市农商街2号信用社楼902",23.701453,113.045897,23.695290,113.028976,1
"4418822009B01303-1","c5f8ea58-2505-4a70-8b05-dc7345e67b73","广东省","清远市","连州市","连州市东岳路102号E栋301房",24.784027,112.392328,24.799970,112.378112,1
"4418822016B00216","785ae404-aacd-4407-b9c5-cf01e16a4cf1","广东省","清远市","连州市","连州镇洋湄路3号第五栋402房",24.773153,112.400592,24.768772,112.388776,1
"4418212013B01465","dd6e2a31-ddc4-4649-bb7e-35608a0ab90b","广东省","清远市","佛冈县","佛冈县迳头镇新区",24.003776,113.698067,23.881946,113.526448,1
"4418812014B01477-2","13bf085f-4d32-42a1-8d79-03d4e5c34fc8","广东省","清远市","英德市","英德市英红镇英红大道以东、岭南路以北",24.310975,113.405312,24.307008,113.396208,1
"4418812015B00355","36581ad4-181a-4b1c-93ce-1155ceadb50c","广东省","清远市","英德市","英德市英城马口石坳村螺子塘",24.194993,113.383242,24.182860,113.401400,1
"4418812012B01396","8ef82c78-6f1f-4143-bc75-b6269e6fc3e6","广东省","清远市","英德市","英德市黎溪镇",23.936260,113.279553,23.932610,113.267704,1
"4418812012B00657","3993d67f-f653-4c27-9fd3-5f9c497786d2","广东省","清远市","英德市","英德市英城茶趣路以南、煤气站以西",24.190403,113.394228,24.187472,113.381656,1
"4418022015B00356","4d1146d4-4ef2-4c84-83ab-f775a057a695","广东省","清远市","清城区","清远市清城区麦围二街左六巷1号701",23.722101,113.038079,23.700410,113.057200,1
"4418812015B01581","ec31081f-6136-440f-982f-aee6c0c24423","广东省","清远市","清城区","西牛镇沿江二路2号",23.671018,113.202203,23.667932,113.191912,1
"4418822014B00963","34c59d86-27c9-4e1e-9f72-ae3ef8bbac24","广东省","清远市","连州市","连州市连州镇中山北路110号地段502房",24.784230,112.384802,24.788480,112.373400,1
"4418002017B02671","d4b109c1-9194-4930-afa9-44a1e6c58c0b","广东省","清远市","清城区","清远雄兴工业园",23.688230,113.062468,23.559818,113.099808,1
"4418812015B00155-2","aed1e978-2883-4926-952f-6c2090d65507","广东省","清远市","英德市","英德市东华镇重新村翁江以北",24.253510,113.664575,24.249980,113.652888,1
"4418272014B01960","8dbe994a-a9c6-4430-988b-e706d320bf2c","广东省","清远市","清新区","清远市清新城区27号区",23.754270,112.991558,23.732438,112.974712,1
"4418002017B02887","2f9c9737-608b-4357-8afc-4f61ce7e36a6","广东省","清远市","清城区","清远雄兴工业园",23.688230,113.062468,23.559818,113.099808,1
"4418822017B01149","87f55dc7-c9ec-42e7-a2f2-a12a7f9a1cde","广东省","清远市","连州市","连州镇城东下菜园江井巷地段",24.778128,112.395164,24.775138,112.383136,1
"4418272014B01915","32d44a0a-7b6b-4598-b603-9e84d1901fd0","广东省","清远市","清新区","清新区龙颈镇龙新路102#、103#",23.883749,112.878955,23.879032,112.869792,1
"4418272014B01909","cddd3586-deef-4b44-a58d-0f43e51caa01","广东省","清远市","清新区","清新区太和镇明霞大道中48号B1幢",23.743678,113.026071,23.740260,113.014240,1
"4418812015B01325","0ab83512-df00-4928-bc3c-154210113d12","广东省","清远市","英德市","英德市连江口镇下步村委会树园咀村小组地块（29-1）",24.063285,113.284477,24.064512,113.294416,1
"4418252009B00069","07e947cb-f1c4-46d3-9404-805b96707e53C","广东省","清远市","连山壮族瑶族自治县","连山县吉田镇甲科村西侧(G323线旁)",24.572858,112.079319,24.571200,112.084136,1
"4418822014B01106","62559f77-2a2e-456b-bce6-0cf5c6cb6bf1","广东省","清远市","连州市","连州市连州镇鹅公潭53号第一栋303房",24.787292,112.375774,24.788480,112.373400,1
"4418022012B00039","b93743aa-7d09-41ca-9ab2-a9d167f15b80","广东省","清远市","清城区","清远市清城区北门街东八座701",23.715303,113.035881,23.716004,113.021112,1
"4418822015B00799","44864a67-2b2b-4d2d-bbf9-7c49e8f2e6c1","广东省","清远市","连州市","连州市连州镇番禺路265号内C幢701室",24.801631,112.388203,24.797470,112.376576,1
"4418822016B00706","875ba458-398f-4516-88fb-d47dc35204c3","广东省","清远市","连州市","连州镇洋湄路3号第13栋302房",24.773153,112.400592,24.768772,112.388776,1
"4418022017B00490","834976fc-00ec-403e-bf04-f4379c0022b3","广东省","清远市","清城区","清远市清城区石角镇广州（清远）产业转移工业园园区内",23.497493,112.936903,23.477984,112.985096,1
"4418022017B00516","1f4d77e7-f8cd-4e49-b029-47dd793fea84","广东省","清远市","清城区","清远市清城区石角镇广州（清远）产业转移工业园园区内",23.497493,112.936903,23.477984,112.985096,1
"4418022013B02258","b559570f-29eb-4ab9-8c02-dd45dc2745f0","广东省","清远市","清城区","清远市清城区沙田社区居委会狮头岭",23.704022,113.069477,23.744086,113.041072,1
"4418022016B00263","9dc9436d-0770-4426-ab38-cc6f343415f2","广东省","清远市","清城区","清远市清城区石角镇广清产业工业园园区内",23.497493,112.936903,23.506650,112.985072,1
"4418272016B00672","d782aa7a-8c6c-47f6-aa40-4da6064bf6d0","广东省","清远市","清新区","清远市清新区禾云镇云街村委会",23.927948,112.928141,23.928032,112.916912,1
"4418022016B00315","f307d184-8ba4-4b58-b626-6ccdcfda88f7","广东省","清远市","清城区","清远市清城区石角镇广清产业工业园园区内",23.497493,112.936903,23.506650,112.985072,1
"4418822009B00365","311c5335-bb7a-4805-875b-7da9ff4a2d7dC","广东省","清远市","连州市","巾峰路91号",24.784221,112.396141,24.784100,112.380016,1
"4418272013B00045","0bd1abf0-00c6-4024-84c2-632db87e7251","广东省","清远市","清新区","清新县太平镇盈富工业园",23.659397,112.862243,23.670260,112.878200,1
"4418022013B01915","82f7108f-8cb9-4ab0-a994-f35b6c07c21b","广东省","清远市","清城区","清远市清城区石角镇循环经济产业园界牌村民委员长会辖区内",23.517381,112.982731,23.513662,112.956928,1
"4418002009B01078-1","b2b08336-4054-4866-8bd1-076425125354","广东省","清远市","清城区","清远市高新技术开发区百嘉工业园区23号小区",23.646574,113.073449,23.645922,113.061704,1
"4418232012B00097","a3705b48-9be8-46f1-88da-257805157c27","广东省","清远市","阳山县","阳山县七拱镇塘坪村委会（S114线七拱段西侧）",24.306369,112.598246,24.300170,112.585448,1
"4418822012B00476","599ae1d5-07ae-4790-8623-ebaf91ef2ca4","广东省","清远市","连州市","连州市慧光路慧东巷103号",24.782846,112.391954,24.781622,112.379288,1
"4418002008B00202","50482642-2da6-4124-b336-48cfeb603242","广东省","清远市","清城区","清远高新技术产业开发区管委会3号小区",23.632306,113.079989,23.692810,113.043080,1
"4418022009B01025","17fee027-85b1-42e7-8639-288f5fc4dd1fT","广东省","清远市","清城区","清远市清城区白马塱四区4号6楼",23.720413,113.046404,23.700410,113.057200,1
"4418812018B00032","1cb06fe6-94a1-416c-90b2-9391600fd6c0","广东省","清远市","英德市","广东顺德清远（英德）经济合作区德盛路以北武广高铁以西",24.191939,113.421443,24.179000,113.413696,1
"4418272016B01348","3a1cbfb8-31b1-4d50-ac36-2a07acb33462","广东省","清远市","清新区","清远市清新区太平镇盈富工业园",23.659397,112.862243,23.652002,112.856136,1
"4418812010B00340","5c3d5236-10c5-4e93-918b-5e974e0761cd","广东省","清远市","英德市","英德市英红云岭街云一路",24.350414,113.448057,24.346968,113.436072,1
"4418022018B00086","b1356edb-1ac8-4088-af6c-dfb8532e1156","广东省","清远市","清城区","清远市清城区石角镇灵洲村民委员会辖区内",23.550133,112.976279,23.541590,112.972816,1
"4418212010B00598","2e302425-f0d1-44f9-8fa2-448c2bf551b5","广东省","清远市","佛冈县","佛冈县石角镇环城东路南侧",23.873879,113.553578,23.871030,113.522344,1
"4418212013B01536","d61d2734-acd5-4990-b364-807f0f97ad34","广东省","清远市","佛冈县","佛冈县迳头镇新区",24.003776,113.698067,23.881946,113.526448,1
"4418022016B00466","68b9895c-0a3b-4f0a-a4d8-78091aba8e1b","广东省","清远市","清城区","清远市清城区石角镇新基村委会辖区内",23.536585,112.991659,23.533548,112.979864,1
"4418822018B02156","7bda991c-26a5-408d-bd0c-9345171a0ad7","广东省","清远市","连州市","连州市连州镇北湖洞3号3幢",24.791008,112.383061,24.789112,112.370296,1
"4418002009B01032","fc8d55a7-e59a-46be-81f2-3a6f9d52afd0","广东省","清远市","连南瑶族自治县","清远市高新区1号小区移民新村44号",24.724229,112.306717,23.690316,113.214768,1
"4418002014B01982","6b39a951-f650-40ac-8b8c-4a21537e6b5e","广东省","清远市","清城区","清远市清城区洲心街道五街73号",23.694214,113.049230,23.679812,113.078360,1
"4418272013B01165","ac9634b6-8d7c-4f2e-9aa5-09918c996c29","广东省","清远市","清新区","清新区禾云镇佛山禅城（清新）产业转移工业园",23.922689,112.929398,23.919272,112.917888,1
"4418812011B00395","d48e7802-83cd-4d6a-b790-becb41770807","广东省","清远市","英德市","英德市桥头镇五石村委巫屋村",24.257997,113.737298,24.244464,113.729880,1
"4418812011B00273-1","2eeb0707-c292-4853-914e-5bcc1a310127","广东省","清远市","英德市","英德市白沙镇太平村更古坑",24.096143,113.769289,24.092700,113.758688,1
"4418812011B00252-1","4ea92849-05d8-4c40-aee0-e54fa437b525","广东省","清远市","英德市","英德市白沙镇太平村更古坑",24.096143,113.769289,24.092700,113.758688,1
"4418812011B00413-1","1ae21998-0367-4999-9778-832913f12fcf","广东省","清远市","英德市","英德市桥头镇五石村委巫屋村",24.257997,113.737298,24.244464,113.729880,1
"4418272013B01224","7f40b82a-6ccd-4917-a845-eeebf061a3f3","广东省","清远市","清新区","清新区禾云镇佛山禅城（清新）产业转移工业园",23.922689,112.929398,23.919272,112.917888,1
"4418272014B01088","c7c92596-0046-45d3-a520-4bc4cd2c4638","广东省","清远市","清新区","清远市清新区浸潭镇黄田村委会、石潭镇雷坑村委会",24.096909,112.791758,24.123256,112.750760,1
"4418812010B00123","8f52ca00-46c8-4226-bef1-4ce88cad8ad6","广东省","清远市","英德市","英德市英城陵园路南门口人民路",24.096952,113.180467,24.093852,113.168360,1
"4418002009B00516","740b58f2-99f5-404a-88ed-470ebf70a719C","广东省","清远市","清城区","清远市横荷镇百加管理区瓦窑街",23.651594,113.069380,23.649720,113.036328,1
"4418002011B01778-3","96539bde-fc58-44ad-81b9-0abff5a4d105","广东省","清远市","清城区","清远市规划区J8、J45号区（东城街莲塘村委会莲塘二队清中实验中学北侧）",23.734866,113.057736,23.661932,113.204344,1
"4418232013B00084","92ffdd17-e2c8-4624-bb53-6735fbf80020","广东省","清远市","阳山县","阳山县七拱镇福泰路",24.311745,112.592700,24.309562,112.569288,1
"4418812015B01505","eaf34729-c1d3-4a7f-8f97-f5c24b7a90fd","广东省","清远市","英德市","英德市英城宝晶路石尾区石苟山熟料厂北",24.148371,113.403886,24.023650,113.299048,1
"4418812015B01485","d7898a6c-a10d-42d9-bf1e-6392e10313ab","广东省","清远市","英德市","英德市英城梅花北路西二巷二排1号",24.195813,113.415186,24.189130,113.403056,1
"4418812013B00262","5e7aba49-4c0f-4ceb-91ca-37ba5f53fed2","广东省","清远市","佛冈县","英德市黎溪镇政府以东、派出所以北",23.991523,113.667629,23.932610,113.267704,1
"4418022009B01732","642d4e65-a179-4ae0-ac24-ed1a759ac363","广东省","清远市","清城区","清远市清城区梁围一街四号901",23.718744,113.041180,23.700410,113.057200,1
"4418022009B01725","1124a345-5663-4e3b-8df4-2bce37cb6c76","广东省","清远市","清城区","清远市清城区松鹤街6号502",23.724644,113.035734,23.720680,113.025616,1
"4418022009B01807","d94d76e5-ad4e-4f53-8e5c-2f68ccbff895","广东省","清远市","清城区","清远市清城区石角镇金康大街水塔楼403号",23.549503,112.980365,23.549270,112.967352,1
"4418022009B01833","8a2043c4-3017-49e9-b290-ac489245e80a","广东省","清远市","清城区","清远市清城区庙园二街二巷16号501",23.704022,113.069477,23.700410,113.057200,1
"4418022009B01883","2b4a3f6d-edd0-46e2-ab96-414f1d4c368e","广东省","清远市","清城区","清远市清城区武安街连科二巷1号",23.710847,113.039619,23.707106,113.027680,1
"4418022009B01848","47227cb2-8f23-4046-b090-6aa0235ab84b","广东省","清远市","清城区","清远市清城区竹仔园北五座四层",23.719335,113.033895,23.706230,113.028704,1
"4418022009B01819","612c99a2-dda5-4488-93ee-fd645540883d","广东省","清远市","清城区","清远市清城区高基里横二巷4号",23.722008,113.034059,23.700410,113.057200,1
"4418212009B00500","9052edaf-de4c-4c93-8aed-c08a231d58dd","广东省","清远市","佛冈县","佛冈县汤塘镇新区",23.755925,113.553104,23.881946,113.526448,1
"4418212009B00494","095fe4f1-c411-4a27-882d-c185b2c70f99","广东省","清远市","佛冈县","佛冈县汤塘镇新区",23.755925,113.553104,23.881946,113.526448,1
"4418002018B00729","6c24dc8d-e630-430e-9cdc-bd6381320e56","广东省","清远市","清城区","清远市清城区横荷街道L2号区",23.633443,113.005302,23.659668,113.045240,1
"4418232018B00556","3ebc427d-347b-4fb3-8ef4-bf320eb3508e","广东省","清远市","阳山县","阳山县阳山镇阳城大街158号",24.482220,112.648687,24.468150,112.636200,1
"4418272011B00177","2973e6e5-6187-4c25-90bb-4e9c9cd52109","广东省","清远市","清城区","县城三十三号区",23.688230,113.062468,23.684480,113.050680,1
"4418822018B02001","2941d08e-ca91-4c87-b6f0-61abdb2e31ac","广东省","清远市","连州市","连州镇万兴东宝华巷7号",24.791382,112.385568,24.783166,112.379704,1
"4418822014B00601","c23f4f3e-8204-459b-9fa6-16913cb149ac","广东省","清远市","连州市","连州镇香云街71号",24.778870,112.394195,24.775820,112.382328,1
"4418022011B00737","1ced0307-58d7-4910-bc5c-4dc4e34b4d1d","广东省","清远市","清城区","清远市清城区白马塱一区左二巷1号702",23.711591,113.035156,23.700410,113.057200,1
"4418812013B00355","3d19f7f1-5a8d-4595-b36d-e2017cead3a7","广东省","清远市","英德市","英德市东华镇英华茶场S252线东侧",24.228905,113.678194,24.225506,113.669416,1
"4418002018B00818","2351c7d9-b640-4fba-8a58-cc01d44c27b8","广东省","清远市","清城区","清远百嘉科技创新园",23.646574,113.073449,23.637000,113.060256,1
"4418822014B00552","3dcd2068-4462-4fd3-9800-3e99670ce9b5","广东省","清远市","连州市","连州市连州镇爱民路23号第二栋101房",24.786413,112.385287,24.773364,112.390784,1
"4418812012B01191","2620970d-b1de-4fc3-a18a-8bb12e43ae00","广东省","清远市","英德市","英德市英城光明路",24.201447,113.407144,24.197592,113.397312,1
"4418812013B02418","fb4c13b3-bfeb-45fd-a68b-14f93c253a10","广东省","清远市","英德市","英德市大站镇东岸开发小区",24.141316,113.490854,24.163750,113.427424,1
"4418212012B00052","c64fcfca-87e0-405c-a7ac-374eef9fe45e","广东省","清远市","佛冈县","佛冈县高岗镇省道252线北侧",24.036145,113.598859,24.024900,113.579008,1
"4418232011B00077","ebe4167b-2111-4958-8248-e266bc215a95","广东省","清远市","阳山县","阳山县黎埠镇文明街",24.568127,112.432437,24.559936,112.422040,1
"4418022009B00765","5d0c8064-6066-4dfe-9548-3bf26634279bT","广东省","清远市","清城区","清远市清城区麦围二街左六巷五座501",23.722101,113.038079,23.706230,113.028704,1
"4418022009B00408","50a1de52-6c92-4331-b493-fa5c6a102421T","广东省","清远市","清城区","清远市清城区东城街办莲塘街8号801",23.721009,113.055513,23.724624,113.054008,1
"4418022009B00392","3cf56c67-a432-4003-b9a5-5afaf1141009T","广东省","清远市","清城区","清远市清城区新围街5号二层东",23.704022,113.069477,23.700410,113.057200,1
"4418822018B00093","b6e7741d-066f-4d64-987e-7f6ac4ac39dd","广东省","清远市","连州市","连州市连州镇城东上菜园村五金厂背",24.791382,112.385568,24.788480,112.373400,1
"4418272016B01355","a9239aaf-e873-43cc-9268-a1dd5d218422","广东省","清远市","清新区","清远市清新区太平镇盈富工业园",23.659397,112.862243,23.652002,112.856136,1
"4418022016B02685","89102e0a-cf86-4a18-8292-0ecf58398e32","广东省","清远市","清城区","清远市清城区石角镇新基村",23.536605,112.991709,23.533548,112.979864,1
"4418822014B00406","8bb316da-26f5-4801-8fea-713cf7eb5861","广东省","清远市","连州市","连州市连州镇城隍街右城脚27号",24.791382,112.385568,24.775840,112.380112,1
"4418822011B00230","ee7c21ed-3c8d-44a7-b494-b161c28ec154","广东省","清远市","连州市","连州市慧光路第177号地段601房",24.782846,112.391954,24.781622,112.379288,1
"4418822009B00248","dccc0acd-9730-4d9e-be54-21a31f921f38C","广东省","清远市","连州市","连州市星子镇星江路11号",25.003824,112.565754,25.002372,112.556024,1
"4418022009B01131","514f1bc2-c097-4e70-8d83-254bc3daef0cT","广东省","清远市","清城区","清远市清城区南兴社二巷四座303",23.710653,113.039977,23.700410,113.057200,1
"4418822013B00463","6f430e83-11ec-4506-a7f7-8d1b9aa03921","广东省","清远市","连州市","连州镇城北俞屋寨村",24.791382,112.385568,24.801750,112.366688,1
"4418022017B00538","4a4b591f-e7a0-48f4-86f4-cce452a2cd3d","广东省","清远市","清城区","清远市清城区石角镇界牌村委会辖区内",23.516095,112.968783,23.513662,112.956928,1
"4418252009B00084","b125083a-2912-40c4-9a0f-1af7319a5381C","广东省","清远市","连山壮族瑶族自治县","连山壮族瑶族自治县吉田镇沿江东路(县劳动保障局西侧)",24.572783,112.101369,24.569344,112.088912,1
"4418002008B00136","390a5105-e7ec-42d2-a97a-928b1a151ad7","广东省","清远市","清城区","清城区周围十一座901",23.704022,113.069477,23.700410,113.057200,1
"4418212013B00460","6a03f107-d465-4a79-867d-4e1cc928ad45","广东省","清远市","佛冈县","佛冈县高岗镇省道252线北侧",24.036145,113.598859,24.024900,113.579008,1
"4418812013B01960","69660bbf-c17d-4bc1-a9d8-b70e12c226a9","广东省","清远市","英德市","英德市大湾镇永芳路",24.366901,112.984163,24.339336,112.946368,1
"4418212008B00602","226d7d71-ef25-42e0-a186-3b035d3674ba","广东省","清远市","佛冈县","佛冈石角镇摩罗山",23.874753,113.521139,23.865744,113.544200,1
"4418812010B00229","d701bcc4-b627-4ba0-9571-d2efa3d3f5eb","广东省","清远市","英德市","英德市英城人民路37号",24.096952,113.180467,24.187880,113.398872,1
"4418022011B00830","c23a8f1c-1657-4ad1-ae8a-71a1d3f4f5ff","广东省","清远市","清城区","清远市清城区东城街道澜水村民委员会",23.713002,113.056432,23.727140,113.046680,1
"4418822018B02190","1228a533-da7c-41a3-ac6d-1c71afb6b578","广东省","清远市","连州市","连州市连州镇南门路7号之一",24.782592,112.387360,24.788480,112.373400,1
"4418822018B02202","8d046cb8-38fb-4bd1-830b-c42dcdde26a4","广东省","清远市","连州市","连州市连州镇南门路7号",24.782592,112.387360,24.781002,112.375624,1
"4418822013B00034","1a702a54-1da1-4678-89e2-cff53dad990f","广东省","清远市","连州市","连州市中山北路折桂巷3号301房",24.784905,112.384764,24.781982,112.372728,1
"4418272016B00798","4b11494e-2d84-4a74-a508-51c531de939e","广东省","清远市","清新区","清远市清新区禾云镇佛山禅城（清新）产业转移工业园",23.922689,112.929398,23.919272,112.917888,1
"4418822011B00492","edb60687-b736-46f1-a13d-71a233fe08ee","广东省","清远市","连州市","连州市城隍街石灰巷21号",24.786467,112.383573,24.783250,112.372056,1
"4418812008B00398","691e9eb2-956d-417b-a8b5-55297b889df2","广东省","清远市","英德市","英德市浛洸镇前进路、保民路、人民西路",24.265881,113.133568,24.262536,113.121200,1
"4418812008B00682","463e9fb3-b16a-4be8-98f4-4dac6ddd39e1","广东省","清远市","英德市","英德市大站镇",24.141316,113.490854,24.163590,113.427888,1
"4418822011B00626","ba113b69-9e7b-414f-b700-0d303cbba416","广东省","清远市","连州市","连州市单马新村94号",24.786467,112.383573,24.783250,112.372056,1
"4418822018B02370","d0a84913-f8a4-44ac-9d42-9323fb7a2939","广东省","清远市","连州市","连州市双车路39号",24.799764,112.388394,24.783250,112.372056,1
"4418212018B00139","3562b851-869c-44d9-94ab-00a20feda6f1","广东省","清远市","佛冈县","佛冈县石角镇三莲村三八以东地段",23.874753,113.521139,23.869718,113.572528,1
"4418212018B00121","6fe5d594-6715-48fa-b448-984563a220b7","广东省","清远市","佛冈县","佛冈县石角镇三莲村三八以东地段",23.874753,113.521139,23.869718,113.572528,1
"4418212013B00397","d0e7e2a1-7fed-4fd4-a480-3e93dbb82879","广东省","清远市","佛冈县","佛冈县石角镇英佛公路东侧",23.921183,113.494178,23.872180,113.532096,1
"4418272016B00086","18beb595-2fbb-40d4-b0f2-8fb0a327fa44","广东省","清远市","清新区","清远市清新区浸潭镇教育路南二巷2号",24.071277,112.813117,24.068054,112.806632,1
"4418002010B01306","668c21e8-2707-4e57-bc30-771b6cb39d5c","广东省","清远市","清城区","清远市清城区龙塘镇新庄村民委员会",23.598434,113.083644,23.609740,113.072696,1
"4418812010B00953","42eec17f-7d49-454b-a348-ff5eada21940","广东省","清远市","英德市","沙口镇清溪村白马岭",24.397111,113.543313,24.778292,112.323232,1
"4418232010B00029","ba5c42ed-9de8-46a4-a7a4-16c7473d4ed9","广东省","清远市","阳山县","阳山县松荣大道两旁",24.488200,112.650734,24.468150,112.636200,1
"4418812014B00162","6bd9abd2-00e3-4d5d-b71b-fd80c1fe8cbd","广东省","清远市","英德市","英德市英城建设路（峰光路至浈阳路）",24.193160,113.417753,24.183240,113.401760,1
"4418002009B00877","4cdabe83-2862-4121-8288-bf041b0dc376","广东省","清远市","清城区","清远市清城区龙塘镇新城龙国道（金龙苑A梯）",23.608552,113.084942,23.605436,113.073968,1
"4418002009B00898","98a21010-2a48-46df-bd45-99408f2b9868","广东省","清远市","清城区","清城区源潭镇公园路右八巷5号",23.669362,113.204216,23.665964,113.192360,1
"4418822009B01178","b9fa0f63-8b5e-4c22-a597-054cb4e5b2b7","广东省","清远市","连州市","连州市文屋路32号",24.796446,112.383480,24.731734,112.346016,1
