electr_supervise_no,id,province,city,district,location,bd_lat,bd_lon,tdt_lat,tdt_lon,flag
"3401222010B01017","de2b7a53-2f05-4cc8-a077-0d1407ca05ba","安徽省","合肥市","肥东县","肥东县经济开发区祥和路西侧",31.889535,117.436136,31.881242,117.424176,1
"3401212015B01575","3cbdd453-5da8-493a-8377-7d253491f495","安徽省","合肥市","长丰县","双凤开发区",31.991296,117.242381,32.032616,117.254976,1
"3401212015B01514","363745aa-3289-4bc7-ac13-7a1a88753700","安徽省","合肥市","长丰县","双墩镇",32.051383,117.240122,32.008018,117.250576,1
"3401212014A01540","6a8a00dd-d000-4fb8-8390-fb80464274c9","安徽省","合肥市","长丰县","长丰县双墩镇",32.051383,117.240122,32.009732,117.259032,1
"3401002014B01226","e5f21e3b-be0e-46c4-948c-22ee7d7faba0","安徽省","合肥市","蜀山区","合肥市高新区创新大道与磨子潭路交口东北角NA2-1地块",31.833298,117.189883,31.856290,117.098536,1
"3401212015B01910","7046cb5a-66b5-4902-8100-948eb5847895","安徽省","合肥市","长丰县","双凤开发区",31.991296,117.242381,32.032616,117.254976,1
"3401222015B00426","74e99b8e-2a24-4284-8922-a34f30ab61be","安徽省","合肥市","肥东县","撮镇镇合马路南",31.817135,117.485905,31.851390,117.545480,1
"3401002015B01807","26f3880e-4f12-4335-83d9-82af4cab7808","安徽省","合肥市","蜀山区","合肥市蜀山产业园花峰路与振兴路交口东北角",31.863415,117.189772,31.861470,117.169704,1
"3401232014B00270","41760f31-67ca-487a-aa81-2cae8f6dc2d7","安徽省","合肥市","肥西县","严店乡",31.617137,117.318247,31.632380,117.202536,1
"3401002009B04285","49bd3b91-4482-49aa-a6fd-cfe23aaf9cebC","安徽省","合肥市","瑶海区","铜陵北路与新汴河路交口东南角",31.924373,117.335583,31.905560,117.323888,1
"3401222016B02279","f374c414-3845-4b9b-830f-aabcb0ae9c2c","安徽省","合肥市","蜀山区","肥东经开区龙脊山路东侧",31.826578,117.233443,31.882770,117.434776,1
"3401222012B00632","9f67b848-deb5-44d1-a9c3-f9f7a6118f22","安徽省","合肥市","瑶海区","撮镇镇淮南铁路南、东风大道西",31.860213,117.423740,31.845590,117.411600,1
"3401232008B00239","5f003309-42c0-4e6d-bbc3-e39eea40f92d","安徽省","合肥市","肥西县","桃花镇",31.771536,117.157251,31.778360,117.214000,1
"3401222015A01485","09a2c146-a020-4de7-8ba2-0296629dc788","安徽省","合肥市","肥东县","肥东县撮镇镇四顶山路与众欢路交口",31.774392,117.498083,31.770702,117.486080,1
"3401232008B00228","5cf9a844-442d-4ca6-8229-f3788c915f26","安徽省","合肥市","肥西县","桃花镇",31.771536,117.157251,31.778360,117.214000,1
"3401002008B00295","8E1E51B03D0149CDBEAB028EE0929570","安徽省","合肥市","蜀山区","齐云路",31.797709,117.225498,31.793508,117.213936,1
"3401002008B00045","ff377126-421d-4b50-a04e-678724564e04","安徽省","合肥市","蜀山区","纬D路北",31.826578,117.233443,31.822454,117.222312,1
"3401232013B03375","ae51a3cf-3e1f-47a8-8f1d-c84a46558c6f","安徽省","合肥市","肥西县","官亭镇长油路西侧",31.845171,116.791072,31.860950,117.232016,1
"3401002009B01408","cda94ff1-7f3c-416b-b271-d05defde49b2","安徽省","合肥市","瑶海区","新站区",31.886765,117.326987,31.876340,117.302376,1
"3401002009B01428","c74728a7-df8c-456b-8869-825bc774bb38","安徽省","合肥市","庐阳区","阜阳北路",31.961258,117.275262,31.894770,117.280520,1
"3401002014B01681","8d7f5d99-abbe-4ed7-a16d-15859c63e884","安徽省","合肥市","包河区","合肥市包河区花园大道以南、宁夏路以西",31.779220,117.348943,31.774874,117.349232,1
"3401002009B02395","c2ff8acf-ede1-4322-862f-cdde4d79e0aaC","安徽省","合肥市","蜀山区","高新区海棠路以南，金桂路以西AS-16地块",31.827396,117.195004,31.819614,117.188440,1
"3401222008B00389","da4b8063-93e2-41ab-bb31-fc4ccc72853a","安徽省","合肥市","肥东县","撮镇镇唐安居委会",31.835372,117.424334,31.664360,117.700400,1
"3401212008B00180","04de32f8-d616-459f-bae9-78862b1b6551","安徽省","合肥市","长丰县","双凤开发区",31.991296,117.242381,32.032616,117.254976,1
"3401222008A00508","8e0987af-3e69-4aa5-80b1-f2ae9edd8fd1","安徽省","合肥市","肥东县","合肥循环经济示范园境内",31.809502,117.497090,31.822400,117.474696,1
"3401002010B06676","16aed5d1-d47c-4cad-b2b2-a6972e6ee371","安徽省","合肥市","瑶海区","昌盛路以南",31.889090,117.317642,31.330008,117.089448,1
"3401212016B01676","faf86a2a-9ad9-4679-8d4e-06625223cce6","安徽省","合肥市","长丰县","双凤开发区",31.991296,117.242381,32.032616,117.254976,1
"3401232015B00716","0f656da5-30f0-4c2c-82e2-8cc2d10981e4","安徽省","合肥市","肥西县","严店乡",31.617137,117.318247,31.632380,117.202536,1
"3401222012B00175","624075cc-eaab-4e25-bd86-daa4222295f6","安徽省","合肥市","肥东县","肥东县桥头集镇小韩村",31.776483,117.545526,31.770820,117.538968,1
"3401002009B00418","a4df2af7-7f76-4dda-b9a1-7253ec1ba0e6","安徽省","合肥市","包河区","包河工业区沈阳路南",31.797785,117.332141,31.775200,117.316840,1
"3401002015B00327","879f4435-3875-4596-9e54-cb7903417840","安徽省","合肥市","包河区","合肥市包河区安凯汽车股份东花园大道北",31.799293,117.316576,31.801280,117.359072,1
"3401232017B01003","72d47057-37c3-4a81-8422-a2318709dd67","安徽省","合肥市","肥西县","柏堰科技园",31.801087,117.190623,31.799500,117.161200,1
"3401002015B00069","e6f59cdb-2564-4f67-be7b-946c4eac9abe","安徽省","合肥市","瑶海区","合肥市庐阳区临泉路以南、凤凰山路以东",31.892927,117.299590,31.882548,117.239920,1
"3401222013A00358","86e5d1ea-648a-4ff4-9ea5-5d6c9c88b6a9","安徽省","合肥市","肥东县","肥东县经开区包公大道北",31.897348,117.419219,31.893196,117.411952,1
"3401222008B00165","4caf38b9-cffc-482b-b74b-4cb3aa69c170","安徽省","合肥市","肥东县","肥东新城经济开发区团结路南侧",31.826451,117.463493,31.878004,117.429704,1
"3401222016B01764","ccd1bac0-cb77-433b-96e3-1a738afe2e8d","安徽省","合肥市","瑶海区","肥东县撮镇镇瑶岗路与东风大道交口西南角",31.860213,117.423740,31.845590,117.411600,1
"3401222012B00728","b23a73d8-5e47-4a28-a0ac-1e44b1c7edf6","安徽省","合肥市","肥东县","撮镇镇唐安社区",31.838399,117.408140,31.830490,117.396664,1
"3401222012B00715","4c26ff4f-0421-40d2-ae0c-ca152ddcdda7","安徽省","合肥市","肥东县","撮镇镇建华社区",31.838399,117.408140,31.823840,117.379792,1
"3401212014B01685","dfcb2996-7eab-40d8-bb86-2d3bef9f5c75","安徽省","合肥市","长丰县","双墩镇",32.051383,117.240122,32.008018,117.250576,1
"3401002010B00288","83ae1dc8-14d8-472c-b044-5fcacd3c4502C","安徽省","合肥市","瑶海区","徽州大道215号",31.860652,117.338590,31.843810,117.277416,1
"3401002009B04557","9a714847-8388-4488-ab50-18eb6f0e398b","安徽省","合肥市","瑶海区","明光路与胜利路交口",31.875767,117.311443,31.868600,117.300152,1
"3401222018B01376","f89ed612-503d-4f29-8c7f-bdb72a8baace","安徽省","合肥市","瑶海区","肥东经开区新安江路北侧",31.865908,117.373491,31.882770,117.434776,1
"3401232013B00012","15b9baed-2ba7-4c80-ae35-199df582d830","安徽省","合肥市","蜀山区","桃花工业园",31.770728,117.213464,31.758420,117.197600,1
"3401232016B01066","deb79d95-9c6c-4a59-b014-cfa3586a8dac","安徽省","合肥市","蜀山区","桃花工业园",31.770728,117.213464,31.758420,117.197600,1
"3401222016B02057","a394f4f7-958e-49d7-96c7-c4aa52e16bae","安徽省","合肥市","肥东县","肥东县店埠镇石塘路与经一路交口西北角",31.861792,117.530608,31.884180,117.474440,1
"3401232016B01038","813f7b37-f6fd-4361-9197-019dbe075437","安徽省","合肥市","肥西县","严店乡",31.617137,117.318247,31.632380,117.202536,1
"3401002010B00144","01c9db33-848e-449b-a8ea-242689fc3187","安徽省","合肥市","包河区","包河工业区延安路北、重庆路西",31.797785,117.332141,31.775200,117.316840,1
"3401232012B01786","3fab2f39-2ecd-4f9a-9e28-98de1903661c","安徽省","合肥市","肥西县","柏堰科技园",31.801087,117.190623,31.799500,117.161200,1
"3401232012B02466","bba52c6d-41cb-44d6-a661-d28fa4c62fb0","安徽省","合肥市","肥西县","合肥市肥西县桃花工业园",31.740114,117.257067,31.785000,117.139640,1
"3401002012B03353","82a3d3e8-ab72-470c-a57b-61c9caf47add","安徽省","合肥市","肥西县","合肥高新区文曲路与燕子河路交口东北角（KC2-4）地块",31.837523,117.142245,31.833120,117.130176,1
"3401002012B03200","462768fd-a002-4b5d-befd-0abb9405b583","安徽省","合肥市","庐阳区","合肥市庐阳区蒙城北路以西，规划耀远路以南",31.927630,117.280914,31.879640,117.272272,1
"3401002010B00248","4e1e645b-55df-4c58-90b4-0faacae8ac1c","安徽省","合肥市","包河区","祁门路122号",31.817757,117.305943,31.822454,117.222312,1
"3401222011B00581","7e5b19fa-cacf-4815-9f92-1ed1043a4e5d","安徽省","合肥市","肥东县","合肥循环经济示范园",31.809502,117.497090,31.822400,117.474696,1
"3401222011B00608","67295f18-8508-464c-b552-6a865a8b8088","安徽省","合肥市","肥东县","肥东县经开区横大路北",31.864903,117.450428,31.860870,117.438168,1
"3401232013B03040","322faf71-4b0f-44d8-a05c-8f1b4b866ea9","安徽省","合肥市","肥西县","小庙镇工业聚集区新民路东侧",31.851136,117.069258,31.874720,117.399144,1
"3401222010B00757","ddda20cf-3ae4-4fa7-a885-c2c479bc4d86","安徽省","合肥市","肥东县","撮镇镇店忠路东侧",31.830165,117.490846,31.837482,117.468760,1
"3401222010B00726","88979ff3-d69f-4255-a151-e610b030453f","安徽省","合肥市","肥东县","撮镇镇店忠路东侧",31.830165,117.490846,31.837482,117.468760,1
"3401212014B00012","460e9c4f-f4c6-4dcd-a63f-fb4ee4f7e052","安徽省","合肥市","长丰县","双凤开发区",31.991296,117.242381,32.032616,117.254976,1
"3401002014B01517","08674649-af70-47bb-b8ec-0319a57bff29","安徽省","合肥市","长丰县","合肥市新站区东方大道以北、卧龙路以东",31.957284,117.359400,31.952672,117.348000,1
"3401232011B00179","b10da4da-4e57-4fa7-bcd2-6f9e55016a47","安徽省","合肥市","肥西县","高刘镇莲荷路与海棠路交口",31.942164,116.945676,31.819614,117.188440,1
"3401002009B01869-2","2d6fbe36-9ae3-4a6f-8266-fde542651129AA","安徽省","合肥市","庐阳区","庐阳工业区内",31.946028,117.279042,31.926200,117.266632,1
"3401002009B01458","9be9a96b-0f14-47e7-85bb-6f6e76d09a0a","安徽省","合肥市","庐阳区","庐阳工业区内",31.946028,117.279042,31.926200,117.266632,1
"3401222012B00676","dc4011fc-a155-4481-9232-fb38a50f43ee","安徽省","合肥市","肥东县","店埠镇西山驿居委会",31.835470,117.588381,31.829700,117.582456,1
"3401222014A00017","ac3655c5-c838-4bba-ac30-738079cb1a16","安徽省","合肥市","肥东县","合肥循环经济示范园境内",31.809502,117.497090,31.822400,117.474696,1
"3401232010B01486","8d487381-5f26-4c3e-bae2-88d7a37840bf","安徽省","合肥市","蜀山区","桃花工业园",31.770728,117.213464,31.758420,117.197600,1
"3401002016B04680","e12b3dfb-4a9a-4662-9d42-fbba0e421b72","安徽省","合肥市","庐阳区","庐阳区蒙城北路以西、耀远路以北地块",31.927630,117.280914,31.879640,117.272272,1
"3401222012B01206","988ff54f-8ba0-4546-ae9f-70fc8158b78f","安徽省","合肥市","肥东县","肥东县经济开发区公园路南侧",31.893890,117.475401,31.876932,117.445608,1
"3401222015B01997","aece37eb-8352-4dbc-9e51-66391c8a4ff3","安徽省","合肥市","肥东县","循环园宏龙兴大道与宏图大道交口西北侧",31.774088,117.511316,31.775070,117.194808,1
"3401002009B02557","e1db1b58-b7ef-4efa-a31f-74be7d197e7f","安徽省","合肥市","瑶海区","瑶海工业园",31.895798,117.348984,31.906980,117.359208,1
"3401222013B00048","60929e58-2ccc-48c9-b2ab-b5d0788af6f2","安徽省","合肥市","肥东县","撮镇镇唐安社区",31.838399,117.408140,31.830490,117.396664,1
"3401002011B03077","03df5262-56dc-48d9-a19f-494e0fc3bab7","安徽省","合肥市","蜀山区","合肥市经济技术开发区繁华大道你那、宿松路东",31.785068,117.265311,31.839780,117.267536,1
"3401002011B03024","624ac000-9305-405c-be93-042e06c7c481","安徽省","合肥市","蜀山区","合肥市经济技术开发区天都路西、云谷路南",31.751392,117.236691,31.715330,117.255632,1
"3401002008B00168","D152E666857C46D194C417BC217E5858","安徽省","合肥市","肥西县","福州路",31.749630,117.309100,31.745908,117.285328,1
"3401232014B00174","9814c554-d07b-4808-9681-6025541dc75d","安徽省","合肥市","蜀山区","桃花工业园",31.770728,117.213464,31.758420,117.197600,1
"3401222014B00476","115f3d40-f8f0-4fac-8f81-484b31781376","安徽省","合肥市","瑶海区","肥东县撮镇镇大众路东",31.910684,117.405680,31.889610,117.463608,1
"3401222012B01530","7b7f56f7-7120-4255-8e87-8e306f0d150c","安徽省","合肥市","肥东县","合肥循环经济示范园境内",31.809502,117.497090,31.822400,117.474696,1
"3401222012B01626","6641c640-e529-4f7e-8a28-52e8aed19533","安徽省","合肥市","肥东县","肥东经开区金阳路东",31.887302,117.446730,31.878118,117.434952,1
"3401232010B01073","c08d0b8a-5d1d-4597-98a0-1bf6f532c852","安徽省","合肥市","肥西县","高新区柏堰科技园",31.813348,117.191137,31.799500,117.161200,1
"3401232011B00936","948f677d-d9c4-4069-aded-f0f4da863855","安徽省","合肥市","肥西县","花岗镇",31.638249,117.053711,31.630500,117.051760,1
"3401232010B01498","56bf404e-d8a1-4741-be32-a859a75b799a","安徽省","合肥市","肥西县","桃花镇",31.771536,117.157251,31.778360,117.214000,1
"3401212015B01807","27724971-c8e3-4fee-b134-e4dcdf7c5956","安徽省","合肥市","长丰县","岗集镇",31.997379,117.147602,31.951960,117.179896,1
"3401002011B00505","ac958782-ab02-4129-beff-5e992762b5e4","安徽省","合肥市","瑶海区","奎河路以北、万罗山路以东",31.929954,117.315181,31.926770,117.303496,1
"3401002011B00404","af20aade-e1e4-4e41-8da5-19c50e333d2a","安徽省","合肥市","瑶海区","天水路以北、万罗山路以西",31.929954,117.315181,31.926770,117.303496,1
"3401222013A00165","e6eebe3e-a011-4228-9f94-b4f3ed126eee","安徽省","合肥市","肥东县","店埠镇中心社区",31.868182,117.479860,31.873960,117.207840,1
"3401222013A00180","00c9fc8f-6f8c-4377-8c75-6436623f1537","安徽省","合肥市","肥东县","店埠镇中心社区、撮镇镇马桥社区",31.868182,117.479860,31.730930,117.154032,1
"3401002016B03097","199416e8-484b-4274-83bb-9dcf1cd12081","安徽省","合肥市","瑶海区","合肥市新站区文忠路与学府路交口西北角",31.938259,117.382397,31.823096,117.436184,1
"3401002013B02167","7e1a6b30-a489-42e2-b8ba-7a3f2a726548","安徽省","合肥市","肥西县","合肥市高新区创新大道与彩虹路交口东北角KA2-2地块",31.846731,117.140797,31.842484,117.126184,1
"3401002009B00376","3826d34c-09e9-40dd-ba7e-50062c514c7a","安徽省","合肥市","包河区","包河工业区北京路西，人民大街北",31.779235,117.329416,31.775200,117.316840,1
"3401212018A00487","a4468d89-1273-4ec4-ab49-c698654d5620","安徽省","合肥市","蜀山区","双凤",31.826578,117.233443,32.032616,117.254976,1
"3401212016B01377","3a4f97e6-259f-4118-b050-baf7555d878d","安徽省","合肥市","长丰县","吴山镇",32.085422,117.083568,32.070740,117.062216,1
"3401002010B07666","d3657912-676a-42e0-99f2-89e77f87fa0b","安徽省","合肥市","瑶海区","合肥市琅琊山路北侧",31.878809,117.313717,31.876022,117.300680,1
"3401002010B07317","b17cd860-dc0f-48c3-8eca-fabde30cc058","安徽省","合肥市","肥西县","高新示范区永和路以西（KB2-2）地块",31.827181,117.151724,31.816842,117.139544,1
"3401002010B07256","488eb696-04d4-4058-993f-c676c44b2453","安徽省","合肥市","肥西县","南岗科技园创新大道以东、大别山路以北（NB-2-1）地块。",31.841684,117.140538,31.860566,117.110280,1
"3401222016A02894","cd995856-5b9d-481b-9702-800a68838abb","安徽省","合肥市","蜀山区","合肥东部新城境内",31.826578,117.233443,31.911908,117.345344,1
"3401222013B00827","41ea6dae-5576-4e65-b3c1-a6bdcb739af6","安徽省","合肥市","肥东县","肥东县循环经济示范园境内",31.893890,117.475401,31.822400,117.474696,1
"3401002016B02106","cdd51822-3404-409c-a31b-d8820da7ba01","安徽省","合肥市","蜀山区","合肥市包河区金寨南路1074号",31.770009,117.218402,31.795470,117.304296,1
"3401222012B00208","cc5ec21a-cbad-4383-aed5-b3b5f331d8d3","安徽省","合肥市","肥东县","肥东县店埠镇撮镇路西侧",31.861792,117.530608,31.885500,117.454904,1
"3401222015A00308","350a2fed-b16f-49e6-a008-018e70544a69","安徽省","合肥市","肥东县","肥东县撮镇镇、循环园、长临河镇境内",31.838399,117.408140,31.822400,117.474696,1
"3401222016B02013","f6a29cab-5cd3-413f-8e23-697404a29ee9","安徽省","合肥市","瑶海区","合肥东部新城站北路南、火车站广场西",31.890855,117.321138,31.887430,117.309304,1
"3401002014B01096","4529053f-f8b3-4129-a6c7-436b57703b18","安徽省","合肥市","瑶海区","合肥市新站区文忠路以东、新海大道以北",31.918707,117.375838,31.938410,117.372144,1
"3401232012B02097","5d1af6dd-bb78-4139-9061-220fa75fe2e7","安徽省","合肥市","肥西县","严店乡",31.617137,117.318247,31.632380,117.202536,1
"3401002009B02366","2b0a9170-cc73-46b9-8023-f86b3579c5be","安徽省","合肥市","蜀山区","蓬莱路西，紫蓬路南",31.741744,117.217211,31.741608,117.207096,1
"3401002009B00606","0c774c5d-e591-48bb-94fa-93edf79e0b98","安徽省","合肥市","包河区","包河工业区河北路东、银川路北",31.797785,117.332141,31.775200,117.316840,1
"3401002018B00836","00df44ed-c759-44ca-9404-bbcc0cd2cf2d","安徽省","合肥市","长丰县","合肥新站区东淝河路以南、通淮中路以西",31.958418,117.355047,31.896240,117.313216,1
"3401232011B01330","b1a84458-e722-44d0-a195-3d960d45bae3","安徽省","合肥市","蜀山区","桃花工业园",31.770728,117.213464,31.758420,117.197600,1
"3401232011B00155","7ad93a59-bf36-444a-8a6b-a811360a9174","安徽省","合肥市","蜀山区","桃花工业园",31.770728,117.213464,31.758420,117.197600,1
"3401232018B00030","947f3e08-51ec-45aa-a9b7-513c92eccf03","安徽省","合肥市","蜀山区","合肥空港经济示范区",31.826578,117.233443,31.682210,117.289552,1
"3401232014B00330","38065aa5-2961-4f38-81ea-2926819150ba","安徽省","合肥市","肥西县","柏堰科技园",31.801087,117.190623,31.799500,117.161200,1
"3401002013B08070","435ed1af-f7f0-4a05-b837-76f417275a89","安徽省","合肥市","庐阳区","合肥市庐阳区濉溪路254号1幢107室",31.885419,117.277665,31.880730,117.259472,1
"3401222018A01937","f4d9fa73-f853-4a39-b3d9-adb60381684e","安徽省","合肥市","肥东县","肥东县撮镇镇先锋社区",31.838399,117.408140,31.889610,117.463608,1
"3401002009B01430","b76cbcc0-2003-41a2-b312-42ab8f4bc19c","安徽省","合肥市","肥西县","玉龙路东",31.749935,117.287055,31.743828,117.273952,1
"3401222008B00416","4665ce92-a79f-4d17-aec4-a47145e8a4b0","安徽省","合肥市","肥东县","长江东路北侧",31.880539,117.471589,31.822454,117.222312,1
"3401232016B00166","52324d3a-efe3-4f7d-b772-ceaa93be938b","安徽省","合肥市","肥西县","花岗镇",31.638249,117.053711,31.630500,117.051760,1
"3401002016B00241","59b6b91b-6c24-4788-a558-b32295e061bb","安徽省","合肥市","肥西县","合肥市滨湖区西藏路以西、遵义路以南",31.733951,117.287623,31.719894,117.275552,1
"3401232013B00340","82788b38-938f-4446-8366-3f7504996c2a","安徽省","合肥市","肥西县","严店乡",31.617137,117.318247,31.632380,117.202536,1
"3401232013B00035","b041ff7f-afd7-4094-ae77-7bd3fee236f0","安徽省","合肥市","蜀山区","桃花工业园",31.770728,117.213464,31.758420,117.197600,1
"3401002011B00765","150f0c11-cc07-43bf-bcab-a3dd6c5e9053","安徽省","合肥市","包河区","包河区望江路与宁国路交口东北角",31.856018,117.297835,31.797110,117.303560,1
"3401212016B01118","a3b7326c-0052-445a-a4b5-32ce0e69707c","安徽省","合肥市","长丰县","吴山镇",32.085422,117.083568,32.070740,117.062216,1
"3401212016B00929","705ed60c-861f-4d81-a7f4-7681a7c5eacf","安徽省","合肥市","长丰县","水湖镇",32.482825,117.149682,32.481620,117.159960,1
"3401212016B00795","657d9bf3-a1da-45cb-b131-df0fd65652b9","安徽省","合肥市","长丰县","水湖镇",32.482825,117.149682,32.481620,117.159960,1
"3401222011B00610","f9b27fe9-4113-4efb-929b-c3b6acb54dc9","安徽省","合肥市","肥东县","肥东县经开区纬一路南",31.893890,117.475401,31.882770,117.434776,1
"3401222011B00725","1e837387-e923-4ee7-9adc-3ec8b21812ba","安徽省","合肥市","肥东县","撮镇镇新安社区",31.838399,117.408140,31.824310,117.428520,1
"3401002018B01043","ce5b5943-9225-4d30-82ea-42d5daae0834","安徽省","合肥市","瑶海区","合肥市瑶海区长江东路南、大众路东",31.918157,117.404983,31.906634,117.393400,1
"3401222018B01419","3112ca8a-7b70-497b-aa5d-a70cfe4114a9","安徽省","合肥市","肥东县","肥东县元疃镇合青路南侧",32.153177,117.431772,32.149570,117.419336,1
"3401222018B01392","c806be73-9599-4e54-b310-2f1d649c81d2","安徽省","合肥市","蜀山区","肥东经开区相城路东侧",31.826578,117.233443,31.882770,117.434776,1
"3401222018B01437","80958a82-9555-4100-b25c-2151cfafca41","安徽省","合肥市","蜀山区","肥东经开区四号路东侧",31.826578,117.233443,31.882770,117.434776,1
"3401002010B00274","c2a3ad87-5d58-4799-b54f-8b76452b5118C","安徽省","合肥市","包河区","金寨路与习友路交口",31.833527,117.269696,31.797580,117.232640,1
"3401002009B01416","463892ff-155b-481b-810d-12f3950dcd61","安徽省","合肥市","瑶海区","新站区",31.886765,117.326987,31.876340,117.302376,1
"3401232011B00525","fc7bc0c8-4a6e-47c5-b92f-59e727b98af2","安徽省","合肥市","肥西县","上派镇",31.709795,117.168572,31.709070,117.152496,1
"3401002015B01117","bc13f343-523e-458e-bf4e-5e2023900c51","安徽省","合肥市","蜀山区","合肥高新区",31.853975,117.207287,31.833120,117.130176,1
"3401232015B00794","56995e6e-5abe-43ba-8264-d33d795adcb3","安徽省","合肥市","蜀山区","新港工业园",31.826578,117.233443,31.712270,117.244104,1
"3401002009B00790","2e634d95-af14-4a51-98e7-f08da7097ed0","安徽省","合肥市","蜀山区","樊洼路6号",31.863797,117.234558,31.865508,117.199912,1
"3401212008B00202","0c067d22-6297-4225-9363-94555be39f12","安徽省","合肥市","长丰县","双凤开发区",31.991296,117.242381,32.032616,117.254976,1
"3401002012B02300","21eaa05f-67a7-45d8-9b9a-5864dc69da7d","安徽省","合肥市","蜀山区","合肥市潜山路以东、万佛路以北",31.825715,117.238219,31.823942,117.226600,1
"3401002010B00340","eedef287-1a9b-4190-9561-ec0ef3369dc7","安徽省","合肥市","庐阳区","庐阳工业区内",31.946028,117.279042,31.926200,117.266632,1
"3401002018B00947","7a6dbbd2-f7a5-42af-85e6-dd8dca669856","安徽省","合肥市","庐阳区","合肥市庐阳区亳州路与北一环路交口南",31.885047,117.270283,31.881600,117.276736,1
"3401002010B00554","b9e2a67e-9401-49e5-af4f-194d2feaf415","安徽省","合肥市","蜀山区","政务区南二环路与东至路交口东南角",31.823139,117.250271,31.829496,117.240184,1
"3401002016B04049","7d4d25fa-dc35-47d2-9202-50d0b849c36d","安徽省","合肥市","瑶海区","合肥市新站区大众路以西、浍水路以北",31.910684,117.405680,31.907956,117.368288,1
"3401002016B03714","7c4a8c5d-ee19-47b3-b581-2796191d25d1","安徽省","合肥市","庐阳区","合肥市庐阳工业区内天水路以南、清河路以北",31.946028,117.279042,31.921910,117.313256,1
"3401222018B01906","8ab30d4d-06dc-43d4-a13d-b6fb09c4a3f0","安徽省","合肥市","瑶海区","撮镇镇瑶岗路与东风大道交口西北角",31.860213,117.423740,31.845590,117.411600,1
"3401222018A01827","fdd784ae-a463-4911-b99d-899206fdf7c1","安徽省","合肥市","蜀山区","合肥东部新城境内",31.826578,117.233443,31.911908,117.345344,1
"3401002013B07560","e70df726-9e34-4768-aa73-ed24a1c6d7ea","安徽省","合肥市","庐阳区","合肥市庐阳区义井路以东、固镇路以南",31.889691,117.282230,31.895930,117.259424,1
"3401212013B01203","b410dd21-241a-4cbc-91b8-0a236a03888e","安徽省","合肥市","蜀山区","双凤经济开发区",31.826578,117.233443,31.636848,117.945168,1
"3401212008B00039","b5dfa497-50b4-40de-842f-519036c79c30","安徽省","合肥市","长丰县","下塘镇",32.204075,117.219646,32.195190,117.207648,1
"3401222009B00275","da5fb80f-18da-44a4-acd5-78d9faf03cdfC","安徽省","合肥市","肥东县","撮镇镇建华居委会",31.825850,117.388106,31.823840,117.379792,1
"3401212014B01999","58afb5fd-0986-49ff-bd80-e42e5471b806","安徽省","合肥市","蜀山区","双凤经济开发区",31.826578,117.233443,31.636848,117.945168,1
"3401212016A00095","0de4299d-a615-4383-85ab-9f6fba513bec","安徽省","合肥市","长丰县","水湖镇",32.482825,117.149682,32.481620,117.159960,1
"3401222015B00946","6f446e70-bbff-4604-aaa5-2c8c6aefe156","安徽省","合肥市","肥东县","店埠镇西山驿居委会",31.835470,117.588381,31.829700,117.582456,1
"3401222015B01240","65ed0d69-56ba-4a6d-b8e5-590afde382d6","安徽省","合肥市","长丰县","牌坊民族乡高塘村",32.083126,117.184423,31.952630,117.475432,1
"3401222015B00730","18c781f2-b7fb-4762-98a0-b4020ecebc1e","安徽省","合肥市","肥东县","八斗镇王城集村",32.142283,117.645094,32.141380,117.666416,1
"3401222015B01119","52f8f80f-bfe7-4ba7-bd1c-d1a03102af70","安徽省","合肥市","肥东县","包公镇高亮村",32.024367,117.773878,32.017270,117.770920,1
"3401222015B00681","29806632-dcaf-45a4-94e4-3b31a114d442","安徽省","合肥市","肥东县","响导乡赵集村",32.217468,117.671756,32.215358,117.670000,1
"3401222015B00807","4676e867-6991-4b85-80bf-120e722b2393","安徽省","合肥市","肥东县","白龙镇双庙村",32.112887,117.469891,32.106330,117.454568,1
"3401212012B00766","3fa076bc-6d39-4573-8640-5f1e7f4ec927","安徽省","合肥市","长丰县","长丰县水湖镇",32.482825,117.149682,32.479832,117.160232,1
"3401222011A01390","3068612d-ec29-446f-9e89-a14ae58c3658","安徽省","合肥市","肥东县","合肥循环经济示范园境内",31.809502,117.497090,31.822400,117.474696,1
"3401222012A01718","6b2525d2-2c5a-419f-bd9a-f01acecb55db","安徽省","合肥市","肥东县","合肥循环经济示范园境内",31.809502,117.497090,31.822400,117.474696,1
"3401222018B02037","20253919-e0ad-4faf-8e28-fd758eeba1d7","安徽省","合肥市","肥东县","肥东县长临河镇星光社区长黄路两侧",31.696651,117.467847,31.692310,117.455712,1
"3401222013B00082","a08d9bcd-63d1-40e1-9ca5-30b280503889","安徽省","合肥市","肥东县","肥东县白龙镇同心村煅烧组",32.086818,117.436410,32.081962,117.429832,1
"3401232013B03441","cd510a70-0495-4daa-a9a8-a5809f06bcf1","安徽省","合肥市","蜀山区","桃花工业园",31.770728,117.213464,31.758420,117.197600,1
"3401222014B00432","85f59617-2833-4608-af8b-55a024a369b6","安徽省","合肥市","肥东县","合肥循环经济示范园纬三路北",31.809502,117.497090,31.822400,117.474696,1
"3401002013B06897","d8869ee6-d1ad-4e0d-b8da-5c2d3756b707","安徽省","合肥市","瑶海区","合肥市新站区泗水路以北、前岭路以东",31.925178,117.352946,31.916594,117.348056,1
"3401222016A02699","c013fa9c-9741-4b09-b1a6-a8ac78f612d5","安徽省","合肥市","肥东县","合肥循环经济示范园境内",31.809502,117.497090,31.822400,117.474696,1
"3401002013B06546","7717d721-af6a-4aa9-8759-e04a5c5f997d","安徽省","合肥市","肥西县","合肥高新区望江西路与创新大道交口西北角KG4-1地块",31.837523,117.142245,31.833120,117.130176,1
"3401222012A00237","11d77e09-2556-4d2e-a873-0fc64fc5d0b9","安徽省","合肥市","蜀山区","肥东经开区境内",31.826578,117.233443,31.882770,117.434776,1
"3401002012B03037","c0d9fdbb-0ecf-4574-9da3-c0d441069fae","安徽省","合肥市","蜀山区","合肥市蜀山区西园路3号",31.856424,117.264112,31.853212,117.255128,1
"3401222015A00317","a0dc2bad-b97a-46ea-91e7-eb3d0235a592","安徽省","合肥市","肥东县","合肥循环经济示范园境内",31.809502,117.497090,31.822400,117.474696,1
"3401212013B01104","dc0a5ded-c21f-46b7-8c12-1f9d335ad35e","安徽省","合肥市","长丰县","吴山镇",32.085422,117.083568,32.070740,117.062216,1
"3401212013B01079","9db42391-192c-48fb-9578-3b4b3fbd4152","安徽省","合肥市","长丰县","双墩镇",32.051383,117.240122,32.008018,117.250576,1
"3401212008B00175","fc1be216-e8c3-4ff7-b444-bbab8aeabcfe","安徽省","合肥市","长丰县","岗集镇",31.997379,117.147602,31.951960,117.179896,1
"3401212008B00149","9e908755-c987-4faa-a68b-215b3198506a","安徽省","合肥市","长丰县","双凤开发区",31.991296,117.242381,32.032616,117.254976,1
"3401232008B00155","a756b4cf-4b28-4085-ab08-325970270c6a","安徽省","合肥市","肥西县","高刘镇",31.946707,116.977138,31.989050,116.964248,1
"3401002009B04335","8c997f0f-69ce-4241-b56c-a681f27f035c","安徽省","合肥市","庐阳区","益民街",31.866158,117.286989,31.860330,117.273304,1
"3401222012A00276","540e6bd5-17da-4122-8848-e2d3ffd22de2","安徽省","合肥市","肥东县","肥东县长临河镇宝塔村小菜组",31.658663,117.476392,31.692310,117.455712,1
"3401002018B00956","42119571-cff1-4cec-a6ab-d2c5b75c0378","安徽省","合肥市","蜀山区","合肥市蜀山区创业大道与木东路交口东南角（原安徽佳友电器有限公司厂房第一层）",31.867908,117.219672,31.862580,117.207864,1
"3401002018B00292","8cc7bfd2-f485-45a7-83e2-4e0d5f3bf56d","安徽省","合肥市","长丰县","合肥新站区九顶山路以东、龙子湖路以北",31.953294,117.338101,31.934448,117.301288,1
"3401232013B00206","7d535a04-081f-44fe-ba3d-de56d48aa847","安徽省","合肥市","蜀山区","新港工业园",31.826578,117.233443,31.712270,117.244104,1
"3401002013B05725","14271b80-06b5-41c2-b167-f75e61a62ae4","安徽省","合肥市","瑶海区","合肥市瑶海区濉溪东路189号",31.884484,117.305266,31.881590,117.298888,1
"3401212009B00315","6dc1001f-265f-4310-b181-41031c1a9161","安徽省","合肥市","长丰县","双墩镇",32.051383,117.240122,32.008018,117.250576,1
"3401222015A01530","bb2048fe-7941-4dfd-b982-d86325c61d1e","安徽省","合肥市","肥东县","肥东县店埠镇桥头集路与皂河路交口西南角",31.861792,117.530608,31.891980,117.470384,1
"3401212014B01720","5bc28ede-021d-4e0c-98d7-1885db1c60af","安徽省","合肥市","长丰县","岗集镇",31.997379,117.147602,31.951960,117.179896,1
"3401222016B02261","1dccd79d-2059-466f-930d-7504c8ebe133","安徽省","合肥市","肥东县","肥东经开区祥和路西侧",31.889535,117.436136,31.882770,117.434776,1
"3401222012A01277","9fbe07d7-2fa3-4791-abb6-640e097180df","安徽省","合肥市","肥东县","肥东县撮镇镇先锋社区",31.838399,117.408140,31.889610,117.463608,1
"3401002014B01026","55d5d18e-5053-4d6c-8457-1283b950ef96","安徽省","合肥市","庐阳区","合肥市庐阳区潜山路以北，红星美凯龙公司用地界线以西",31.885924,117.250452,31.880730,117.259472,1
"3401212010B00733","1977c0d9-3395-4823-a19c-200cccfe8d8f","安徽省","合肥市","长丰县","双凤开发区西淝河路南侧，凸凹纸品公司东侧",31.972577,117.303347,31.966400,117.285896,1
"3401212010B00792","23413494-dd63-4ca2-9a0c-b35fe3b5e67b","安徽省","合肥市","庐阳区","凤亭路（原板桥路）东侧、板桥河以西",31.894727,117.295822,31.889198,117.284712,1
"3401222011B00489","77a8ae0d-8454-457e-92c6-1414889ec330","安徽省","合肥市","肥东县","店埠镇包公大道与临泉东路交叉口西南角",31.861792,117.530608,31.887280,117.352600,1
"3401002015B01611","e96ef24a-04d9-476b-acff-6a7c6bbf8da3","安徽省","合肥市","长丰县","合肥市庐阳区蒙城北路与北一环交口东南角N1504地块",31.972874,117.261977,31.883530,117.272720,1
"3401002015B01607","742b0786-57cb-4bdc-b94d-98c0ee9d834f","安徽省","合肥市","庐阳区","合肥市庐阳区蒙城北路以西、义井路以南N1503地块",31.889691,117.282230,31.886370,117.272912,1
"3401222015A01349","9a0126ef-4939-41bf-9d32-7fa7a0055cbe","安徽省","合肥市","肥东县","肥东县店埠镇对河社区",31.861792,117.530608,31.887182,117.465744,1
"3401212016B00518","d2f0c196-3aba-479c-a2d3-251d48063d09","安徽省","合肥市","长丰县","下塘镇",32.204075,117.219646,32.195190,117.207648,1
"3401232015B00986","39f2bff7-a0f7-4c81-be22-04c556a15e51","安徽省","合肥市","肥西县","三河镇",31.517743,117.250903,31.513060,117.239120,1
"3401232012B01009","e7a283a0-c160-4702-a050-c00e5bec76de","安徽省","合肥市","蜀山区","桃花工业园丹霞路与青龙潭路交口东南侧",31.774902,117.227130,31.758420,117.197600,1
"3401002010B06770","8221b5f0-8616-4480-88de-2cafba193ca4","安徽省","合肥市","包河区","包河工业区包头路南、上海路西",31.797785,117.332141,31.834394,117.246776,1
"3401002013B02046","742639db-60b5-40f9-83a5-0ccbbbcbe1e6","安徽省","合肥市","庐阳区","合肥市庐阳区绿都商城E区高层二层处",31.869732,117.295757,31.866120,117.282080,1
"3401212015B01769","44b0448a-76f2-4f56-bb86-115487fef8cc","安徽省","合肥市","长丰县","双墩镇",32.051383,117.240122,32.008018,117.250576,1
"3401002013B06267","1d57bb67-df8d-4f85-9933-1a334a1b9ee4","安徽省","合肥市","包河区","合肥市包河工业区兰州路南、河南路东",31.779235,117.329416,31.775200,117.316840,1
"3401002013B07540","555486b3-d5d9-4485-a53e-573acc08745c","安徽省","合肥市","瑶海区","合肥市庐阳区临泉路以南、肥西路以东",31.892927,117.299590,31.888650,117.249040,1
"3401222007B00466","80da89ed-115d-4309-baef-3dc70fbd9d0c","安徽省","合肥市","肥东县","撮镇镇大郭村",31.838399,117.408140,31.517050,117.244616,1
"3401222007B00375","1a1e2f0c-18b4-4703-8de2-0458cc43f092","安徽省","合肥市","瑶海区","撮镇镇和平路南侧",31.861211,117.326294,31.326560,117.088504,1
"3401232013B03420","0d0a8f12-6e6a-493d-a933-acb1f4f3a89c","安徽省","合肥市","肥西县","上派镇",31.709795,117.168572,31.709070,117.152496,1
"3401222012A00220","2c43c9f6-06c4-4c5b-8dec-b81efb7fe778","安徽省","合肥市","肥东县","肥东县经济开发区境内",31.893890,117.475401,32.027648,117.659128,1
"3401002014B08797","d5013a90-ff44-46c2-9ca6-384da0aa8023","安徽省","合肥市","庐阳区","合肥市庐阳区沿河路108号计委生活小区7号楼",31.882641,117.286216,31.877470,117.279920,1
"3401002014B08935","8e0b6f5c-8f33-4956-a5c4-1b76d6b55f15","安徽省","合肥市","庐阳区","城隍庙一条街",31.870525,117.284987,31.822454,117.222312,1
"3401232009B00496","30efaaac-5ef2-421e-ac68-a69044d3bc13","安徽省","合肥市","肥西县","高刘镇",31.946707,116.977138,31.989050,116.964248,1
"3401002015B00015","96a5b235-207e-461e-ba0d-f8f925f7bfb1","安徽省","合肥市","庐阳区","合肥市庐阳区亳州路27幢",31.881271,117.274696,31.880730,117.259472,1
"3401232011B00209","96bb7f8d-80ba-4780-a989-e4108355dab4","安徽省","合肥市","肥西县","上派镇人民西路与合铜路交口",31.706843,117.155512,31.705070,117.145880,1
"3401232012B02486","1430468f-796d-4985-ab93-af8873a4106f","安徽省","合肥市","肥西县","上派镇",31.709795,117.168572,31.709070,117.152496,1
"3401232016B00025","da9b5ec1-116b-4834-93c5-ec5f6394729f","安徽省","合肥市","蜀山区","桃花工业园",31.770728,117.213464,31.758420,117.197600,1
"3401232016B00917","aad62b01-5934-49bd-a553-1153a4234ea0","安徽省","合肥市","肥西县","严店乡",31.617137,117.318247,31.632380,117.202536,1
"3401222012A00286","9527c40d-1e3c-4487-bed9-1e8ec9ed1a9f","安徽省","合肥市","肥东县","肥东县撮镇镇龙塘村",31.852258,117.441889,31.848300,117.429576,1
"3401002012B01217","7a449621-6254-41d9-8961-1a620694b26e","安徽省","合肥市","肥西县","合肥市高新示范区潜水东路与文曲路交口东北角（KB2-11）地块",31.841465,117.148048,31.830976,117.134104,1
"3401222012B00577","40912a22-9836-4ab5-9c65-7d97bc598f28","安徽省","合肥市","肥东县","肥东县经开区金阳路西、古城路南",31.887302,117.446730,31.878118,117.434952,1
"3401232018B00488","f8cfa4ae-d822-4088-83a0-527fa91e3583","安徽省","合肥市","肥西县","柏堰科技园",31.801087,117.190623,31.799500,117.161200,1
"3401222016A01491","39b0b088-d219-44b5-85c1-42ca141b7e9f","安徽省","合肥市","肥东县","肥东县合肥循环经济示范园境内",31.809502,117.497090,31.822400,117.474696,1
"3401002015B00617","08e52409-f959-4709-b641-8a923332686c","安徽省","合肥市","肥西县","合肥高新区望江西路与浮山路交口东南角（KD2-4-1）地块",31.837523,117.142245,31.833120,117.130176,1
"3401232016B00256","cad79c19-3272-4f71-a926-e9519b625e07","安徽省","合肥市","肥西县","严店乡",31.617137,117.318247,31.632380,117.202536,1
"3401212008B00246","326a8563-fde7-4912-a78f-5b67e99d26f4","安徽省","合肥市","长丰县","吴山镇",32.085422,117.083568,32.070740,117.062216,1
"3401222013A00725","6adcb6ee-1261-4eac-828a-e459517b225b","安徽省","合肥市","肥东县","长临河社区北街组",31.696072,117.469895,31.690624,117.457352,1
"3401232012B01954","61d35214-4d8d-44b3-a04a-09c9ce7e908c","安徽省","合肥市","蜀山区","桃花工业园",31.770728,117.213464,31.758420,117.197600,1
"3401232014B00797","c9f5a430-6e86-43de-90be-0a5ce3701849","安徽省","合肥市","肥西县","桃花镇",31.771536,117.157251,31.778360,117.214000,1
"3401002014B08977","77e9c33e-8bc9-494f-86c5-05c0b49d11d1","安徽省","合肥市","庐阳区","合肥市庐阳区蒙城北路以东，荷塘路以南",31.944341,117.279450,31.940346,117.266952,1
"3401222017B01002","b1f811a6-7054-44e1-9209-3a9ab050d2ab","安徽省","合肥市","肥东县","合肥循环经济示范园繁华大道与龙兴大道交口西北角",31.809502,117.497090,31.822400,117.474696,1
"3401222008B00112","b11f0fa1-0b57-4749-84e4-c4645886b244","安徽省","合肥市","肥东县","肥东县撮镇镇店忠路西侧",31.830165,117.490846,31.837482,117.468760,1
"3401002011B00587","596c08bc-ac76-4984-b011-bbacd35e473a","安徽省","合肥市","瑶海区","合肥市明光路78号",31.867607,117.315723,31.822454,117.222312,1
"3401002015B01768","807f4aa5-d61a-4d9c-9248-ab89ccd4ebea","安徽省","合肥市","瑶海区","合肥市瑶海区明皇路以南、史城路东",31.879950,117.364166,31.886260,117.346704,1
"3401002012B03642","e6849324-1734-46e1-8d76-7350c7170b6b","安徽省","合肥市","蜀山区","合肥经济技术开发区金炉路东北、翡翠路西",31.784661,117.214757,31.793746,117.204368,1
"3401002009B01906","bc52880a-c9a9-4c15-b584-0a2d3846c72b","安徽省","合肥市","肥西县","福州路与徽A路交口东北角",31.749630,117.309100,31.889600,117.288512,1
"3401002018B02213","4f52e117-c4d2-4324-b029-2f657b032aaf","安徽省","合肥市","长丰县","合肥新站区东淝河路以北，荆山中路以西",31.958418,117.355047,31.896240,117.313216,1
"3401232014B00749","6968e3a6-cf07-416d-b57f-5c7ded11a734","安徽省","合肥市","肥西县","小庙镇",31.859246,117.005544,31.845360,117.012120,1
"3401212016B00587","c63e8c78-5b9b-4b1d-95c9-cf96c7f4254e","安徽省","合肥市","长丰县","双凤开发区",31.991296,117.242381,32.032616,117.254976,1
"3401002016B00397","c7dd2e99-62a2-496c-a8ad-5a365546950d","安徽省","合肥市","肥西县","合肥高新区石莲南路与铭传路交口西北角（KN5-1）地块",31.837523,117.142245,31.833120,117.130176,1
"3401002018B00841","c184f365-a6df-47c1-bcdd-e97cf7859c68","安徽省","合肥市","长丰县","龙子湖路以南、九顶山路以西",31.953225,117.338101,31.934448,117.301288,1
"3401222016B02209","6c3a2259-53e6-4df2-a64e-495681134941","安徽省","合肥市","肥东县","肥东经开区金阳路西侧",31.887302,117.446730,31.878118,117.434952,1
"3401002010B06529","f93e01c8-243f-4eee-aae9-00435a3f8e42","安徽省","合肥市","包河区","包河工业区太原路北、河北路东",31.779235,117.329416,31.775200,117.316840,1
"3401002009B00343","9b31462c-3126-4a66-93af-46098ab803ce","安徽省","合肥市","瑶海区","瑶海工业园经E路西",31.895798,117.348984,31.892570,117.337120,1
"3401222009B01097","101d7fa2-b831-4166-921b-2c22f5ae578c","安徽省","合肥市","肥东县","肥东经济开发区燎原路西侧",31.866511,117.443081,31.876022,117.429632,1
"3401222018B01729","e2451f3b-c3c7-463e-827a-799920e061e2","安徽省","合肥市","肥东县","肥东县店埠镇桥头集路与相西河路交口东南",31.861792,117.530608,31.882170,117.460392,1
"3401002009B00359","5d3733e3-1dd9-44d2-aec4-910dd8f40eb7","安徽省","合肥市","瑶海区","合肥市瑶海工业园郎溪路与纬B路交叉口",31.895798,117.348984,31.906980,117.359208,1
"3401222010B00937","103ab19e-cafd-4efe-a3f3-0497b55f51ea","安徽省","合肥市","蜀山区","新区水关路南侧",31.826578,117.233443,31.822454,117.222312,1
"3401212010B01013","354b5c2e-ef85-4212-bd39-2519f0f9564a","安徽省","合肥市","庐阳区","岗集镇合淮路西侧",31.924775,117.218389,32.065442,117.079432,1
"3401222012A00690","087f599d-f050-4210-9d43-389e34cf6705","安徽省","合肥市","肥东县","撮镇镇赵光村",31.816725,117.461565,31.812510,117.449120,1
"3401232008B00584","affd2f04-dfdd-42f3-a009-2ecdf1ad1dad","安徽省","合肥市","肥西县","桃花镇",31.771536,117.157251,31.778360,117.214000,1
"3401002008B00412","E1AB5C7F22964AC7B231F3FD43D46AD7","安徽省","合肥市","庐阳区","城隍庙",31.870525,117.284987,31.868620,117.272440,1
"3401212014B01700","c08294c8-6946-4347-afbc-37964354a0b2","安徽省","合肥市","长丰县","双墩镇",32.051383,117.240122,32.008018,117.250576,1
"3401002011B02810","22fd17c8-c192-4687-87cf-5bae0f3bb64d","安徽省","合肥市","蜀山区","合肥市高新示范区永和路与望江西路交口西南角（KC2-1）地块",31.836665,117.151555,31.833676,117.179160,1
"3401232014B00738","ff7ff833-57d0-434a-b29b-f0566cac8fc5","安徽省","合肥市","蜀山区","桃花工业园恒山路以西、汤口路以北",31.770728,117.213464,31.776522,117.147480,1
"3401222016B01531","43150e41-67eb-4266-b53a-5ef555ab460d","安徽省","合肥市","肥东县","撮镇镇桥头集路与高亮路交口西北角",31.887888,117.457686,31.839894,117.337120,1
"3401222012B01290","0e5dc165-ba86-4b0d-b7ab-fc0dbc62ac8b","安徽省","合肥市","肥东县","肥东县响导乡响导居委会",32.216735,117.632108,32.214402,117.606976,1
"3401212010B00850","c3f0a5b1-3205-4c32-a9d2-90120292db02","安徽省","合肥市","长丰县","北至新店居委会土地、南至新店居委会土地、西至合肥精美家具厂、东至合肥大发箱柜厂",31.952494,117.332436,31.920300,117.255056,1
"3401212010B00909","5d76837d-b83c-4274-b6fa-79e1238ce634","安徽省","合肥市","长丰县","凤麟路东侧、金福璐南侧",31.982323,117.279679,31.976802,117.268368,1
"3401232018B00549","e4e6b99b-52a8-43ed-b3f2-e3ed4d71f679","安徽省","合肥市","肥西县","紫蓬镇农兴路与规划三路交口",31.763261,117.034515,31.759148,117.022648,1
"3401232015B00649","6eda40e2-2a51-4521-8793-3a54d8a55241","安徽省","合肥市","肥西县","三河镇",31.517743,117.250903,31.513060,117.239120,1
"3401212015B00047","ae7f9316-ccbc-4610-8acb-1f4a85892aa5","安徽省","合肥市","长丰县","吴山镇",32.085422,117.083568,32.070740,117.062216,1
"3401002013B07359","a87c4155-be45-4957-bdcb-2bad7032c121","安徽省","合肥市","瑶海区","合肥市瑶海区填海巷8号楼",31.863787,117.315587,31.867100,117.303872,1
"3401222014B00979","60f983f2-2bfa-4a2e-b1ef-5d89135f47c5","安徽省","合肥市","肥东县","撮镇路西、 瑶岗路北",31.884858,117.477129,31.846944,117.485576,1
"3401002014B08081","f6c2cf78-a64a-402e-8203-70f21a100119","安徽省","合肥市","长丰县","合肥市新站区新蚌埠路以东、东方大道以北",31.957284,117.359400,31.957880,117.328176,1
"3401232015B00657","20a3bdba-8ca9-4ac2-a353-1a9bc46ec96a","安徽省","合肥市","蜀山区","桃花工业园",31.770728,117.213464,31.758420,117.197600,1
"3401002015B00487","b3c199d2-cd85-4620-b8e5-a90d0f139c2d","安徽省","合肥市","长丰县","合肥市新站区铜陵北路以西，龙子湖路以南",31.957045,117.359894,31.947096,117.334136,1
"3401002015B00504","251a115c-48bf-4dd8-84a0-3cf9b79e6780","安徽省","合肥市","瑶海区","合肥市新站区铜陵北路以西，珠城路以北",31.886765,117.326987,31.897400,117.324160,1
"3401002012B02813","0bff3ba2-1e09-4713-b21e-daf61711b09a","安徽省","合肥市","蜀山区","合肥市经济技术开发区汤口路南、蓬莱路西",31.751392,117.236691,31.822454,117.222312,1
"3401002011B01085","8e467625-b0dd-425b-b86d-fc0d3d3b4508","安徽省","合肥市","瑶海区","合肥市新站工业园区天水路以南、皇藏峪路以东",31.900587,117.342661,31.909554,117.336384,1
"3401002011B01030","83d551f6-fa95-4b83-b75f-41b89794d3f1","安徽省","合肥市","包河区","包河工业区延安路南、河北路东",31.797785,117.332141,31.775200,117.316840,1
"3401222013B00026","ef37dbb9-1bd7-40d7-9335-cc6318657c7d","安徽省","合肥市","肥东县","石塘镇马集工业园",31.940667,117.643838,31.934220,117.628000,1
"3401222013B00622","7d1fd50d-c606-484a-945d-40955ad16f0e","安徽省","合肥市","肥东县","肥东县经开区三十埠村",31.873897,117.419852,32.027648,117.659128,1
"3401222016A01502","fbecffd0-7450-43a4-943c-a26a9eb54511","安徽省","合肥市","肥东县","肥东县撮镇镇四顶山路与众欢路交口",31.774392,117.498083,31.770702,117.486080,1
"3401002012B01272","623f2597-55ab-4ab2-a813-198854ed3649","安徽省","合肥市","蜀山区","合肥市高新区永和路与望江西路交口西南角（KC2-1-1）地块",31.836665,117.151555,31.833676,117.179160,1
"3401222012B00473","d15138ff-de2b-411e-b6c2-68741d0e52b5","安徽省","合肥市","肥东县","撮镇镇青年工业园",31.835973,117.413238,31.984740,117.264352,1
"3401222015B00958","9a4fae44-8d45-4b2b-98d3-3e95bfcea305","安徽省","合肥市","瑶海区","瑶海区龙岗管委会大彭社区",31.863787,117.315587,31.870144,117.367976,1
"3401222015B00856","950cf9fd-cefa-4e72-9470-722ca7cc849d","安徽省","合肥市","肥东县","元疃镇元疃居委会",32.088225,117.390958,32.085900,117.379544,1
"3401222015B01047","72f45dfc-0975-4219-b476-5d4834df771a","安徽省","合肥市","肥东县","梁园镇护城村",32.067510,117.587694,32.060738,117.578576,1
"3401222015B01230","b633664d-dc32-4cc2-ad09-de2a251f5665","安徽省","合肥市","肥东县","梁园镇双枣村",32.040563,117.555451,32.037048,117.543448,1
"3401002015B01891","85932fb3-511f-4c83-9d48-758d48fea03a","安徽省","合肥市","瑶海区","合肥市瑶海区大通路116号2幢（详见房产证）",31.866317,117.316400,31.881300,117.299952,1
"3401212010B01379","4ada7595-c70c-4d83-a150-320059911de7","安徽省","合肥市","长丰县","长丰县水湖镇长寿路",32.487613,117.166340,32.484166,117.153408,1
"3401002008B02426","bffdcd44-350f-42a6-982f-381d7f53a7bc","安徽省","合肥市","瑶海区","枞阳路东侧",31.855285,117.353489,31.850802,117.341352,1
"3401232011B01129","6c0fb2b6-f46d-42b3-90d7-67fb863ea7ac","安徽省","合肥市","蜀山区","桃花工业园",31.770728,117.213464,31.758420,117.197600,1
"3401222009B01479","ff778e3e-f398-41ef-83fa-404744834888","安徽省","合肥市","肥东县","合肥循环经济示范园",31.809502,117.497090,31.822400,117.474696,1
"3401002015B02647","d12cda98-2684-45b0-9915-78ea1d551892","安徽省","合肥市","庐阳区","合肥市庐阳区徽州大道457-481号",31.884887,117.271459,31.871000,117.281160,1
"3401232014B00267","6400a406-a7f9-4b7f-ae77-f7e7ee798f42","安徽省","合肥市","肥西县","官亭镇",31.845171,116.791072,31.802700,116.863648,1
"3401222008B01261","0f88c152-2832-4c3b-ad86-5d11f2785d41","安徽省","合肥市","肥东县","肥东经济开发区经三路",31.767843,117.498045,31.245396,117.309920,1
"3401002008B00752","92073C3DEB0E42AA8DF2FF79305AA85E","安徽省","合肥市","蜀山区","青阳路",31.866430,117.248045,31.859150,117.236920,1
"3401002008B00722","F5E9C4ABA58C476CABA9EFFA73CE4FFC","安徽省","合肥市","蜀山区","青阳路",31.866430,117.248045,31.859150,117.236920,1
"3401002008B00706","bfbd4d7e-c903-4186-9bf3-f9644e9eb7bd","安徽省","合肥市","蜀山区","琥珀大道",31.869204,117.271231,31.867424,117.259112,1
"3401222015B00049-1","f4333848-558e-4b35-92c5-b34b804672b4","安徽省","合肥市","肥东县","梁园镇合蚌路西侧",32.008431,117.563363,31.929404,117.496544,1
"3401222011B00974","a6d1631b-cdbe-4af5-80f4-7600d9a0a407","安徽省","合肥市","肥东县","撮镇镇龙塘村",31.852258,117.441889,31.848300,117.429576,1
"3401002014B01669","17fa00bd-f291-4a22-bbe0-825184b9e4c4","安徽省","合肥市","蜀山区","合肥市政务区匡河路以北、岳西路以西",31.828656,117.223908,31.843300,117.219904,1
"3401222013A00486","1af4a50d-01a9-418b-829d-ea879f1e3eaa","安徽省","合肥市","肥东县","肥东县撮镇镇龙塘村",31.852258,117.441889,31.848300,117.429576,1
"3401222016A00032","d1008c60-0b8c-4dd3-a355-9301726aa128","安徽省","合肥市","肥东县","肥东县撮镇镇李六村",31.838399,117.408140,31.889610,117.463608,1
"3401222014A00232","adec4891-1aa3-49da-b5dd-e7e7ae62cedb","安徽省","合肥市","肥东县","肥东县店埠镇中心社区",31.868182,117.479860,31.887182,117.465744,1
"3401222015A00246","4e4c40c5-8594-45b2-84af-171a41e831cc","安徽省","合肥市","肥东县","肥东县撮镇镇李六村郑阳组",31.838399,117.408140,31.749442,117.448640,1
"3401222015A00229","b198b97f-6523-4206-ac8a-83e9123918f9","安徽省","合肥市","肥东县","肥东县桥头集镇桥头集社区西岗组",31.762743,117.562351,31.761580,117.551272,1
"3401222014B00565","83f755d4-fc65-4b74-b195-10fd1c569b18","安徽省","合肥市","肥东县","肥东县撮镇镇河滨村",31.788647,117.439938,31.784740,117.427640,1
"3401002014B08511","5514c189-8585-4cd6-a8a4-275dd56b8a2e","安徽省","合肥市","包河区","合肥市包河区长春街以北、车城支路以东",31.803808,117.354799,31.801476,117.339816,1
"3401212012A00584","101a3a07-540c-4b0c-9554-88a64e4214f2","安徽省","合肥市","长丰县","长丰县双凤拓展区",32.483723,117.173560,31.968920,117.256104,1
"3401232016B01199","d1b502a1-a345-47a3-8ff1-891b6237521f","安徽省","合肥市","肥西县","桃花镇",31.771536,117.157251,31.778360,117.214000,1
"3401212011A00073","42ea735d-fa11-4ee7-91c7-152c3fe4b0c7","安徽省","合肥市","长丰县","长丰县吴山镇",32.085422,117.083568,32.070740,117.062216,1
"3401222012B00706","fcc862c5-8faf-4c33-8378-b3858be7c878","安徽省","合肥市","肥东县","撮镇镇唐安社区",31.838399,117.408140,31.830490,117.396664,1
"3401222012B00766","6c8ee759-35b5-49d7-8c2d-f4235239781f","安徽省","合肥市","肥东县","撮镇镇唐安社区",31.838399,117.408140,31.830490,117.396664,1
"3401222009A00670","4749c1e9-3316-4e1f-bb35-75ab76255bdc","安徽省","合肥市","肥东县","店埠镇站南路北店中路东",31.861792,117.530608,31.859544,117.479400,1
"3401002011B00456","66d565a2-c2f0-4359-9f31-ce8517704aa7","安徽省","合肥市","肥西县","滨湖新区徽州大道与长沙路交口东南",31.737965,117.294911,31.780496,117.280632,1
"3401002011B00446","b3048c44-a33f-456f-8255-7ed9a70e84f7","安徽省","合肥市","肥西县","滨湖新区徽州大道与洞庭湖路交口东南",31.737965,117.294911,31.736764,117.281088,1
"3401002016B04874","1b51579f-b020-4470-9856-f7289332428f","安徽省","合肥市","包河区","合肥市蜀山区祁门路以北、石台路以东",31.814503,117.268550,31.825448,117.232376,1
"3401002016B04661","8f08c3f1-223e-4ebb-8072-0e3f312c82cd","安徽省","合肥市","蜀山区","合肥市庐阳区规划二路以南、规划大房郢路以东",31.838135,117.230087,31.903040,117.242160,1
"3401212016B00951","8e0ad22a-2f6a-46c1-95b8-b3ce8ba59608","安徽省","合肥市","长丰县","双凤开发区",31.991296,117.242381,32.032616,117.254976,1
"3401212016B00967","90309a51-e634-4aa3-b46f-e0ecc418c947","安徽省","合肥市","长丰县","下塘镇",32.204075,117.219646,32.195190,117.207648,1
"3401002016B03410","0c7e7db8-e366-470c-ae3b-57631b47d76f","安徽省","合肥市","庐阳区","合肥市庐阳区绿都商城",31.869381,117.295058,31.866120,117.282080,1
"3401002016B01938","e2b64598-1845-49dd-9425-66e4af7f99c1","安徽省","合肥市","长丰县","合肥新站区龙子湖路以北，九顶山路以东",31.953294,117.338101,31.934448,117.301288,1
"3401212016B00874","c99f5c65-d145-4024-9e73-60f1d75a758a","安徽省","合肥市","长丰县","下塘镇",32.204075,117.219646,32.195190,117.207648,1
"3401222012B00048","e5912121-2144-4874-926c-e6bf48dc6c48","安徽省","合肥市","肥东县","肥东经济开发区纬一路北",31.893890,117.475401,31.636848,117.945168,1
"3401002010B07567","701dc892-473d-441b-91e9-5b284a6c813c","安徽省","合肥市","蜀山区","丹霞路北、天时商埠西",31.782507,117.214422,31.769034,117.217488,1
"3401212018B00555","1e5760c5-4e72-4cbd-86cd-bffd6ba11e38","安徽省","合肥市","长丰县","吴山镇",32.085422,117.083568,32.070740,117.062216,1
"3401002009B03457","1100ae97-43ab-4459-b276-385def450bf5","安徽省","合肥市","瑶海区","万罗山路以东、奎子河路以南",31.929954,117.315181,31.926770,117.303496,1
"3401002009B03467","6f571578-8d99-4cbd-8797-2b058baac81fC","安徽省","合肥市","庐阳区","神鹿药业以北、金池路以东",31.941257,117.286672,31.937288,117.274672,1
"3401002012B02556","9147cdd7-f7cd-4338-9ae7-ea0ab089a464","安徽省","合肥市","肥西县","合肥市滨湖新区四川路与成都路交口东北",31.724304,117.282135,31.711652,117.285584,1
"3401232018B00367","6b44593a-dea4-471f-be8d-c1d14190243f","安徽省","合肥市","肥西县","官亭镇王集路与张祠路交口西北侧",31.845171,116.791072,32.493896,117.114016,1
"3401002011B02733","27828d44-893d-4504-9428-ef6c62bc3fe4","安徽省","合肥市","肥西县","合肥市高新示范区长宁大道与明珠大道交口西北角（KT1-1）地块",31.809692,117.121831,31.805250,117.133768,1
"3401002011B02722","359960f8-3dd6-4bbf-baaa-3c7f582a15ce","安徽省","合肥市","肥西县","合肥市高新示范区南岗科技园大别山路与学田路交口东北角（NJ1-3）地块",31.865125,117.112749,31.863002,117.100392,1
"3401222016A02107","c64a54d6-5c32-4f2c-88e3-b70eef60941d","安徽省","合肥市","肥东县","撮镇镇瑶岗社区",31.838399,117.408140,31.825740,117.443784,1
"3401232008B00193","d9089851-ef29-4e57-8d62-9822bcdcda88","安徽省","合肥市","肥西县","桃花镇",31.771536,117.157251,31.778360,117.214000,1
"3401002016B01228","27b7cfe0-0e86-4ef0-bb4b-98ed6e610eb7","安徽省","合肥市","瑶海区","合肥市庐阳区临泉路以南、凤凰山路以西N1601地块",31.892927,117.299590,31.889310,117.283408,1
"3401232011B00620","a21bd295-ad03-41c6-9add-f8efcf28142a","安徽省","合肥市","肥西县","花岗镇",31.638249,117.053711,31.630500,117.051760,1
"3401002014B00763","6af32e87-6ff2-4f0d-97f3-a4fa5016bc4d","安徽省","合肥市","包河区","合肥市包河区黄河路以北、宁夏路以西",31.773060,117.349690,31.772104,117.317256,1
"3401222011A00435","6a3f688b-1839-467a-b837-6aec97d3c051","安徽省","合肥市","肥东县","肥东县撮镇镇先锋社区",31.838399,117.408140,31.889610,117.463608,1
"3401222016A02957","1529965f-f49f-4b63-b19c-553bf33c40cc","安徽省","合肥市","蜀山区","经开区境内",31.792061,117.225068,31.777400,117.204072,1
"3401222010B00276","01e6635b-55e3-40b4-abfe-ccbb3cca0c4f","安徽省","合肥市","瑶海区","肥东新区新安江路南侧",31.865908,117.373491,31.886830,117.423376,1
"3401222010B00416","a4b885f2-3247-4f22-83af-c15b4c572511","安徽省","合肥市","肥东县","新区桂王南路西侧",31.872615,117.456294,31.822454,117.222312,1
"3401212010B00296","241a1908-fef0-4207-8131-a9389defeedf","安徽省","合肥市","长丰县","工业大道北侧、民田村民村道路西侧",31.991026,117.296863,31.752840,117.405736,1
"3401222016A02949","68186749-9dad-451e-8948-342db41458b9","安徽省","合肥市","蜀山区","经开区境内",31.792061,117.225068,31.777400,117.204072,1
"3401002010B06216","4d00ecce-915e-447c-9bae-30fdd099461a","安徽省","合肥市","肥西县","南岗科技园大别山路以北，（NH1-1）地块",31.865961,117.124802,31.860566,117.110280,1
"3401002016B02746","766d35c9-a5f7-4599-b089-b929e0bd4d94","安徽省","合肥市","庐阳区","合肥市庐阳区亳州新村6幢405室",31.881332,117.269987,31.877730,117.257408,1
"3401222012A01247","25ab4232-ada7-4d7e-a7b2-ddfe0af8f4a9","安徽省","合肥市","巢湖市","肥东经开区长江东路烟草专卖局院内",31.610773,117.898270,31.607944,117.888336,1
"3401002009B02349","9174d516-fb3d-4179-b6cc-1b971e2a2e0a","安徽省","合肥市","瑶海区","长江东大街",31.868180,117.324434,31.864376,117.313504,1
"3401002009B03760","f827dd73-2a3c-46ba-99b1-8f164ec18494","安徽省","合肥市","包河区","宁国路与水阳江路交口",31.825304,117.292557,31.821300,117.290120,1
"3401002010B00178","33b69232-c8ed-4ee6-b336-6ed0cfb79088C","安徽省","合肥市","包河区","包河工业区花园大道北",31.779235,117.329416,31.775200,117.316840,1
"3401002018B01307","6ea92b68-6b89-4ece-abed-37bfb82f402f","安徽省","合肥市","蜀山区","合肥经济技术开发区莲花路以西、耕耘路以北",31.753896,117.215460,31.822454,117.222312,1
"3401222010B00916","23e99cb5-080e-4ef6-943f-88535ee15c73","安徽省","合肥市","蜀山区","新区荷花路北侧",31.859655,117.191144,31.822454,117.222312,1
"3401222010B00897","463296e3-fb09-4211-bc81-b066d8ec1e6e","安徽省","合肥市","蜀山区","新区荷花路北侧",31.859655,117.191144,31.822454,117.222312,1
"3401002011B01914","16c31b0e-1119-45f9-b351-452424dcb0f2","安徽省","合肥市","肥西县","合肥市高新示范区文曲路以东、潜水东路以北（KB2-10）地块",31.844514,117.146189,31.830976,117.134104,1
"3401002009B02063","320ca7d3-b27c-4edc-b844-f152cec5d210","安徽省","合肥市","蜀山区","合肥政务文化新区规划中部",31.825784,117.238837,31.824480,117.222616,1
"3401232011B00469","ba8ed01c-894a-489c-a7ef-01690abade32","安徽省","合肥市","肥西县","桃花镇",31.771536,117.157251,31.778360,117.214000,1
"3401222009B00050","c0e95610-8ece-48cc-9e19-435834e0767f","安徽省","合肥市","肥东县","肥东县长临河镇长临村北街组",31.696072,117.469895,31.692310,117.455712,1
"3401002008B00875","DA08F79107C44607AE1FAD5A01DC7441","安徽省","合肥市","蜀山区","繁华大道",31.785068,117.265311,31.785548,117.213320,1
"3401212014B01920","bef54b9d-7f5e-42df-b13c-407052a70632","安徽省","合肥市","长丰县","双凤开发区",31.991296,117.242381,32.032616,117.254976,1
"3401212014B01852","20edebb4-38ff-44a8-af13-d798b113b22c","安徽省","合肥市","长丰县","双墩镇",32.051383,117.240122,32.008018,117.250576,1
"3401002014B08281","805124fe-1578-4ea5-ad44-5bd4aa5f8aac","安徽省","合肥市","肥西县","合肥市滨湖新区南宁路以南、湖南路以东",31.715296,117.304324,31.707898,117.285680,1
"3401002008B04369","0fc4dd97-07aa-42a7-b95b-24880210f1e9","安徽省","合肥市","肥西县","合肥市经济技术开发区汤口路北、青龙潭路东",31.733597,117.113530,31.749322,117.196664,1
"3401002008B03891","c6ba7173-6b8a-43cd-8416-67ea5221f08b","安徽省","合肥市","蜀山区","青鸾路东，方兴大道南",31.728143,117.227095,31.822454,117.222312,1
"3401002015B02752","aa4e1c23-9632-4316-9428-809075930664","安徽省","合肥市","庐阳区","合肥市庐阳区城隍庙二期北楼2号",31.870525,117.284987,31.891240,117.255240,1
"3401002011B00246","4a94f527-9589-4b26-b32c-0f05d3c19fcc","安徽省","合肥市","肥西县","方兴大道与西藏路交口西南",31.730563,117.287475,31.719894,117.275552,1
"3401232012B01809","331ac3fb-b329-4a7c-b5c5-f891129bb294","安徽省","合肥市","肥西县","紫蓬镇",31.748534,117.074774,31.757050,117.019448,1
"3401212013B00123","e06a9c99-d391-4dfc-831b-7cda47398246","安徽省","合肥市","长丰县","长丰县吴山镇",32.085422,117.083568,32.070740,117.062216,1
"3401212013B00155","fc307afe-2482-4c16-8a62-c70fe161807a","安徽省","合肥市","长丰县","长丰县岗集镇",31.997379,117.147602,31.951960,117.179896,1
"3401222009B01422","76c50bfb-0856-4d79-b430-61496f8607d5","安徽省","合肥市","肥东县","元疃镇工业聚集区",32.105319,117.387681,31.874720,117.399144,1
"3401002008B01315","c0525c7b-4a64-4538-b1a6-9d8b7b31184e","安徽省","合肥市","肥西县","徽州大道与方兴大道西南",31.755826,117.292601,31.834970,117.279200,1
"3401002013B06077","34b7902c-4f5b-4c10-b266-dc788e2c0084","安徽省","合肥市","肥西县","合肥市滨湖新区庐州大道与紫云路交口东北",31.746650,117.308714,31.742380,117.297080,1
"3401222010B00438","f41ef750-a643-4d5e-907c-0a4bc92b1bcb","安徽省","合肥市","肥东县","肥东经济开发区公园路南侧",31.884248,117.462047,31.636848,117.945168,1
"3401002010B00099","163e250c-80b0-494b-b3cf-39b0eb95b061","安徽省","合肥市","包河区","包河工业区山东路西、延安路北",31.797785,117.332141,31.775200,117.316840,1
"3401002009B00189","e6a96109-be4c-40bc-9ff8-890c12b76b49","安徽省","合肥市","肥西县","高新区望江西路以北，永和路以东KB1-9",31.827181,117.151724,31.833676,117.179160,1
"3401002009B00227","0d8cffb2-e5da-4b87-a615-26a34b743d7a","安徽省","合肥市","肥西县","望江西路以北，永和路以东KB1-17",31.827181,117.151724,31.833676,117.179160,1
"3401212012A00036","cc842cf6-f54b-4c49-810c-2f6c5e05dc9f","安徽省","合肥市","长丰县","长丰县岗集镇",31.997379,117.147602,31.951960,117.179896,1
"3401002008B01346","545e2349-15a8-4002-ac59-bb562e19c2cc","安徽省","合肥市","庐阳区","汲桥路以南、金池路以东",31.947890,117.276246,0.000000,0.000000,1
"3401002014B01186","f1f32016-1b6e-4943-a66e-29f2a6f76e94","安徽省","合肥市","庐阳区","合肥市路工业区凌湖路以南、天河路以西",31.922665,117.282275,31.930972,117.280968,1
"3401002008B01042","FE54EE8F53CE42AE9C707D7627715DC7","安徽省","合肥市","庐阳区","宿州路以西、淮河路以南",31.871253,117.292114,31.869014,117.284232,1
"3401222018B01206","fe1134f7-cb7e-4ecd-a99a-edb642be0fbb","安徽省","合肥市","肥东县","肥东经开区包公大道与燎原路交口西北角",31.897377,117.440901,31.876022,117.429632,1
"3401002008B00567","72EB1E9E67114DD28F3F4ACE720DAAC9","安徽省","合肥市","庐阳区","城隍庙",31.870525,117.284987,31.868620,117.272440,1
"3401212011B00199","4b9ba844-c3eb-4bb3-be76-53f7aa9068aa","安徽省","合肥市","长丰县","三十头镇",31.991237,117.338574,31.987820,117.326304,1
"3401222014B00078","3cd29c02-7750-46b0-9dba-008f9ad076bf","安徽省","合肥市","肥东县","撮镇镇物流开发区女山湖路北",31.838399,117.408140,31.859086,117.171608,1
"3401002012B03380","919e1775-9835-421a-a140-bd6ac5041147","安徽省","合肥市","肥西县","合肥高新区文曲路与燕子河路交口西北角（KC1-8）地块",31.837523,117.142245,31.833120,117.130176,1
"3401002012B03377","f366be3b-a773-42a3-9b3c-8b39049b7a34","安徽省","合肥市","肥西县","合肥高新区永和路与燕子河路交口西北角（KC2-2）地块",31.837523,117.142245,31.833120,117.130176,1
"3401212015B01928","a6bf5025-5db9-4260-81e0-e491d9fafdf5","安徽省","合肥市","长丰县","岗集镇",31.997379,117.147602,31.951960,117.179896,1
"3401222011A01345","0f940175-da50-4c8e-a47e-e182bcaaa9d0","安徽省","合肥市","肥东县","白龙镇中心学校西侧",32.160750,117.445542,31.340380,117.084584,1
"3401222018B01236","46a7681b-c5e0-467d-b00b-0b99c4cfdb66","安徽省","合肥市","肥东县","肥东经开区包公大道与燎原路交口西北侧",31.897377,117.440901,31.876022,117.429632,1
"3401222009B00329","d2fa35d4-efc3-4826-9cff-0497a9205dde","安徽省","合肥市","肥东县","新区燎原路西侧",31.866511,117.443081,31.876022,117.429632,1
"3401002010B06048","8f38a304-3240-42f5-b487-2069b84c0099","安徽省","合肥市","包河区","包河区",31.799293,117.316576,31.795470,117.304337,1
"3401002011B03338","a22d56d7-ee43-432c-8c0c-86f398a55027","安徽省","合肥市","蜀山区","合肥经济技术开发区芙蓉路南、莲花北路东",31.784661,117.214757,31.820714,117.213360,1
"3401002011B00567","0e07c112-8bd1-49ba-a169-7f40b6663398","安徽省","合肥市","长丰县","双凤开发区",31.991296,117.242381,32.032616,117.254976,1
"3401002011B00572","e5d3a723-06f7-47d6-83ec-8ec8cccf2c27","安徽省","合肥市","长丰县","双凤开发区",31.991296,117.242381,32.032616,117.254976,1
"3401002016B02028","0137b923-baa7-4a03-9782-f561a90045d5","安徽省","合肥市","长丰县","魏武路以北、九顶山路以东",31.946490,117.319470,31.934448,117.301288,1
"3401222012B01746","663205c1-7ed2-4dee-b9af-744d2f13d5b0","安徽省","合肥市","肥东县","梁园镇合蚌路东路口社区",32.008431,117.563363,31.831340,117.301720,1
"3401222018A01147","bcbe3cc1-c471-4683-b726-25a4502e1f87","安徽省","合肥市","肥东县","肥东县店埠镇双桥社区",31.861792,117.530608,31.865670,117.504832,1
"3401222018A01128","4a3afb24-5d98-4292-9c76-fecc8e7cf857","安徽省","合肥市","肥东县","肥东县撮镇镇马桥社区",31.845931,117.480015,31.889610,117.463608,1
"3401002008B00864","00E82E467AE94197A872CC4C822A50D2","安徽省","合肥市","庐阳区","固镇路",31.900656,117.288738,31.896820,117.273496,1
"3401212013B01055","97d2ed7e-385e-4682-8fe4-a1f715b93a4e","安徽省","合肥市","长丰县","岗集镇",31.997379,117.147602,31.951960,117.179896,1
"3401002012B03557","42a64fe6-4578-4f0a-bfc4-ccc3336cd234","安徽省","合肥市","长丰县","合肥市新站区淮海大道以南、大禹路以东",31.949068,117.346271,31.945344,117.334344,1
"3401002018B01449","1da57e6e-8bfb-43e6-b1f6-da011ced8f14","安徽省","合肥市","瑶海区","合肥市瑶海区板桥河路龙兴苑拆迁恢复小区8#107室、108室、110室（详见测绘报告）",31.902950,117.302066,31.866830,117.299232,1
"3401222010B00801","d671a0ca-7428-427b-8ec9-295e070cef25","安徽省","合肥市","肥东县","撮镇镇合马路南侧",31.817135,117.485905,31.851390,117.545480,1
"3401222011A01278","6e64c87e-7001-4eee-81a5-a9c9d3e6330f","安徽省","合肥市","肥东县","店埠镇镇北社区、合蚌路西侧",31.903162,117.482918,31.929404,117.496544,1
"3401232010B00650","d8b63b19-896d-47ae-89cf-ec6969c227ae","安徽省","合肥市","肥西县","小庙镇",31.859246,117.005544,31.845360,117.012120,1
"3401222010A00492","6e9b69a2-6fc8-486a-8d10-19eba135630b","安徽省","合肥市","肥东县","肥东县店埠镇排头居委会",31.881749,117.479357,31.883500,117.464512,1
"3401002016B04018","a1df17e0-7d8c-40ed-af16-37fd5a5a2cab","安徽省","合肥市","肥西县","合肥高新区望江西路与枫林路交口西南角SHX-4-1地块",31.837523,117.142245,31.833120,117.130176,1
"3401222012A00915","c87f4d38-990d-4ffe-8032-fb6a462117e7","安徽省","合肥市","蜀山区","合肥循环园境内",31.826578,117.233443,31.822400,117.474696,1
"3401212009A00071","f529177d-720f-4767-8c5e-f7e37fc77385","安徽省","合肥市","长丰县","长丰县双凤工业区",31.972408,117.269559,31.980500,117.247656,1
"3401222009B01112","27930acf-48c2-4a48-bcb7-eef0f0208fac","安徽省","合肥市","肥东县","肥东县撮镇镇瑶岗社区",31.838399,117.408140,31.825740,117.443784,1
"3401002012B02428","fb603ea9-9f3d-4423-b582-f01f15d174af","安徽省","合肥市","蜀山区","合肥市高新区南岗科技园创新大道与大别山路交口东南（NA2-4-2）地块",31.865069,117.140631,31.860566,117.110280,1
"3401002010B06728","e149b56f-b3bd-4ffe-8870-55c1c43084e8","安徽省","合肥市","瑶海区","瑶海区长江东路560（花冲新村11栋【原14栋】102室）",31.875288,117.338162,31.868970,117.327104,1
"3401232011B00474","7f683fb1-9992-4ebb-84d5-f33d6b928554","安徽省","合肥市","肥西县","柏堰科技园",31.801087,117.190623,31.799500,117.161200,1
"3401002008B03887","95180e8b-e546-4c77-ad43-f872b0eb8cf0","安徽省","合肥市","蜀山区","莲花路东、方兴大道南",31.731758,117.237538,31.822454,117.222312,1
"3401002014B01490","590256aa-f0fe-4f0f-8222-afc30ed68e9a","安徽省","合肥市","肥西县","合肥市滨湖新区贵州路与徽州大道交口西北",31.737965,117.294911,31.743200,117.275456,1
"3401222012A01267","d37e5d06-778a-4750-96ed-5cf4e51f7ea4","安徽省","合肥市","肥东县","肥东县撮镇镇马桥社区",31.845931,117.480015,31.889610,117.463608,1
"3401002008B03173","1316c7e5-c426-46f1-84e9-4674ae9df3b9","安徽省","合肥市","包河区","太湖路99号",31.837750,117.295649,31.822454,117.222312,1
"3401002015B02020","1645ecac-9b7a-4e3d-802e-406ff69e4408","安徽省","合肥市","蜀山区","合肥高新区规划支路与龙河路交口东南角（NJ3-5-1）地块",31.853975,117.207287,31.833120,117.130176,1
"3401002017B03846","1cbabb2f-5f21-4f97-bf90-36b264edc602","安徽省","合肥市","长丰县","长丰县双墩镇泉州路东、清颍路北",32.051383,117.240122,32.009732,117.259032,1
"3401002012B01960","fe2df542-0984-4745-9a8a-e020599b297a","安徽省","合肥市","瑶海区","合肥市瑶海区繁昌路2号左岸名苑回迁1幢",31.854572,117.321107,31.859930,117.303920,1
"3401232011B00867","abe8a1d9-41de-43b9-b7ab-69382106bd80","安徽省","合肥市","肥西县","花岗镇",31.638249,117.053711,31.630500,117.051760,1
"3401222011A00747","b7f1d946-e8dd-4d24-95c4-42ca6725d5a3","安徽省","合肥市","肥东县","店埠镇花园社区、桥头集路西侧",31.861792,117.530608,31.817382,117.447064,1
"3401002016B01446","64e6af56-408a-42db-9e1c-3856867e5d33","安徽省","合肥市","肥西县","上派镇合铜路与巢湖路交口东南侧",31.707701,117.154548,31.609800,117.869232,1
"3401232016B00526","9a47ac0c-7136-47bd-af43-5925df8e9415","安徽省","合肥市","肥西县","三河镇",31.517743,117.250903,31.513060,117.239120,1
"3401002011B02881","e66e4a2d-de8d-4844-9b61-b2eb60abc2e8","安徽省","合肥市","蜀山区","合肥市蜀山区梅山路2号",31.855772,117.279935,31.851630,117.268472,1
"3401002015B03669","187e9a77-5361-4411-a8b1-7a67ab3e4f4f","安徽省","合肥市","庐阳区","合肥市庐阳区亳州城5幢",31.883492,117.271615,31.880730,117.259472,1
"3401212011B00451","c0173ca1-cd62-4631-a786-2c9f717948f8","安徽省","合肥市","长丰县","长丰县双墩镇",32.051383,117.240122,32.009732,117.259032,1
"3401222018B01715","72fdfd73-7a6f-47ff-ba6b-a1227c4235cf","安徽省","合肥市","巢湖市"," 肥东县撮镇镇规划支路西侧",31.614196,117.847427,31.819830,117.462896,1
"3401002011B01554","a445934b-812a-4cdf-a6ef-423826f504af","安徽省","合肥市","蜀山区","合肥市望江西路",31.838144,117.204247,31.832480,117.244920,1
"3401232010B00497","813af4c0-8e2b-478b-97a1-90a3f4fec117","安徽省","合肥市","肥西县","紫蓬镇",31.748534,117.074774,31.757050,117.019448,1
"3401232010B00522","23e449ed-b355-472b-80f1-bef26b60ff91","安徽省","合肥市","肥西县","肥西县紫蓬镇",31.748534,117.074774,31.756660,117.026200,1
"3401212009A00104","6119f83f-9e63-4e9d-9cde-e20beaaa6bf6","安徽省","合肥市","长丰县","双凤工业区",31.972408,117.269559,31.966240,117.259144,1
"3401212011B00364","297abddb-d57b-4ef8-aebb-d1663acf5cae","安徽省","合肥市","长丰县","陶楼乡高塘村，东为高下路，西为高塘村，南为粮站，北为王庄村",32.088106,117.185413,31.448006,117.643352,1
"3401002010B07165","4369540b-ceec-43ff-acad-573c41ec1eaa","安徽省","合肥市","包河区","合肥市包河区葛淝路",31.807742,117.369579,31.801280,117.359072,1
"3401002013B01119","877dcb5a-e9af-42d8-baa8-a925985a089a","安徽省","合肥市","肥西县","合肥高新区望江西路与浮山路交口东南角（KD2-4-2）地块",31.837523,117.142245,31.833120,117.130176,1
"3401222011B01045","6f0974a6-bfe1-49a8-b886-129fe8e34f85","安徽省","合肥市","肥东县","撮镇镇建华社区",31.838399,117.408140,31.823840,117.379792,1
"3401222011B00699","a76ab266-ba93-4718-866a-6a2ca426d3d0","安徽省","合肥市","肥东县","众兴乡大高村童翎岗组",31.989277,117.426012,31.984976,117.417672,1
"3401002008B00368","9fd9a997-878d-46e4-977e-8db826bb088c","安徽省","合肥市","蜀山区","紫云路南，桃园路东",31.747212,117.252750,31.822454,117.222312,1
"3401222010A00980","7d53e2f0-dfd4-4842-b454-f15b223bdb7a","安徽省","合肥市","肥东县","肥东县撮镇镇店忠路西侧",31.830165,117.490846,31.837482,117.468760,1
"3401222008B00628","849cefc7-0bab-44e2-9299-44908586ba99","安徽省","合肥市","瑶海区","龙岗开发区临泉路北侧",31.874862,117.378434,31.889060,117.287776,1
"3401002015B01661","7e4fc127-187d-41e6-b6ac-656e272517f3","安徽省","合肥市","肥西县","合肥市滨湖新区庐州大道以东、杭州路以南",31.724292,117.282778,31.720292,117.274424,1
"3401002009B01248","dde4edb3-26b7-4398-8968-86362ab67721","安徽省","合肥市","蜀山区","蓬莱路西，紫蓬路南",31.741744,117.217211,31.741608,117.207096,1
"3401002016B00238","55962405-16d2-4dc8-9b80-87eec1de6525","安徽省","合肥市","长丰县","玉皇山路与东淝河路交口西北角",31.945632,117.350582,31.942390,117.334272,1
"3401222014A00409","d72e01c6-8fa1-435b-974c-ffacbaa19fcd","安徽省","合肥市","肥东县","肥东县店埠镇双桥社区",31.861792,117.530608,31.865670,117.504832,1
"3401002016B04571","4bddcbb2-dfbe-4d52-a19f-af15661c9839","安徽省","合肥市","庐阳区","合肥市庐阳区大杨镇龙王社居委A区移民安置区46幢10层",31.905867,117.237149,31.884950,117.242080,1
"3401002011B00657","463ca1aa-fa4d-4578-8a8a-30d1a8fb630f","安徽省","合肥市","蜀山区","合肥市金寨路161号102室",31.847260,117.274708,31.843460,117.262768,1
"3401222016A02178","20b7b157-ea64-4748-8d89-0fb6952778d2","安徽省","合肥市","肥东县","店埠镇南环路南",31.861792,117.530608,31.887182,117.465744,1
"3401002016B03510","9952efd1-07ca-4f6c-8384-ef90e24e59c7","安徽省","合肥市","庐阳区","合肥市庐阳区西菜市街2幢",31.884887,117.271459,31.862186,117.269856,1
"3401212016B00403","7d2899a6-4017-4126-974a-f2cbf4b48a0e","安徽省","合肥市","长丰县","岗集镇",31.997379,117.147602,31.951960,117.179896,1
"3401212016B00387","2eb5f602-ba1d-4562-81eb-561035fb0381","安徽省","合肥市","长丰县","双墩镇",32.051383,117.240122,32.008018,117.250576,1
"3401212016B00320","01f7325e-b91d-47c0-9fd4-a5255584fc78","安徽省","合肥市","长丰县","双凤开发区",31.991296,117.242381,32.032616,117.254976,1
"3401222016B01888","fb6a3179-e261-462f-80e1-b1fb20ba466b","安徽省","合肥市","肥东县","肥东经济开发区护城路东侧",31.893890,117.475401,31.636848,117.945168,1
"3401222012A01490","94859e49-1601-4f42-9cfb-47aaf9ea5f80","安徽省","合肥市","肥东县","肥东县包公镇小包社区",31.960158,117.692577,31.942340,117.676360,1
"3401002012B02397","f68977c3-f648-4f0d-96e0-c80592c52894","安徽省","合肥市","庐阳区","合肥市庐阳区义井路以西、固镇路以南",31.889691,117.282230,31.895930,117.259424,1
"3401222009A00972","16932c09-a129-45cc-b92d-6a534b4ebc7c","安徽省","合肥市","肥东县","肥东县新区境内",31.893890,117.475401,32.027648,117.659128,1
"3401002011B00663","180c6f7b-45e2-4180-a928-06d35f3eda4c","安徽省","合肥市","蜀山区","合肥市金寨路161号103室",31.847260,117.274708,31.843460,117.262768,1
"3401232011B00029","0a8797a5-4eb6-4ae6-8143-687a83473739","安徽省","合肥市","肥西县","柏堰科技园",31.801087,117.190623,31.799500,117.161200,1
"3401232012B00786","8db76b6b-c6b8-4f2a-b899-34849d536335","安徽省","合肥市","肥西县","柏堰科技园",31.801087,117.190623,31.799500,117.161200,1
"3401232009B00740","3ff0cf60-93fe-4c69-9524-d05355484881","安徽省","合肥市","肥西县","肥西县桃花镇 ",31.771536,117.157251,31.803880,117.153224,1
"3401212009B00532","927845ba-c9b5-48cd-9016-66fe427cea04","安徽省","合肥市","长丰县","双凤开发区凤麟路以西",31.991296,117.242381,31.978750,117.275640,1
"3401002014B09186","2ce99d21-6d9e-43b6-b666-0f3d09310d3a","安徽省","合肥市","瑶海区","合肥市瑶海区长江东路以北",31.918157,117.404983,31.871320,117.357728,1
"3401002012B01380","522f2820-dd0e-4077-84ca-00fecab728b4","安徽省","合肥市","蜀山区","合肥市高新区创新大道与皖水路交口西南角KF7-4-2地块",31.851433,117.140583,31.853400,117.197200,1
"3401232012B00352","c2b74c6c-c08c-48db-86cf-82dd4681877f","安徽省","合肥市","肥西县","山南镇",31.615478,116.852409,31.623100,116.875400,1
"3401222016B01875","1b15ed76-d90b-4a69-b7f0-7afe2ec764f8","安徽省","合肥市","肥东县","肥东县撮镇镇铁路北路与黄栗树路交口东北角",31.844736,117.429242,31.840998,117.416344,1
"3401002010B00448","1724472d-8981-455d-97f6-106baf7f1b48","安徽省","合肥市","瑶海区","新汴河路以南",31.924373,117.335583,31.822454,117.222312,1
"3401002016B04919","385a2221-e28d-4339-bdb0-e98df8a10f58","安徽省","合肥市","庐阳区","合肥市庐阳区城隍庙徽光阁",31.870525,117.284987,31.865210,117.272000,1
"3401222012B01132","23b6bcf6-1b0b-493f-99f8-f893bde60215","安徽省","合肥市","肥东县","肥东县经开区金阳路西横大路北",31.887302,117.446730,31.878118,117.434952,1
"3401232015B01134","36d91ffe-844c-4b8c-a4a1-1d4c60146fd8","安徽省","合肥市","蜀山区","新港工业园",31.826578,117.233443,31.712270,117.244104,1
"3401002017B04408","6d208835-341a-42b9-8526-a7182914a3e7","安徽省","合肥市","蜀山区","合肥经济技术开发区天门路以西、锦绣大道以南",31.784661,117.214757,31.755702,117.220432,1
"3401232013B03344","95e88cfe-1514-4ce9-b241-2f9b59756c1b","安徽省","合肥市","肥西县","柿树岗乡合龙村",31.622811,116.957903,31.594556,116.942280,1
"3401002014B01157","edd9bb50-8b9a-4c1e-9184-f64b954caabf","安徽省","合肥市","蜀山区","合肥市蜀山区长江西路以北、樊洼路以西",31.859983,117.234060,31.855770,117.222312,1
"3401212014A01536","b4f8e209-633d-4d8d-b806-73120afb5e0c","安徽省","合肥市","长丰县","长丰县双墩镇",32.051383,117.240122,32.009732,117.259032,1
"3401222015B01976","7ac86c21-a61b-4221-b8a4-514467663a23","安徽省","合肥市","肥东县","合肥循环经济示范园四顶山路与宏图大道交口东北角",31.774393,117.498083,31.822400,117.474696,1
"3401002016B01914","4e165029-69fb-4e3c-9594-68feefca7888","安徽省","合肥市","瑶海区","合肥新站区文忠路以东、学府路以北",31.938122,117.390462,31.933884,117.370224,1
"3401002013B05895","c8e38d9d-679f-4511-958b-e5d9a4bb7999","安徽省","合肥市","包河区","合肥市宿松路与黟县路交口西南",31.816692,117.276008,31.846310,117.266984,1
"3401232014B00106","a8b0ccea-b0ab-4dea-8466-cb7c730b33e8","安徽省","合肥市","肥西县","柏堰科技园",31.801087,117.190623,31.799500,117.161200,1
"3401222015A00184","b76631d4-9e04-48f5-8b2d-09a83d67d7d0","安徽省","合肥市","肥东县","肥东县梁园镇梁园社区新二组",32.002379,117.575710,31.998480,117.549784,1
"3401232010B01722","816da7ce-1090-468e-b3e4-89039ac0f7ce","安徽省","合肥市","肥西县","花岗镇",31.638249,117.053711,31.630500,117.051760,1
"3401232010B01431","8d99c857-7091-4e87-9a95-e326f4f48bcf","安徽省","合肥市","肥西县","花岗镇",31.638249,117.053711,31.630500,117.051760,1
"3401002015B01905","d4c32f36-c867-4fe4-935d-9d00b507835f","安徽省","合肥市","长丰县","合肥市新站区玉皇山路以南、东淝河路以东",31.946812,117.345728,31.942390,117.334272,1
"3401222015B00531","7ce90501-1835-4fc3-8bdb-6b58a9b91736","安徽省","合肥市","瑶海区","撮镇镇东风大道东与合肥绕城线交口东南角",31.860213,117.423740,31.993834,117.377920,1
"3401002016B00228","0c2e0b81-4b2b-481e-b314-cf06a946eb9d","安徽省","合肥市","长丰县","大禹路以西、东方大道以南",31.949068,117.346271,31.952672,117.348000,1
"3401002016B00259","009530e0-ecbd-4f7e-a00f-e0e1fe38fcf6","安徽省","合肥市","瑶海区","合肥市新站区毕升路以东、浍水路以北",31.912298,117.380234,31.907956,117.368288,1
"3401232016B00817","e90bb04d-dd72-4fb9-af76-acb9efddf1c7","安徽省","合肥市","蜀山区","桃花工业园",31.770728,117.213464,31.758420,117.197600,1
"3401232016B00286","284b62e1-902b-4271-aa00-745aaf1bf008","安徽省","合肥市","肥西县","严店乡",31.617137,117.318247,31.632380,117.202536,1
"3401002016A01850","7d8bf774-a3bb-43b9-beb7-2cc228fbda95","安徽省","合肥市","肥西县","合肥高新区长宁大道以东，磨子潭路南，石镜路以西，紧邻长江西路北的区域",31.837523,117.142245,31.856290,117.098536,1
"3401222008B00020","2e9aa1de-4b49-471c-bb6e-c672a44dc087","安徽省","合肥市","肥东县","肥东县新城开发区晨光路西侧",31.874000,117.438420,31.873212,117.426672,1
"3401212018B00030","abc929fa-4c64-4fb2-b284-416e98a32db4","安徽省","合肥市","长丰县","水湖镇",32.482825,117.149682,32.481620,117.159960,1
"3401212013B00032","6d311fdc-7801-4b3a-9130-75ab5bc07d27","安徽省","合肥市","长丰县","长丰县下塘镇",32.204075,117.219646,32.199452,117.204872,1
"3401222018B01614","5820acf8-8a2f-4361-a4b1-b37c776ec4bc","安徽省","合肥市","肥东县","店埠镇长江东路与桥头集路交口西南角",31.861792,117.530608,31.817382,117.447064,1
"3401222011B01215","0f999417-fe9c-4d83-8b7d-6a40d10dd0d8","安徽省","合肥市","肥东县","店埠镇龙泉东路北侧定光社区",31.883617,117.494194,31.879770,117.482104,1
"3401212015B01627","fcda9bc9-da4a-4622-b87f-2fa9db2bd5f5","安徽省","合肥市","长丰县","岗集镇",31.997379,117.147602,31.951960,117.179896,1
"3401212016B00946","db84d2ab-ae7e-444f-b989-7e743b102f51","安徽省","合肥市","长丰县","吴山镇",32.085422,117.083568,32.070740,117.062216,1
"3401212016B01046","23daf6b1-c754-4fcb-a06e-70ec56e31725","安徽省","合肥市","长丰县","双凤开发区",31.991296,117.242381,32.032616,117.254976,1
"3401212016B00985","1c0794f2-91d7-4c77-b950-ede408229f30","安徽省","合肥市","长丰县","双凤开发区",31.991296,117.242381,32.032616,117.254976,1
"3401222015A01508","1fee0a04-679a-41d7-aaf7-80f139294e9b","安徽省","合肥市","瑶海区","肥东县撮镇镇钟油坊路东、高亮路南",31.844824,117.392146,31.889280,117.463512,1
"3401232010B01359","7917c15e-c6bd-4ae4-9df8-197d6c9ebb67","安徽省","合肥市","肥西县","严店乡",31.617137,117.318247,31.632380,117.202536,1
"3401222011A00903","2fdef52c-07fd-432f-bae8-ca4282b3cc05","安徽省","合肥市","肥东县","肥东县店埠镇中心社区（店忠路东侧）",31.861792,117.530608,31.837482,117.468760,1
"3401212011B00338","b7b4a71f-3f91-4607-bd0c-bd94135c3b15","安徽省","合肥市","长丰县","岗集镇东为ＪＡＣ大道，南为合肥恒丰汽车零部件有限公司，北为神龙路。",31.967819,117.198493,31.964000,117.186304,1
"3401002011B01834","4072dfef-a635-4f79-a9ac-001de1f294ec","安徽省","合肥市","瑶海区","合肥市新站区天水路以北、文忠路以西",31.918707,117.375838,31.899316,117.355784,1
"3401222011A01366","e0c0fa1e-4057-413c-b3e7-93d71aea524d","安徽省","合肥市","肥东县","店埠镇中心社区（新市镇四顶山路西侧）",31.861792,117.530608,31.770702,117.486080,1
"3401002008B04380","25341d59-a233-40b0-b349-66876182c1a7","安徽省","合肥市","长丰县","青鸾路西、汤口路南",32.350945,117.356541,31.747232,117.194256,1
"3401232008B00349","fea80e1d-3104-48c2-bf40-0adb3661b789","安徽省","合肥市","肥西县","桃花镇",31.771536,117.157251,31.778360,117.214000,1
"3401002013A07135","42691f71-9732-4a81-a931-70d4f53eb05d","安徽省","合肥市","肥西县","合肥市滨湖新区安兴路与包河大道交口东北",31.737965,117.294911,31.762310,117.318544,1
"3401232012B02270","56a72aa6-a1a8-48d6-ac27-51cf06d52817","安徽省","合肥市","肥西县","小庙镇",31.859246,117.005544,31.845360,117.012120,1
"3401002013B07032","f50c062a-5934-46f4-8bf3-97225d03c9f7","安徽省","合肥市","蜀山区","合肥市蜀山区长江西路以北、振兴路以东",31.859983,117.234060,31.856532,117.219968,1
"3401232012B00065","0179b689-8137-45e5-b824-adabae2b75d1","安徽省","合肥市","肥西县","花岗镇",31.638249,117.053711,31.630500,117.051760,1
"3401222010B00977","c09f182a-2e56-4484-8260-5e32fdab2f28","安徽省","合肥市","肥东县","新区桂王南路西侧",31.872615,117.456294,31.822454,117.222312,1
"3401222012B00666","f70f6f56-6153-4a4d-b1a6-e5c5b2dd0734","安徽省","合肥市","肥东县","店埠镇西山驿居委会",31.835470,117.588381,31.829700,117.582456,1
"3401002012B01296","6c83c27b-7390-44d0-b11f-7474f8be33ca","安徽省","合肥市","蜀山区","合肥市高新区创新大道与皖水路交口西北角KF4-12地块",31.851433,117.140583,31.853400,117.197200,1
"3401002009B01048","6e363fcd-2dc6-486d-b167-35ea7045fcd7","安徽省","合肥市","蜀山区","宝塔路东、312国道南",31.857206,117.140992,31.822454,117.222312,1
"3401232009B00016","a0a11667-c7ad-4c3b-b49d-03ea3bbb2968","安徽省","合肥市","肥西县","上派镇馆驿路与人民西路交口北侧",31.709613,117.158800,31.710312,117.151744,1
"3401222009B01361","de21ff83-46eb-4bfd-88ff-4d76dc020de4","安徽省","合肥市","肥东县","元疃镇工业聚集区",32.105319,117.387681,31.874720,117.399144,1
"3401232013B03400","dafaa154-67f4-4d41-a62e-a140fa3ba145","安徽省","合肥市","肥西县","花岗镇",31.638249,117.053711,31.630500,117.051760,1
"3401232013B03285","19b623d4-37f5-4c31-a5b2-23cd98887da8","安徽省","合肥市","肥西县","官亭镇江夏初级中学",31.845171,116.791072,31.143944,117.184968,1
"3401002016B03505","dde68419-fa1b-409d-a05e-741e3d14673e","安徽省","合肥市","庐阳区","合肥市庐阳区绿都商城负一层B区",31.869381,117.295058,31.866120,117.282080,1
"3401222011A00854","2e371825-12fa-45ba-98f0-aa29d401d8c5","安徽省","合肥市","肥东县","东部新市镇店忠路西侧",31.830165,117.490846,31.837482,117.468760,1
"3401222011A00885","ede40d34-78a3-4eaa-b129-fe02fd218d7d","安徽省","合肥市","长丰县","店埠镇镇西、花园、光大、对河社区",32.153039,117.265415,31.850860,117.281024,1
"3401002009B02010","a44bc820-f11f-4610-89e7-209edba5f93f","安徽省","合肥市","肥西县","高新建成区内，习友路北侧AS-4地块",31.822422,117.193055,31.800176,117.218928,1
"3401002009B02005-1","b04419b0-9046-439c-897d-3eb425843929A","安徽省","合肥市","蜀山区","高新示范区望江西路与永和路交口西北角",31.836665,117.151555,31.816842,117.139544,1
"3401002011B00039","775d443e-e15d-4c2d-abea-364cafdb5c20","安徽省","合肥市","庐阳区","庐阳区临泉路与阜阳北路交口东北侧",31.892868,117.293806,31.889370,117.282400,1
"3401212010B00757","6b0312d6-9b89-4334-8ff1-989b8634154c","安徽省","合肥市","长丰县","双凤开发区凤霞路东侧，西淝河路南侧",31.978977,117.288463,31.978750,117.275640,1
"3401232015B00924","e036228f-194d-49f6-b6d8-6d40e35f9aae","安徽省","合肥市","肥西县","花岗镇",31.638249,117.053711,31.630500,117.051760,1
"3401232015B00936","2cb8444c-259d-4536-abb1-af1c5f957bc2","安徽省","合肥市","蜀山区","新港工业园",31.826578,117.233443,31.712270,117.244104,1
"3401222015B01825","19f00eef-3ba1-4339-a894-7ee90bc5f527","安徽省","合肥市","肥东县","循环园宏图大道北侧",31.774088,117.511316,31.770042,117.487312,1
"3401222015B01767","86434ba8-c7d5-4bdb-9b46-4f480eb7fa6c","安徽省","合肥市","肥东县","撮镇镇喻闸路东侧",31.838399,117.408140,31.822454,117.222312,1
"3401002008B03819","9a959a54-f948-453b-892d-f18dedbbbfe9","安徽省","合肥市","瑶海区","瑶海工业园新海大道北",31.895798,117.348984,31.884680,117.380184,1
"3401002008B00018","0948c28d-a3e9-46bb-8ae8-ca219f029165","安徽省","合肥市","瑶海区","瑶海工业园纬A路南",31.895798,117.348984,31.822454,117.222312,1
"3401222013A00734","469d5b3f-61eb-4f89-9669-15aceb1ed61d","安徽省","合肥市","肥东县","肥东县撮镇镇新安社区",31.838399,117.408140,31.824310,117.428520,1
"3401232018B00377","e00deed0-0c78-4f08-8b04-b3389de0ddfe","安徽省","合肥市","蜀山区","新港工业园",31.826578,117.233443,31.712270,117.244104,1
"3401002009B00769","4cc3a869-a78e-4101-8b5b-0edb805e4133","安徽省","合肥市","包河区","合肥市包河区包河产业园人民大街与包河大道交口东南角",31.779353,117.338972,31.775190,117.338056,1
"3401222012B00061","26343e86-78a4-40e1-82f4-87a6c190b788","安徽省","合肥市","肥东县","合肥循环经济示范园境内",31.809502,117.497090,31.822400,117.474696,1
"3401002012B00050","65691137-615d-43a6-9ccc-d92d10593966","安徽省","合肥市","瑶海区","合肥市瑶海区肥东路以东，长江东路大街以南",31.918157,117.404983,31.869572,117.327536,1
"3401002015B02229","53e7b569-c515-40f8-ab91-f08064c39860","安徽省","合肥市","庐阳区","合肥市庐阳区绿都商城",31.869381,117.295058,31.866120,117.282080,1
"3401222014A00392","47fd8688-ad9c-466d-b9b3-2977313d9f78","安徽省","合肥市","肥东县","肥东县撮镇镇先锋社区",31.838399,117.408140,31.889610,117.463608,1
"3401232014B00311","5d1e13f4-6fa2-4768-8164-51703b04b260","安徽省","合肥市","肥西县","柏堰科技园",31.801087,117.190623,31.799500,117.161200,1
"3401232015B00992","c78924b1-9878-4903-a65b-c91642d95972","安徽省","合肥市","肥西县","铭传乡",31.739825,116.859962,31.752060,116.806392,1
"3401222011B00257","3b90f367-6348-4b70-a9c9-f4a30ddf0f6a","安徽省","合肥市","肥东县","肥东经开区祥和路东",31.889535,117.436136,31.882770,117.434776,1
"3401002012B01615","e3af3067-86a0-49e5-aea3-758502ab8f2f","安徽省","合肥市","蜀山区","合肥市高新区浮山路与望江西路交口东北角KX4-4地块",31.836678,117.157434,31.833676,117.179160,1
"3401232012B01724","13e67572-3a1f-40e8-8fbc-8c75fd482bf3","安徽省","合肥市","肥西县","柏堰科技园",31.801087,117.190623,31.799500,117.161200,1
"3401212008B00228","5a9b94f5-ff42-4bf1-b8ef-e4d0bf92ee17","安徽省","合肥市","长丰县","岗集镇",31.997379,117.147602,31.951960,117.179896,1
"3401222009B00335","4f7c16c1-3aca-4d26-ab9b-6938a3905201","安徽省","合肥市","肥东县","新区安乐路南",31.896052,117.459028,31.890966,117.448392,1
"3401002014B01699","59527bfa-2b52-4ff0-be99-9723beb98fee","安徽省","合肥市","蜀山区","合肥经济技术开发区金寨路以东、紫云路以南",31.753896,117.215460,31.823476,117.252656,1
"3401002010B05220","476bbd6f-f88b-42af-b41e-5802b5a0104c","安徽省","合肥市","庐阳区","阜阳北路与涡阳路交口西南",31.912847,117.290110,31.907300,117.278192,1
"3401222016B02764","51ccbad8-8cbb-49d9-a295-14ce8fe5cec2","安徽省","合肥市","肥东县","肥东县店埠镇包公大道与四顶山路交口东北角",31.861792,117.530608,31.770702,117.486080,1
"3401232018B00780","eac465c1-759a-49ca-b6c7-85ebd08b8796","安徽省","合肥市","肥西县","严店乡",31.617137,117.318247,31.632380,117.202536,1
"3401212018B01249","0a526d7b-dbcd-4e04-8332-34d938ebdf77","安徽省","合肥市","长丰县","岗集镇",31.997379,117.147602,31.951960,117.179896,1
"3401232011B01080","45e0ce83-9d95-4d34-8497-c5a5c3cf2c08","安徽省","合肥市","肥西县","花岗镇",31.638249,117.053711,31.630500,117.051760,1
"3401222015B00699","bf7a351c-1f27-47b8-a031-19a03fad850f","安徽省","合肥市","肥东县","八斗镇八斗居委会",32.160221,117.615417,31.883500,117.464512,1
"3401222015B01006","d46568c7-10e0-4e69-9e1d-7cd2a21bc420","安徽省","合肥市","肥东县","古城镇刘兴村",32.157385,117.864877,32.135926,117.726544,1
"3401222017B00920","a8c12543-9385-432a-9ffe-d1f460d696c3","安徽省","合肥市","肥东县","肥东经开区包公大道与祥和路交口西北角",31.897222,117.435746,31.882770,117.434776,1
"3401212016B00208","e3ac8e9a-0e79-45f8-8b97-f73d83e562bb","安徽省","合肥市","长丰县","下塘镇",32.204075,117.219646,32.195190,117.207648,1
"3401212016B00276","c01de9b5-89a8-475d-b493-b2a5629c9d6f","安徽省","合肥市","长丰县","下塘镇",32.204075,117.219646,32.195190,117.207648,1
"3401232013B03025","030e9f4c-7999-4664-81b5-ace48fbb151e","安徽省","合肥市","肥西县","上派镇工业聚集区灯塔路东侧",31.706286,117.155886,31.874720,117.399144,1
"3401222013B00605","2c469ee2-fe29-42eb-bd5e-79b07fdf1453","安徽省","合肥市","肥东县","肥东县撮镇镇华光村",31.838399,117.408140,31.813060,117.432800,1
"3401232013B03005","c31995e0-b02f-46df-9ffd-b0ccc71c6ec4","安徽省","合肥市","肥西县","桃花镇玉兰大道东侧",31.812352,117.167428,31.804040,117.153224,1
"3401222009B01016","5596b865-ad86-45ef-bb24-0f5881a6e991","安徽省","合肥市","肥东县","新区金阳路东纬一路南侧",31.887302,117.446730,31.878118,117.434952,1
"3401212009B00679","8c32f139-1f54-4f8b-9c63-5c4ad0b7fed4","安徽省","合肥市","长丰县","东至大陆村土地，南至双三路，西至大陆村土地，北至大陆村土地。",32.011015,117.277024,32.015488,117.288296,1
"3401002014B08441","27a07ff4-f3ed-4b98-9998-ce0c4eb7ded2","安徽省","合肥市","瑶海区","合肥市瑶海区龙岗路以西",31.876795,117.382285,31.875402,117.368960,1
"3401002015B03739","c21ef475-019b-4f81-ade5-22ca9b2d2533","安徽省","合肥市","蜀山区","合肥经济开发区芙蓉路以西、繁华大道以南",31.785742,117.232292,31.783704,117.225840,1
"3401212015B01742","0cdddc04-f707-4929-858e-17abe6de9fae","安徽省","合肥市","长丰县","双墩镇",32.051383,117.240122,32.008018,117.250576,1
"3401232008B00616","fdd073f9-ea09-488a-a6ee-6330e8571ee9","安徽省","合肥市","肥西县","上派镇老中街",31.725796,117.176290,31.723396,117.163016,1
"3401212009B00610","495370c1-38ee-49ad-8bf7-ef20b1ed5936","安徽省","合肥市","长丰县","东至铁路边，南到工商所、西至双凤大道、北至滁河南埂",32.003459,117.265612,31.844110,117.240416,1
"3401002016B03659","527bffa9-afe8-4bbb-9c91-60f412a7a75d","安徽省","合肥市","瑶海区","铜陵北路与魏武路交口西北角",31.903186,117.334383,31.905560,117.323888,1
"3401222016A02828","d0275734-1093-495a-aef8-c78f6af62363","安徽省","合肥市","肥东县","肥东经开区金阳路与皂河路交口东北角",31.887302,117.446730,31.882770,117.434776,1
"3401212016B00565","3d7cbdea-b590-4274-9fcb-9acbfedccc08","安徽省","合肥市","长丰县","岗集镇",31.997379,117.147602,31.951960,117.179896,1
"3401232016B00037","76d31b59-0e46-4c14-90aa-bd203f359d59","安徽省","合肥市","蜀山区","桃花工业园",31.770728,117.213464,31.758420,117.197600,1
"3401232013B03434","f5353369-7fb7-4fa1-a5c7-c2cab7b40ade","安徽省","合肥市","肥西县","官亭镇",31.845171,116.791072,31.802700,116.863648,1
"3401002009B00039","699e8243-6b3b-424c-ab03-fbe7f8aa11de","安徽省","合肥市","肥西县","高新区望江西路以北，永和路以东KB1-6",31.827181,117.151724,31.833676,117.179160,1
"3401222016A01600","3eee4be3-2d54-4043-b5e7-df3c8495a77d","安徽省","合肥市","肥东县","长临河镇星光社区丁陈三组",31.699755,117.473385,31.817832,117.559064,1
"3401002007B00559","e7e421de-195a-4866-8820-2d0e244c2595C","安徽省","合肥市","庐阳区","安庆路以北",31.868922,117.284787,31.865100,117.273080,1
"3401232009B00636","9fa2f3ce-d4e7-412c-9030-8cb0cc20f02f","安徽省","合肥市","肥西县","肥西县桃花镇 ",31.771536,117.157251,31.803880,117.153224,1
"3401232009B00627","a9e237a7-5704-4aff-af85-82a9f295d021","安徽省","合肥市","肥西县","肥西县桃花镇 ",31.771536,117.157251,31.803880,117.153224,1
"3401002012B03276","167619a8-88e8-4029-904f-7f2aafb3781f","安徽省","合肥市","肥西县","合肥经济技术开发区紫石路以北",31.716994,117.252546,31.719916,117.225704,1
"3401222013B00191","364291c0-8b71-43fb-8516-1b89b18d3813","安徽省","合肥市","肥东县","肥东县撮镇镇大郭社区",31.950174,117.603464,31.829930,117.482904,1
"3401222011B00466","877caa4c-f54f-49c6-a13a-06a734f99c90","安徽省","合肥市","瑶海区","撮镇镇裕溪路南侧、312国道东侧",31.848409,117.354666,31.589242,117.878408,1
"3401222016A01586","bb603e5c-0bc0-4012-8061-08f676b6b128","安徽省","合肥市","肥东县","肥东县店埠镇",31.861792,117.530608,31.891980,117.470384,1
"3401002008B01158","8A119709606A486999DD2E358B4D6D3E","安徽省","合肥市","庐阳区","灵溪路东、连水路以南",31.915669,117.284248,31.928914,117.267912,1
"3401002018B02703","b917e0ba-f21a-492b-91b8-d6f32026a137","安徽省","合肥市","蜀山区","合肥市蜀山区井岗镇石牛路与天鹰路交口",31.861978,117.206354,31.860620,117.257208,1
"3401232010B00462","10fdb828-12a5-496c-9dbe-f2a1ddffa7a7","安徽省","合肥市","肥西县","上派镇金寨南路花木城东侧",31.751454,117.195489,31.764520,117.204656,1
"3401222009B01447","b78b812d-04cc-4b69-9f03-b7b7406ea53a","安徽省","合肥市","肥东县","合肥循环经济示范园",31.809502,117.497090,31.822400,117.474696,1
"3401222018B01916","6fd39566-184e-4ab9-ac2d-a6127594ecdf","安徽省","合肥市","肥东县","合肥循环经济示范园繁华大道北侧",31.809502,117.497090,31.822400,117.474696,1
"3401222018A01599","ff872c5e-4dd3-43d9-8334-0cbe5c030746","安徽省","合肥市","肥东县","店埠镇驷马山路东、岱山湖路北",31.861792,117.530608,32.201558,117.755624,1
"3401222011A00181","63aa62f0-b09a-4fa5-95c1-6df644faea99","安徽省","合肥市","肥东县","撮镇镇先锋社区",31.838399,117.408140,31.822454,117.222312,1
"3401212008B00048","477448d9-99a6-47ad-9a85-325124d5adb7","安徽省","合肥市","长丰县","长丰县杨庙镇合淮路东侧",32.207653,117.092752,32.205494,117.079880,1
"3401002008B01206","f087dd19-31a9-4996-836e-b6f3063f59f3","安徽省","合肥市","庐阳区","宿州路以西、淮河路以南",31.871253,117.292114,31.869014,117.284232,1
"3401222008B00766","24aa2d55-ae69-4f88-bf0e-265f8acd57f6","安徽省","合肥市","肥东县","撮镇镇撮东路居委会",31.838399,117.408140,31.822454,117.222312,1
"3401232008B00088","17992995-6d97-401e-abdf-d03102c59fc7","安徽省","合肥市","肥西县","高刘镇商贸大街",31.946707,116.977138,31.935392,116.929176,1
"3401222014B00609","79b8cc0f-8523-42c9-8b45-8d5a52447b24","安徽省","合肥市","肥东县","肥东经济开发区龙城路南",31.893890,117.475401,31.636848,117.945168,1
"3401002010B07239","df9bffcc-78eb-408e-8512-7f538f73d9e3","安徽省","合肥市","肥西县","庐州大道与云谷路交口东北",31.753074,117.307364,31.715330,117.255632,1
"3401222009B00239","54c61250-e422-433e-b15e-cd5db823fac8","安徽省","合肥市","瑶海区","龙岗开发区站前路南侧",31.874862,117.378434,31.869800,117.363992,1
"3401002017B04102","29069f3a-5404-4295-b22f-7af280559ae3","安徽省","合肥市","蜀山区","蜀山区白莲岩路与振兴路交口西南角",31.868647,117.156065,31.853200,117.255120,1
"3401222012A00337","c756aaf8-6583-44d4-a141-7ad2a2fc6ebf","安徽省","合肥市","肥东县","肥东县经济开发区境内",31.893890,117.475401,32.027648,117.659128,1
"3401002008B03726","75ab166e-3d84-45ed-8f3b-e7479f5cf904","安徽省","合肥市","瑶海区","礼河路以北",31.913874,117.330857,31.911566,117.314112,1
"3401222018A01898","b3a1a809-8e00-4217-8d31-84790b6ad0f7","安徽省","合肥市","肥东县","肥东县店埠镇、肥东县经开区境内",31.861792,117.530608,31.882770,117.434776,1
"3401002011B01689","c7aa9873-d38d-4f00-9db4-ccdbc13baa81","安徽省","合肥市","肥西县","合肥市经济技术开发区习友路东、锦绣大道南。",31.822422,117.193055,31.800176,117.218928,1
"3401002012B02726","b4725451-9e44-4106-83b7-fbcb71e367af","安徽省","合肥市","包河区","合肥市包河工业区延安路南、山东路西",31.797785,117.332141,31.775200,117.316840,1
"3401222014A00249","28135d18-1ac1-46e1-9ec0-f938ea5fc129","安徽省","合肥市","肥东县","东城新市镇撮镇路与瑶岗路交口东北角",31.884858,117.477129,31.846944,117.485576,1
"3401002008B00201","CAFD889872E44746AEEEAE8A63D5256E","安徽省","合肥市","包河区","祁门路",31.814503,117.268550,31.810634,117.250496,1
"3401002009B03688","8793023f-e8dd-405e-956f-1a1b0eea781e","安徽省","合肥市","庐阳区","桐城路与庐江路交口西南",31.863052,117.287394,31.859020,117.275072,1
"3401232010B00057","50bc7ac9-8715-4ea1-94a0-b58f143fcded","安徽省","合肥市","蜀山区","桃花工业园",31.770728,117.213464,31.758420,117.197600,1
"3401002010B00414","cfc101ec-ee7d-4dc7-9881-b6cf1ec61eaa","安徽省","合肥市","瑶海区","新汴河路以南",31.924373,117.335583,31.822454,117.222312,1
"3401232016B00391","f11e3023-ab80-444d-8f68-23dcfee7f074","安徽省","合肥市","肥西县","三河镇",31.517743,117.250903,31.513060,117.239120,1
"3401002009B04296","e150d7a7-da43-4ab5-94ea-e42f50a7915d","安徽省","合肥市","瑶海区","新汴河路以南",31.924373,117.335583,31.822454,117.222312,1
"3401002013B01472","41f09a0d-5891-4bfb-b555-60edac5fb856","安徽省","合肥市","包河区","合肥市滨湖新区湖北路与洞庭湖路交口西南",31.740400,117.313085,31.736558,117.288272,1
"3401222016B01909","60d2f86f-ecd0-4f43-88fe-55b9535a6ae7","安徽省","合肥市","瑶海区","肥东经开区护城路与临泉东路交口东北角",31.881284,117.393301,31.882770,117.434776,1
"3401222016B01937","64b60dc2-0e09-4be7-8eac-ab69da7062ce","安徽省","合肥市","肥东县","肥东县经济开发区龙脊山路西侧",31.893890,117.475401,31.885500,117.454904,1
"3401212018B01257","86d2bf35-57bc-4c0b-98aa-d46acd7ad9ad","安徽省","合肥市","长丰县","岗集镇",31.997379,117.147602,31.951960,117.179896,1
"3401232012B01938","43f8b418-8255-4063-8e79-ecb6c7bdcbd3","安徽省","合肥市","肥西县","严店乡",31.617137,117.318247,31.632380,117.202536,1
"3401002016B03311","3f500f81-5360-4d31-a336-da9d0a9f38c8","安徽省","合肥市","蜀山区","蜀山区金寨路以西、槽郢路以北",31.843501,117.268258,31.839008,117.260112,1
"3401002010B05817","74d22dbb-6297-4ca8-ac54-65beba698594","安徽省","合肥市","瑶海区","瑶海区磨店工业集聚区",31.863787,117.315587,31.943570,117.374288,1
"3401222008B00359","fec9feaf-ff49-4dd5-a0ac-d25687980c26","安徽省","合肥市","肥东县","撮镇镇大郭村店忠路东侧",31.830165,117.490846,31.837482,117.468760,1
"3401222008B00708","b0bfc6ff-b512-42ce-9127-ad49f220e0b9","安徽省","合肥市","肥东县","撮镇镇店撮路东侧",31.888864,117.475789,31.853620,116.888576,1
"3401232018B00901","27f7532f-f4bd-4110-9915-f648cf432a2f","安徽省","合肥市","肥西县","官亭镇",31.845171,116.791072,31.802700,116.863648,1
"3401222015B01060","02a4334b-7b9f-4484-b122-600557b87e13","安徽省","合肥市","肥东县","梁园镇路口村",31.951189,117.527976,31.998480,117.549784,1
"3401002014B08097","b3f3c028-d71f-4fc4-8876-979475f8bc7b","安徽省","合肥市","长丰县","合肥市新站区铜陵北路以西、东方大道以北",31.957045,117.359894,31.952672,117.348000,1
"3401222014B00189","50052cb0-0ce3-40e1-889e-8fbb03b3c33b","安徽省","合肥市","肥东县","肥东县经开区护城路西侧",31.893890,117.475401,31.882770,117.434776,1
"3401222011B00969","0591adc7-0ad5-414d-8617-912cde352675","安徽省","合肥市","肥东县","撮镇镇龙塘村",31.852258,117.441889,31.848300,117.429576,1
"3401232010B01560","018d2c1b-b390-48a1-9c6e-e462e5ba7576","安徽省","合肥市","肥西县","上派镇",31.709795,117.168572,31.709070,117.152496,1
"3401212010B00332","f3cfcd30-d216-4de2-beb1-a15a3ffceba6","安徽省","合肥市","长丰县","水湖镇北至明德小学、东至长淮路、南至长丰县土地储备地块、西至新城公园",32.475613,117.175052,32.472938,117.166712,1
"3401222016B01695","34ac4fe8-48de-4421-829e-3a4c3bc0dfa0","安徽省","合肥市","肥东县","店埠镇新安江路与沿河西路交口西南角",31.861792,117.530608,31.881284,117.227608,1
"3401232018B00684","f17cdd59-2d59-453d-a751-01f8836fd71a","安徽省","合肥市","肥西县","柏堰科技园",31.801087,117.190623,31.799500,117.161200,1
"3401232012B01156","b4e3f27f-d7df-4ee6-83eb-44706c303489","安徽省","合肥市","蜀山区","桃花工业园",31.770728,117.213464,31.758420,117.197600,1
"3401002014B01297","e629dfb2-af84-4a8e-9aad-4cb429b0a02f","安徽省","合肥市","瑶海区","合肥市瑶海区新安江路与捉月台路交叉口东南角",31.865908,117.373491,31.897740,117.340896,1
"3401002010B06881","130faca8-7fa7-40e3-9edc-d2b95c7bdeae","安徽省","合肥市","蜀山区","合肥市高新区科学大道与黄山路交口西北角",31.846368,117.211243,31.843036,117.235488,1
"3401222009B01307","1c49c0b1-4001-4b30-9157-61923c265c86","安徽省","合肥市","瑶海区","新区团结路南侧",31.853916,117.357197,31.822454,117.222312,1
"3401222009B01150","b34c9dc4-9b76-4f8f-b4d1-ce9a8e6b11cd","安徽省","合肥市","长丰县","撮镇镇大郭社区",32.457130,117.218538,31.829930,117.482904,1
"3401232011B01285","01937a2f-53b2-4c7f-a38c-0e59f0b17750","安徽省","合肥市","蜀山区","山河镇",31.826578,117.233443,31.822454,117.222312,1
"3401002011B02239","f821773c-b3a4-4cd3-ace8-f094177ef77a","安徽省","合肥市","肥西县","合肥市高新区南岗科技园大别山路南侧（NG4-4）地块",31.865961,117.124802,31.860566,117.110280,1
"3401002011B02786","7b56d96f-7e1e-4c8b-a38d-19bd93ad0cd4","安徽省","合肥市","长丰县","合肥市长丰县双墩镇",32.051383,117.240122,32.009082,117.255416,1
"3401002018B02150","8a1909fd-dba8-46b5-8ac0-673b21d68e7a","安徽省","合肥市","肥西县","上派镇芮祠路与司空山路交口东南",31.709795,117.168572,31.702570,117.152504,1
"3401002007B01377","9b0597de-a3aa-4696-8be6-7815212870e9","安徽省","合肥市","蜀山区","合肥经济技术开发区石门路北，习友路西",31.784661,117.214757,31.800176,117.218928,1
"3401232013B02900","acf8a26b-bef8-4d4b-80c8-c7ca48a6e327","安徽省","合肥市","蜀山区","桃花工业园",31.770728,117.213464,31.758420,117.197600,1
"3401002017B04626","c06d9dc5-cdde-4c62-8090-2c2867572754","安徽省","合肥市","庐阳区","合肥市庐阳区凤凰台路与蒙城路交口",31.877203,117.285221,31.873010,117.273136,1
"3401222016A01738","621dad6b-5d6c-4468-b0c1-698ab73d6fb6","安徽省","合肥市","肥东县","店埠镇境内",31.861792,117.530608,31.887182,117.465744,1
"3401002013B06863","0572451c-b893-4fa9-8439-e0d6b8bc69d3","安徽省","合肥市","肥西县","合肥高新区复兴路与创新大道交口东南角KI3-1-1地块",31.837523,117.142245,31.833120,117.130176,1
"3401222008B01196","76e5417c-253d-4fef-8813-87cdeff484a8","安徽省","合肥市","瑶海区","撮镇镇新安居和平路北",31.859771,117.341952,31.884692,117.422072,1
"3401222011A01427","5940a0bb-e6cb-45ea-a306-98385b374d5d","安徽省","合肥市","肥东县","肥东经济开发区古河路北侧、桂王路西侧",31.893649,117.456786,31.885982,117.438928,1
"3401232015B01452","0ec9340f-f031-42b7-a800-5460e741ebb4","安徽省","合肥市","蜀山区","新港工业园",31.826578,117.233443,31.712270,117.244104,1
"3401002008B00618","349d97f5-b6ad-4962-b81d-1bdc4ea15ef6","安徽省","合肥市","蜀山区","潜山路",31.825715,117.238219,31.847470,117.229400,1
"3401232016B00402","d11cf581-1b63-4523-987a-37fdf999751d","安徽省","合肥市","肥西县","紫蓬镇",31.748534,117.074774,31.757050,117.019448,1
"3401222011B00676","6ef25047-4bba-4731-9a2c-07f6202ff31a","安徽省","合肥市","肥东县","撮镇镇振兴村",31.838399,117.408140,31.806490,117.482920,1
"3401232012B01792","edf58bfd-68ce-4955-a5b3-9dccdf29ad82","安徽省","合肥市","肥西县","山南镇",31.615478,116.852409,31.623100,116.875400,1
"3401232014B00045","7e5af4a4-3504-49a3-9d5b-a97cf92649e4","安徽省","合肥市","蜀山区","桃花工业园",31.770728,117.213464,31.758420,117.197600,1
"3401232014B00055","8be5ce68-9f46-4009-9b1f-3dae274832e4","安徽省","合肥市","肥西县","紫蓬镇",31.748534,117.074774,31.757050,117.019448,1
"3401002016B02208","d99d3fa5-c3ed-4a5d-8f24-a2b7424a2d4e","安徽省","合肥市","包河区","合肥市包河区龙川路以北、塔川路以西",31.808043,117.287323,31.795470,117.304296,1
"3401232016B00806","5821c5d5-7f3a-44d3-98e5-c6ae69ec89e1","安徽省","合肥市","肥西县","花岗镇",31.638249,117.053711,31.630500,117.051760,1
"3401212013B00722","0e78f02b-5be1-4520-a986-43c5d506c341","安徽省","合肥市","长丰县","水湖镇",32.482825,117.149682,32.481620,117.159960,1
"3401212013B00744","0b51ab32-5769-4ca6-9622-8b2ab51a4cb9","安徽省","合肥市","长丰县","双墩镇",32.051383,117.240122,32.008018,117.250576,1
"3401222012B01769-1","2839a835-db83-46b1-a224-47cb22a2593f","安徽省","合肥市","瑶海区","撮镇镇东风大道东淮南铁路北",31.860213,117.423740,32.149670,117.423984,1
"3401212015B01976","4b77d585-9bea-49b7-9af0-731a874c3e67","安徽省","合肥市","长丰县","岗集镇",31.997379,117.147602,31.951960,117.179896,1
"3401222009B00708","50a3b901-cfb2-43aa-8ca9-7766f2862070","安徽省","合肥市","肥东县","肥东县撮镇镇龙塘青年工业园境内",31.835973,117.413238,31.848300,117.429576,1
"3401222009B00695","721681e4-9d6f-40bb-b01e-a54789d18304","安徽省","合肥市","肥东县","肥东县撮镇镇龙塘青年工业园境内",31.835973,117.413238,31.848300,117.429576,1
"3401232012B00113","591a1ea2-63fb-417c-b920-2e82064ba7be","安徽省","合肥市","肥西县","高店乡",31.896863,116.853679,31.903796,116.827152,1
"3401212012A00477","49fd6235-0426-4d49-9039-6daef6b3c9ec","安徽省","合肥市","长丰县","长丰县双墩镇",32.051383,117.240122,32.009732,117.259032,1
"3401002014B08660","7e95642f-c0e5-4456-b5e0-499cc59f90d0","安徽省","合肥市","肥西县","合肥高新区铭传路与石莲南路交口东北角（KN7-3-1）地块",31.837523,117.142245,31.833120,117.130176,1
"3401232011B00829","19ba438b-0998-4cd0-966b-3a6ddddb441c","安徽省","合肥市","蜀山区","新港工业园",31.826578,117.233443,31.712270,117.244104,1
"3401222012B00486","994dbe02-fd12-4d10-ad43-7c7a795dc126","安徽省","合肥市","肥东县","撮镇镇建华社区",31.838399,117.408140,31.823840,117.379792,1
"3401222015A00087","53667a73-ed3f-4eaa-a6fd-31584a50f6fc","安徽省","合肥市","肥东县","肥东县合肥东部新市镇",31.893890,117.475401,31.826780,117.407664,1
"3401232011B00897","992d414b-feb2-4ced-af76-2850b877ae1e","安徽省","合肥市","肥西县","合肥市肥西县新港工业园",31.712962,117.164558,31.784660,117.162248,1
"3401002014B08674","dbeeeec9-2d24-48f1-a2a2-aa87d75bdf65","安徽省","合肥市","肥西县","合肥高新区习友路与学田路交口东北角（KQ1-3）地块",31.837523,117.142245,31.833120,117.130176,1
"3401232014B00354","e78c013a-c823-4ef1-8b1b-94b1ae349d3c","安徽省","合肥市","肥西县","柏堰科技园",31.801087,117.190623,31.799500,117.161200,1
"3401212010B00869","fad91f51-c71a-4143-ae85-5a3885825db8","安徽省","合肥市","长丰县","北至村级道路、南至新店居委会土地、西至新店居委会土地、东至新店居委会土地",31.952494,117.332436,31.920300,117.255056,1
"3401002015B01195","4706416e-0466-44ac-955c-e02ac3277bda","安徽省","合肥市","长丰县","合肥市新站区玉皇山路以北、大禹路以东",31.946812,117.345728,31.942390,117.334272,1
"3401002016B01889","55fe109c-2abd-4567-9c46-63149272b01a","安徽省","合肥市","包河区","合肥市包河区宿松路174号南1幢108室",31.841039,117.280137,31.837100,117.268096,1
"3401002013B02068","d69a393a-1195-4479-afcf-99d5b0a40a7e","安徽省","合肥市","蜀山区","合肥市庐阳区长江路406号",31.862799,117.262996,31.880730,117.259472,1
"3401002008B03018","d7a764d3-9f2a-4eae-ab24-37776a0681b9","安徽省","合肥市","瑶海区","大通路11号",31.866119,117.319192,31.822454,117.222312,1
"3401212015B01946","ecb1ef66-b421-4980-bcef-56b68d953ddc","安徽省","合肥市","长丰县","岗集镇",31.997379,117.147602,31.951960,117.179896,1
"3401222016B02255","444623bb-1dcb-4c63-b3ab-8c54c7755373","安徽省","合肥市","肥东县","肥东经开区祥和路西侧",31.889535,117.436136,31.882770,117.434776,1
"3401002012B01226","3fea5d3a-ad75-495e-bf9f-daade7e8872e","安徽省","合肥市","蜀山区","合肥市高新示范区浮山路与燕子河路交口西北角（KD1-2）地块",31.831217,117.157494,31.827262,117.128208,1
"3401222012B00601","426787cd-cdfc-447e-9d45-2f962e5244f8","安徽省","合肥市","肥东县","撮镇镇新安社区",31.838399,117.408140,31.824310,117.428520,1
"3401222012B00546","94d18494-e482-489f-8f17-2fcb3b89def4","安徽省","合肥市","肥东县","合肥循环经济示范园境内",31.809502,117.497090,31.822400,117.474696,1
"3401222012B01289-1","b7b3c7fc-673d-4179-8ed4-b4ce64a0ef31","安徽省","合肥市","肥东县","肥东经开区包公大道与长山路交口西南角",31.897348,117.419219,31.882770,117.434776,1
"3401002016B02401","0fdf1f1b-76c7-4d39-bc24-de14be659d00","安徽省","合肥市","蜀山区","合肥市高新区杭埠路与玉兰大道交口东南角BB-5-1地块",31.818129,117.172041,31.803890,117.153048,1
"3401002016B02730","eba5be28-1aa5-4142-aa6b-5024a9c5d4fd","安徽省","合肥市","庐阳区","合肥市庐阳区亳州路亳州新村6幢107室",31.881332,117.269987,31.878700,117.259800,1
"3401222013B00470","fbfad81e-3515-4460-a313-f304a3a7abe1","安徽省","合肥市","肥东县","肥东县撮镇镇唐安社区",31.838399,117.408140,31.830490,117.396664,1
"3401232009B00934","6947d4a9-52ac-47c0-b1a8-3a88e2e13998","安徽省","合肥市","肥西县","紫蓬山旅游开发区",31.749664,117.029842,31.745670,117.017896,1
"3401002013B07379","87bbd2c8-aec3-4863-b09b-cf5642646c23","安徽省","合肥市","庐阳区","合肥市庐阳区阜阳路5号",31.871770,117.291931,31.880730,117.259472,1
"3401232016B01246","d477a1b6-107d-42e6-b718-216973594333","安徽省","合肥市","蜀山区","桃花工业园",31.770728,117.213464,31.758420,117.197600,1
"3401222008B01149","3dbc0022-c471-4b9d-b6a2-96fc85995723","安徽省","合肥市","肥东县","撮镇镇合马路北",31.817135,117.485905,31.851390,117.545480,1
"3401222008B00058","d166ce5b-02e1-473b-bf76-b97a77adfe3d","安徽省","合肥市","肥东县","肥东县撮镇镇曹营街东侧",31.824717,117.478528,31.820142,117.466448,1
"3401222018B01960","22c8bc9b-5c0d-483a-aa0b-5c98dacf8231","安徽省","合肥市","肥东县","肥东县撮镇镇瑶岗路北侧",31.838399,117.408140,31.846944,117.485576,1
"3401002014B08296","f1c52076-e32a-4406-ab6f-517f62d1de17","安徽省","合肥市","瑶海区","合肥市新站区毕升路以东、岱河路以南",31.914453,117.383730,31.910018,117.371752,1
"3401212015B00077","b47c43af-c502-40ec-afd5-c329a735db99","安徽省","合肥市","长丰县","杨庙镇",32.206118,117.078945,32.201012,117.081400,1
"3401002018B03070","ba0674bc-cad4-4644-8e2a-0101994df47e","安徽省","合肥市","肥西县","上派镇灯塔路以南、妙道山路以东",31.699810,117.158332,31.695542,117.146032,1
"3401222012A01318","c0985afc-c9a6-429a-9148-89eab168a29e","安徽省","合肥市","肥东县","肥东县店埠镇对河社区",31.861792,117.530608,31.887182,117.465744,1
"3401222012A01471","33309578-00ea-4a81-a0ab-9baeed76c304","安徽省","合肥市","肥东县","肥东经济开发区境内",31.893890,117.475401,31.636848,117.945168,1
"3401222015A01419","d433dbdb-4fe7-400e-933e-7bb54200f5be","安徽省","合肥市","肥东县","肥东县长临河镇官塘路与滨河路交口东南角",31.696651,117.467847,31.692310,117.455712,1
"3401002015B03402","e32e524a-5f56-496f-8cc4-52d19ca8c1a3","安徽省","合肥市","肥西县","合肥高新区长宁大道与彩虹路交口西南角KP2-1、2地块",31.837523,117.142245,31.842484,117.126184,1
"3401002010B00186","2f170ad2-1318-4c10-81b5-b2cceb5192ab","安徽省","合肥市","包河区","包河工业区长春街北",31.797785,117.332141,31.799730,117.347344,1
"3401232015B01148","6754fe8f-0cc1-478b-a23d-243c24f88d25","安徽省","合肥市","肥西县","柏堰科技园",31.801087,117.190623,31.799500,117.161200,1
"3401232012B01520","0dd82f08-e674-4b5e-820a-4c27a47e82ae","安徽省","合肥市","肥西县","小庙镇",31.859246,117.005544,31.845360,117.012120,1
"3401222012B01386","f413f5db-e509-490d-8c9c-8fdc04c82fe0","安徽省","合肥市","肥东县","肥东经济区浍河路北",31.902693,117.433019,31.882770,117.434776,1
"3401212010B00657","3388e75e-5e13-42b5-86ba-d0a18955d00c","安徽省","合肥市","庐阳区","吴山镇 合淮路西侧，正望饲料公司南侧",31.924775,117.218389,32.065442,117.079432,1
"3401232012B00467","4c6a513e-09bd-4779-9d28-53c3ea8449b4","安徽省","合肥市","肥西县","花岗镇",31.638249,117.053711,31.630500,117.051760,1
"3401222009B00965","6017f836-e46a-43b4-bded-6035d6f25a19","安徽省","合肥市","肥西县","新区横大路北侧",31.850717,117.010586,31.861684,117.446152,1
"3401222009B00258","666016cc-11c8-4a83-bd32-68056ef5757b","安徽省","合肥市","肥东县","新区祥和路",31.889535,117.436136,31.881242,117.424176,1
"3401212012B00122","22558e6d-690d-43ee-b506-27f2595ac8bf","安徽省","合肥市","长丰县","吴山镇  东至百花大道，南至合肥中联机械，北至吴山派出所",32.069719,117.094021,32.065640,117.081848,1
"3401212012B00072","43927e7a-2046-4f36-a62a-aece0a9e6f4f","安徽省","合肥市","长丰县","吴山镇  东至百花大道，南至华德利，北至巨龙",32.069881,117.094698,31.838440,117.240696,1
"3401212012B00115","d7ca878f-1f59-483a-8750-981b987fefba","安徽省","合肥市","长丰县","吴山镇  东至百花大道，南至吴王大道",32.069881,117.094698,31.838440,117.240696,1
"3401222007B00398","f0f3866d-7e16-47f6-a6f7-a92ff5a7b882","安徽省","合肥市","肥东县","新区晨光路东侧",31.874000,117.438420,31.247888,117.311016,1
"3401002007B00848","37409f40-6e83-4760-a32d-8d4de7c0f546C","安徽省","合肥市","庐阳区","金寨路以东、红星路以南",31.865287,117.293654,31.861652,117.279264,1
"3401232007B00408","9137b9bc-0c7d-40d1-93b1-28ad6f9b1a12","安徽省","合肥市","肥西县","桃花镇",31.771536,117.157251,31.778360,117.214000,1
"3401222007B00150","906f6287-2e92-446d-a606-d4f7b1825182","安徽省","合肥市","肥东县","撮镇镇马桥村店忠路西侧",31.830165,117.490846,31.837482,117.468760,1
"3401002007B00298","d614441a-4cfc-4ec8-8d43-e089c997d21c","安徽省","合肥市","蜀山区","岳西路以西",31.849478,117.231836,31.843300,117.219904,1
"3401222015B00540","f4982bad-1685-4180-b2f7-22d134cc5544","安徽省","合肥市","肥东县","店埠镇八斗路桥东北角",31.861792,117.530608,31.891790,117.473024,1
"3401222016A02707","6e19034d-beb7-4093-a498-d59e2a8a3ad6","安徽省","合肥市","肥东县","合肥循环经济示范园境内",31.809502,117.497090,31.822400,117.474696,1
"3401002012B02801","e906abf2-80e1-4bfb-8141-0f1f2397be38","安徽省","合肥市","蜀山区","合肥经济技术开发区蓬莱路西、汤口路北",31.753896,117.215460,31.741608,117.207096,1
"3401002008B03039","64b6ffd3-37f9-46ac-9d0f-597bd14262dc","安徽省","合肥市","包河区","当涂路与包河大道交口",31.822145,117.308949,31.762310,117.318544,1
"3401002011B00713","44279bcf-bdf5-4db0-bdde-d7d1c6b72938","安徽省","合肥市","肥西县","高新区南岗科技园大别山路北侧（NJ1-2）地块",31.865961,117.124802,31.860566,117.110280,1
"3401222011A00827","6238c131-a797-4513-9021-23761f878f79","安徽省","合肥市","肥东县","肥东县长临河镇境内",31.696651,117.467847,31.692310,117.455712,1
"3401002008B02599","355bba78-c0e3-4e0f-a707-6805f4beb557","安徽省","合肥市","蜀山区","汤口路北、桃源路西",31.753728,117.217587,31.747232,117.194256,1
"3401002015B02333","ee783f15-1762-4fe7-b0e8-e63b3d3a2cc7","安徽省","合肥市","肥西县","合肥市高新区长宁大道与明珠大道交口东南角（KN1-1）地块",31.809692,117.121831,31.805250,117.133768,1
"3401232015B01159","8f86a2a1-0b4b-4711-875f-7d48fa3cf1d2","安徽省","合肥市","蜀山区","桃花工业园",31.770728,117.213464,31.758420,117.197600,1
"3401222015B00934","f930abbb-6df1-4649-8924-780d1739e835","安徽省","合肥市","肥东县","众兴乡永安村",31.978503,117.465524,31.974240,117.453344,1
"3401212008A00023","ac27d7f6-10c8-45ff-aebc-b485a85395dc","安徽省","合肥市","长丰县","双墩镇",32.051383,117.240122,32.008018,117.250576,1
"3401002014B01803","24ab2a5e-7fec-4fcb-b13f-f375b345deb7","安徽省","合肥市","肥西县","合肥高新区白莲岩路与天龙路交口东南角（ND1-3）地块",31.837523,117.142245,31.833120,117.130176,1
"3401002009B03526","42188ac2-88d2-4284-93c7-45f1a5b67b7aC","安徽省","合肥市","庐阳区","金池路以东、汲桥路以北",31.947890,117.276246,31.906488,117.283472,1
"3401212014B00075","60700d68-46b8-4b76-a6b3-151e58b44bc5","安徽省","合肥市","长丰县","双墩镇",32.051383,117.240122,32.008018,117.250576,1
"3401212014B00102","7de915d8-c6b0-47ce-8734-eb137c2fdef5","安徽省","合肥市","长丰县","双墩镇",32.051383,117.240122,32.008018,117.250576,1
"3401212014B00057","8860f1da-e951-4b25-af75-95da2735ee83","安徽省","合肥市","长丰县","双墩镇",32.051383,117.240122,32.008018,117.250576,1
"3401232012B00019","a96df242-eba4-4feb-8faf-f89da04046c2","安徽省","合肥市","肥西县","桃花镇",31.771536,117.157251,31.778360,117.214000,1
"3401232012B00036","5e563405-3df2-40e5-bbf7-4e2079552680","安徽省","合肥市","肥西县","桃花镇",31.771536,117.157251,31.778360,117.214000,1
"3401222014B00646","b7699fff-784c-44e9-9371-bb02f6dda599","安徽省","合肥市","肥东县","肥东经济开发区龙脊山路西",31.893890,117.475401,31.636848,117.945168,1
"3401232011B00272","217d0f6f-2a99-43d3-924d-07fe27a763f2","安徽省","合肥市","肥西县","紫蓬镇",31.748534,117.074774,31.757050,117.019448,1
"3401232011B00396","6a1e220c-89b5-4bbb-a40a-640fbfa14d85","安徽省","合肥市","蜀山区","桃花工业园",31.770728,117.213464,31.758420,117.197600,1
"3401002009B04415","801588eb-360e-4ed8-ad70-dbcd02d89435C","安徽省","合肥市","蜀山区","肥西路东",31.849912,117.266286,31.822454,117.222312,1
"3401222009A00989","af8add5c-de30-45d1-9ae3-f91b50d95c46","安徽省","合肥市","肥东县","肥东县新区境内",31.893890,117.475401,32.027648,117.659128,1
"3401002014B01355","6125a062-f536-45da-bece-a3757279a7ac","安徽省","合肥市","包河区","合肥市包河区规划河南路以东、黄河路以北",31.852684,117.309792,31.830070,117.266512,1
"3401212010A01319","9e2bb883-55f5-42c8-8e6c-e3caec6cae66","安徽省","合肥市","长丰县","长丰县岗集镇",31.997379,117.147602,31.951960,117.179896,1
"3401212014B00228","058fb8ed-db3b-43e3-9ef2-5d67ef7bf617","安徽省","合肥市","长丰县","双凤开发区",31.991296,117.242381,32.032616,117.254976,1
"3401212014B00243","34c03d4a-70d7-427c-93a0-3ee697520c99","安徽省","合肥市","长丰县","岗集镇",31.997379,117.147602,31.951960,117.179896,1
"3401212012B00157","9a4d13fb-d1d5-4c5d-9652-58f4979d26b8","安徽省","合肥市","庐阳区","罗塘乡合淮路西侧",31.924775,117.218389,32.065442,117.079432,1
"3401212012B00096","e1b89e8f-1fd0-41e4-8015-3539c774a257","安徽省","合肥市","长丰县","长丰县杨庙镇合淮路西侧",32.207653,117.092752,32.065442,117.079432,1
"3401002018A02095","be5f97b9-3b16-42cc-9a93-ec074bf6bcb3","安徽省","合肥市","蜀山区","合肥市包河区休宁路以北",31.829966,117.245863,31.795470,117.304336,1
"3401002011B00636","1f3d87f8-1d89-42d0-ad33-f833b23ee04e","安徽省","合肥市","蜀山区","高新示范区浮山路以东（KD2-1）地块",31.831218,117.157493,31.827136,117.145368,1
"3401002014B09237","d859ff4d-26c7-4b18-9473-d4c9f031140f","安徽省","合肥市","肥西县","合肥高新区复兴路与创新大道交口东南角KI3-1-2地块",31.837523,117.142245,31.833120,117.130176,1
"3401002014B09225","b57a7c6a-19a6-478b-836f-5adf9496ba3a","安徽省","合肥市","肥西县","合肥高新区皖水路与创新大道交口西南角（KF7-10）地块",31.837523,117.142245,31.833120,117.130176,1
"3401222007B00210","6ec2eced-43d8-4821-aa3b-b30642930c2b","安徽省","合肥市","肥东县","新区祥和路东侧",31.889535,117.436136,31.822454,117.222312,1
"3401212007B00309","894af420-9ffc-40ee-a776-ad64a5ec1bcf","安徽省","合肥市","长丰县","双凤开发区",31.991296,117.242381,32.032616,117.254976,1
"3401212007B00317","625e73c4-be71-43e3-ad97-22319e458e7b","安徽省","合肥市","长丰县","双凤开发区",31.991296,117.242381,32.032616,117.254976,1
"3401002007B00462","50c9b70e-7c0e-4fe6-9db2-3c5cd685b28f","安徽省","合肥市","包河区","包河大道东",31.767957,117.326410,31.754030,117.323320,1
"3401002008B00647","180DC7D7224E4CA99212271F77ABFFE8","安徽省","合肥市","包河区","屯溪路",31.856349,117.282398,31.847550,117.271984,1
"3401222009B01390","e8bf5b1a-3721-435e-aa98-7e2b2d082896","安徽省","合肥市","肥东县","肥东县元疃工业聚集区",32.089951,117.391210,32.085900,117.379544,1
"3401222009B00996","c39d3b45-e963-4a35-a714-2e90d136d2a2","安徽省","合肥市","蜀山区","新区陡岗路南侧",31.826578,117.233443,31.135972,117.455816,1
"3401222018B01380","bfcbe08e-ce2d-43fa-9314-036e6c3bafe3","安徽省","合肥市","肥东县","合肥循环经济示范园港口路西侧",31.809502,117.497090,31.822400,117.474696,1
"3401222018B01347","b55a05f5-60c8-401a-b72b-3841f5e8a088","安徽省","合肥市","肥东县","肥东县白龙镇店白路西侧",32.066859,117.481920,32.149230,117.423040,1
"3401222013B01047","2ebeed54-cfec-475a-90c6-b181eb813694","安徽省","合肥市","肥东县","肥东县古城镇杨塘社区",32.123159,117.795913,32.102230,117.776288,1
"3401002016B02637","d7c6a740-0f38-40aa-bb46-818d619e3395","安徽省","合肥市","肥西县","合肥市滨湖区洞庭湖路以南，华山路以东",31.740243,117.304079,31.776124,117.143216,1
"3401222015B00332","2ef6a8ef-3520-4b95-82ab-16743ab4551a","安徽省","合肥市","肥东县","撮镇镇军天湖路东侧",31.838399,117.408140,31.838184,117.198288,1
"3401232014B00307","4032ae71-2dd4-47e8-83aa-5d681992f6ea","安徽省","合肥市","蜀山区","桃花工业园",31.770728,117.213464,31.758420,117.197600,1
"3401002014B08116","b48a2d64-d081-4c50-82a7-891aab5bdd46","安徽省","合肥市","庐阳区","合肥市庐阳区十字街粮贸回迁楼一层9号",31.884887,117.271459,31.880730,117.259472,1
"3401222007B00038","e3b71ff8-8bc8-496d-a7c0-fda0a881b073","安徽省","合肥市","肥东县","店埠镇撮镇路东侧",31.861792,117.530608,31.880844,117.464976,1
"3401222010B00736","d8358a32-b8ca-444e-8c72-678fee8ca557","安徽省","合肥市","瑶海区","撮镇镇裕溪路南侧",31.850802,117.354666,31.589242,117.878408,1
"3401232012B01139","338eb1e6-1ffa-47f5-8094-e48bb97dff14","安徽省","合肥市","蜀山区","桃花工业园",31.770728,117.213464,31.758420,117.197600,1
"3401232012B01206","ad393f04-9155-4acb-967e-672ecbac3b26","安徽省","合肥市","肥西县","紫蓬镇",31.748534,117.074774,31.757050,117.019448,1
"3401002012B02376","5450e9f4-d30f-4aff-adc1-e63ec5ff6ae5","安徽省","合肥市","庐阳区","合肥市庐阳区五河路",31.882491,117.292094,31.878738,117.278704,1
